{
  "locale": "hi",
  "country": {
    "id": 31,
    "code": "BR",
    "iso3": "BRA",
    "numeric_code": "076",
    "name": "ब्राज़िल",
    "name_default": "Brazil",
    "native": "Brasil",
    "capital": "Brasilia",
    "phonecode": "55",
    "currency": "BRL",
    "currency_name": "Brazilian real",
    "currency_symbol": "R$",
    "tld": ".br",
    "population": 213421037,
    "gdp": 2125958,
    "region": "Americas",
    "region_id": 2,
    "subregion": "South America",
    "subregion_id": 8,
    "nationality": "Brazilian",
    "timezones": [
      {
        "zoneName": "America/Araguaina",
        "gmtOffset": -10800,
        "gmtOffsetName": "UTC-03:00",
        "abbreviation": "BRT",
        "tzName": "Brasília Time"
      },
      {
        "zoneName": "America/Bahia",
        "gmtOffset": -10800,
        "gmtOffsetName": "UTC-03:00",
        "abbreviation": "BRT",
        "tzName": "Brasília Time"
      },
      {
        "zoneName": "America/Belem",
        "gmtOffset": -10800,
        "gmtOffsetName": "UTC-03:00",
        "abbreviation": "BRT",
        "tzName": "Brasília Time"
      },
      {
        "zoneName": "America/Boa_Vista",
        "gmtOffset": -14400,
        "gmtOffsetName": "UTC-04:00",
        "abbreviation": "AMT",
        "tzName": "Amazon Time (Brazil)[3"
      },
      {
        "zoneName": "America/Campo_Grande",
        "gmtOffset": -14400,
        "gmtOffsetName": "UTC-04:00",
        "abbreviation": "AMT",
        "tzName": "Amazon Time (Brazil)[3"
      },
      {
        "zoneName": "America/Cuiaba",
        "gmtOffset": -14400,
        "gmtOffsetName": "UTC-04:00",
        "abbreviation": "BRT",
        "tzName": "Brasilia Time"
      },
      {
        "zoneName": "America/Eirunepe",
        "gmtOffset": -18000,
        "gmtOffsetName": "UTC-05:00",
        "abbreviation": "ACT",
        "tzName": "Acre Time"
      },
      {
        "zoneName": "America/Fortaleza",
        "gmtOffset": -10800,
        "gmtOffsetName": "UTC-03:00",
        "abbreviation": "BRT",
        "tzName": "Brasília Time"
      },
      {
        "zoneName": "America/Maceio",
        "gmtOffset": -10800,
        "gmtOffsetName": "UTC-03:00",
        "abbreviation": "BRT",
        "tzName": "Brasília Time"
      },
      {
        "zoneName": "America/Manaus",
        "gmtOffset": -14400,
        "gmtOffsetName": "UTC-04:00",
        "abbreviation": "AMT",
        "tzName": "Amazon Time (Brazil)"
      },
      {
        "zoneName": "America/Noronha",
        "gmtOffset": -7200,
        "gmtOffsetName": "UTC-02:00",
        "abbreviation": "FNT",
        "tzName": "Fernando de Noronha Time"
      },
      {
        "zoneName": "America/Porto_Velho",
        "gmtOffset": -14400,
        "gmtOffsetName": "UTC-04:00",
        "abbreviation": "AMT",
        "tzName": "Amazon Time (Brazil)[3"
      },
      {
        "zoneName": "America/Recife",
        "gmtOffset": -10800,
        "gmtOffsetName": "UTC-03:00",
        "abbreviation": "BRT",
        "tzName": "Brasília Time"
      },
      {
        "zoneName": "America/Rio_Branco",
        "gmtOffset": -18000,
        "gmtOffsetName": "UTC-05:00",
        "abbreviation": "ACT",
        "tzName": "Acre Time"
      },
      {
        "zoneName": "America/Santarem",
        "gmtOffset": -10800,
        "gmtOffsetName": "UTC-03:00",
        "abbreviation": "BRT",
        "tzName": "Brasília Time"
      },
      {
        "zoneName": "America/Sao_Paulo",
        "gmtOffset": -10800,
        "gmtOffsetName": "UTC-03:00",
        "abbreviation": "BRT",
        "tzName": "Brasília Time"
      }
    ],
    "latitude": "-10.00000000",
    "longitude": "-55.00000000",
    "emoji": "🇧🇷",
    "emojiU": "U+1F1E7 U+1F1F7"
  },
  "state": {
    "id": 2000,
    "code": "GO",
    "iso2": "GO",
    "iso3166_2": "BR-GO",
    "fips_code": "29",
    "name": "गोइआस",
    "name_default": "Goiás",
    "native": "Goiás",
    "type": "state",
    "level": "1",
    "parent_id": null,
    "population": 7350480,
    "latitude": "-15.93236620",
    "longitude": "-50.13929280",
    "timezone": "America/Sao_Paulo",
    "wikiDataId": "Q41587",
    "country_code": "BR"
  },
  "cities": [
    {
      "id": 10053,
      "name": "अबादिया डे गोइआस",
      "name_default": "Abadia de Goiás",
      "native": "Abadia de Goiás",
      "type": "city",
      "level": null,
      "parent_id": null,
      "population": 22052,
      "latitude": "-16.77762000",
      "longitude": "-49.46841000",
      "timezone": "America/Sao_Paulo",
      "wikiDataId": "Q304652",
      "country_code": "BR",
      "state_code": "GO",
      "state_id": 2000,
      "country_id": 31
    },
    {
      "id": 10055,
      "name": "अबादियानिया",
      "name_default": "Abadiânia",
      "native": "Abadiânia",
      "type": "city",
      "level": null,
      "parent_id": null,
      "population": 17738,
      "latitude": "-16.22632000",
      "longitude": "-48.62681000",
      "timezone": "America/Sao_Paulo",
      "wikiDataId": "Q304716",
      "country_code": "BR",
      "state_code": "GO",
      "state_id": 2000,
      "country_id": 31
    },
    {
      "id": 10079,
      "name": "एक्रेउना",
      "name_default": "Acreúna",
      "native": "Acres",
      "type": "city",
      "level": null,
      "parent_id": null,
      "population": 22079,
      "latitude": "-17.43605000",
      "longitude": "-50.26696000",
      "timezone": "America/Sao_Paulo",
      "wikiDataId": "Q507567",
      "country_code": "BR",
      "state_code": "GO",
      "state_id": 2000,
      "country_id": 31
    },
    {
      "id": 10081,
      "name": "एडेलेंडिया",
      "name_default": "Adelândia",
      "native": "Adelândia",
      "type": "city",
      "level": null,
      "parent_id": null,
      "population": 2282,
      "latitude": "-16.38577000",
      "longitude": "-50.18846000",
      "timezone": "America/Sao_Paulo",
      "wikiDataId": "Q1637498",
      "country_code": "BR",
      "state_code": "GO",
      "state_id": 2000,
      "country_id": 31
    },
    {
      "id": 15660,
      "name": "Água Fria de Goiás",
      "name_default": "Água Fria de Goiás",
      "native": "Água Fria de Goiás",
      "type": "city",
      "level": null,
      "parent_id": null,
      "population": 4979,
      "latitude": "-14.96056000",
      "longitude": "-47.84963000",
      "timezone": "America/Sao_Paulo",
      "wikiDataId": "Q1796727",
      "country_code": "BR",
      "state_code": "GO",
      "state_id": 2000,
      "country_id": 31
    },
    {
      "id": 15661,
      "name": "अगुआ लिम्पा",
      "name_default": "Água Limpa",
      "native": "Água Limpa",
      "type": "city",
      "level": null,
      "parent_id": null,
      "population": 1843,
      "latitude": "-18.07999000",
      "longitude": "-48.79951000",
      "timezone": "America/Sao_Paulo",
      "wikiDataId": "Q1796727",
      "country_code": "BR",
      "state_code": "GO",
      "state_id": 2000,
      "country_id": 31
    },
    {
      "id": 15668,
      "name": "Águas Lindas de Goiás",
      "name_default": "Águas Lindas de Goiás",
      "native": "Águas Lindas de Goiás",
      "type": "city",
      "level": null,
      "parent_id": null,
      "population": 245352,
      "latitude": "-15.76613000",
      "longitude": "-48.28611000",
      "timezone": "America/Sao_Paulo",
      "wikiDataId": "Q1756605",
      "country_code": "BR",
      "state_code": "GO",
      "state_id": 2000,
      "country_id": 31
    },
    {
      "id": 10129,
      "name": "एलेक्सानिया",
      "name_default": "Alexânia",
      "native": "Alexânia",
      "type": "city",
      "level": null,
      "parent_id": null,
      "population": 28244,
      "latitude": "-16.14926000",
      "longitude": "-48.45973000",
      "timezone": "America/Sao_Paulo",
      "wikiDataId": "Q2099372",
      "country_code": "BR",
      "state_code": "GO",
      "state_id": 2000,
      "country_id": 31
    },
    {
      "id": 10146,
      "name": "अलोंडिया",
      "name_default": "Aloândia",
      "native": "Allndia",
      "type": "city",
      "level": null,
      "parent_id": null,
      "population": 1977,
      "latitude": "-17.69411000",
      "longitude": "-49.44985000",
      "timezone": "America/Sao_Paulo",
      "wikiDataId": "Q988880",
      "country_code": "BR",
      "state_code": "GO",
      "state_id": 2000,
      "country_id": 31
    },
    {
      "id": 10171,
      "name": "ऑल्टो होरिज़ोंटे",
      "name_default": "Alto Horizonte",
      "native": "Alto Horizonte",
      "type": "city",
      "level": null,
      "parent_id": null,
      "population": 6487,
      "latitude": "-14.20236000",
      "longitude": "-49.43500000",
      "timezone": "America/Sao_Paulo",
      "wikiDataId": "Q443458",
      "country_code": "BR",
      "state_code": "GO",
      "state_id": 2000,
      "country_id": 31
    },
    {
      "id": 10178,
      "name": "ऑल्टो पैराइसो डी गोइआस",
      "name_default": "Alto Paraíso de Goiás",
      "native": "Alto Paraíso de Goiás",
      "type": "city",
      "level": null,
      "parent_id": null,
      "population": 10306,
      "latitude": "-14.18198000",
      "longitude": "-47.45902000",
      "timezone": "America/Sao_Paulo",
      "wikiDataId": "Q22060523",
      "country_code": "BR",
      "state_code": "GO",
      "state_id": 2000,
      "country_id": 31
    },
    {
      "id": 10199,
      "name": "अल्वोराडा डो नॉर्टे",
      "name_default": "Alvorada do Norte",
      "native": "Alvorada do Norte",
      "type": "city",
      "level": null,
      "parent_id": null,
      "population": 8619,
      "latitude": "-14.52424000",
      "longitude": "-46.64133000",
      "timezone": "America/Sao_Paulo",
      "wikiDataId": "Q449593",
      "country_code": "BR",
      "state_code": "GO",
      "state_id": 2000,
      "country_id": 31
    },
    {
      "id": 10208,
      "name": "अमरालिना",
      "name_default": "Amaralina",
      "native": "Amaralina",
      "type": "city",
      "level": null,
      "parent_id": null,
      "population": 3267,
      "latitude": "-13.81390000",
      "longitude": "-49.63205000",
      "timezone": "America/Sao_Paulo",
      "wikiDataId": "Q33955",
      "country_code": "BR",
      "state_code": "GO",
      "state_id": 2000,
      "country_id": 31
    },
    {
      "id": 10214,
      "name": "अमेरिकानो डो ब्रासिल",
      "name_default": "Americano do Brasil",
      "native": "Americano do Brasil",
      "type": "city",
      "level": null,
      "parent_id": null,
      "population": 5259,
      "latitude": "-16.26498000",
      "longitude": "-49.99408000",
      "timezone": "America/Sao_Paulo",
      "wikiDataId": "Q467421",
      "country_code": "BR",
      "state_code": "GO",
      "state_id": 2000,
      "country_id": 31
    },
    {
      "id": 10217,
      "name": "अमोरिनोपोलिस",
      "name_default": "Amorinópolis",
      "native": "Amorinópolis",
      "type": "city",
      "level": null,
      "parent_id": null,
      "population": 2906,
      "latitude": "-16.63420000",
      "longitude": "-51.09852000",
      "timezone": "America/Sao_Paulo",
      "wikiDataId": "Q947378",
      "country_code": "BR",
      "state_code": "GO",
      "state_id": 2000,
      "country_id": 31
    },
    {
      "id": 10282,
      "name": "अनापोलिस",
      "name_default": "Anápolis",
      "native": "Anápolis",
      "type": "city",
      "level": null,
      "parent_id": null,
      "population": 319587,
      "latitude": "-16.32667000",
      "longitude": "-48.95278000",
      "timezone": "America/Sao_Paulo",
      "wikiDataId": "Q223422",
      "country_code": "BR",
      "state_code": "GO",
      "state_id": 2000,
      "country_id": 31
    },
    {
      "id": 10260,
      "name": "Anhanguera",
      "name_default": "Anhanguera",
      "native": "Anhanguera",
      "type": "city",
      "level": null,
      "parent_id": null,
      "population": 913,
      "latitude": "-18.31505000",
      "longitude": "-48.22190000",
      "timezone": "America/Sao_Paulo",
      "wikiDataId": "Q1793031",
      "country_code": "BR",
      "state_code": "GO",
      "state_id": 2000,
      "country_id": 31
    },
    {
      "id": 10263,
      "name": "अनिकुन्स",
      "name_default": "Anicuns",
      "native": "Unicuns",
      "type": "city",
      "level": null,
      "parent_id": null,
      "population": 18503,
      "latitude": "-16.38582000",
      "longitude": "-49.97942000",
      "timezone": "America/Sao_Paulo",
      "wikiDataId": "Q22067260",
      "country_code": "BR",
      "state_code": "GO",
      "state_id": 2000,
      "country_id": 31
    },
    {
      "id": 10287,
      "name": "Aparecida de Goiânia",
      "name_default": "Aparecida de Goiânia",
      "native": "Aparecida de Goiânia",
      "type": "city",
      "level": null,
      "parent_id": null,
      "population": 510770,
      "latitude": "-16.82333000",
      "longitude": "-49.24389000",
      "timezone": "America/Sao_Paulo",
      "wikiDataId": "Q459711",
      "country_code": "BR",
      "state_code": "GO",
      "state_id": 2000,
      "country_id": 31
    },
    {
      "id": 10288,
      "name": "Aparecida do Rio Doce",
      "name_default": "Aparecida do Rio Doce",
      "native": "Aparecida do Rio Doce",
      "type": "city",
      "level": null,
      "parent_id": null,
      "population": 3045,
      "latitude": "-18.22963000",
      "longitude": "-51.24140000",
      "timezone": "America/Sao_Paulo",
      "wikiDataId": "Q459711",
      "country_code": "BR",
      "state_code": "GO",
      "state_id": 2000,
      "country_id": 31
    },
    {
      "id": 10299,
      "name": "अपोरे",
      "name_default": "Aporé",
      "native": "Esporo",
      "type": "city",
      "level": null,
      "parent_id": null,
      "population": 4488,
      "latitude": "-18.74325000",
      "longitude": "-52.06942000",
      "timezone": "America/Sao_Paulo",
      "wikiDataId": "Q22067258",
      "country_code": "BR",
      "state_code": "GO",
      "state_id": 2000,
      "country_id": 31
    },
    {
      "id": 10372,
      "name": "अराकू",
      "name_default": "Araçu",
      "native": "Arach",
      "type": "city",
      "level": null,
      "parent_id": null,
      "population": 3840,
      "latitude": "-16.38304000",
      "longitude": "-49.70782000",
      "timezone": "America/Sao_Paulo",
      "wikiDataId": "Q1754621",
      "country_code": "BR",
      "state_code": "GO",
      "state_id": 2000,
      "country_id": 31
    },
    {
      "id": 10315,
      "name": "अरागार्कास",
      "name_default": "Aragarças",
      "native": "Aragarças",
      "type": "city",
      "level": null,
      "parent_id": null,
      "population": 18390,
      "latitude": "-15.94743000",
      "longitude": "-52.08069000",
      "timezone": "America/Sao_Paulo",
      "wikiDataId": "Q22067256",
      "country_code": "BR",
      "state_code": "GO",
      "state_id": 2000,
      "country_id": 31
    },
    {
      "id": 10316,
      "name": "अरागोइआनिया",
      "name_default": "Aragoiânia",
      "native": "Aragão",
      "type": "city",
      "level": null,
      "parent_id": null,
      "population": 12806,
      "latitude": "-16.95418000",
      "longitude": "-49.40598000",
      "timezone": "America/Sao_Paulo",
      "wikiDataId": "Q22067256",
      "country_code": "BR",
      "state_code": "GO",
      "state_id": 2000,
      "country_id": 31
    },
    {
      "id": 10323,
      "name": "अरागुआपाज़",
      "name_default": "Araguapaz",
      "native": "Araguapaz",
      "type": "city",
      "level": null,
      "parent_id": null,
      "population": 7152,
      "latitude": "-15.12986000",
      "longitude": "-50.49840000",
      "timezone": "America/Sao_Paulo",
      "wikiDataId": "Q957649",
      "country_code": "BR",
      "state_code": "GO",
      "state_id": 2000,
      "country_id": 31
    },
    {
      "id": 10391,
      "name": "एरेनोपोलिस",
      "name_default": "Arenópolis",
      "native": "Arenópolis",
      "type": "city",
      "level": null,
      "parent_id": null,
      "population": 2904,
      "latitude": "-16.36096000",
      "longitude": "-51.60464000",
      "timezone": "America/Sao_Paulo",
      "wikiDataId": "Q1806305",
      "country_code": "BR",
      "state_code": "GO",
      "state_id": 2000,
      "country_id": 31
    },
    {
      "id": 10418,
      "name": "अरुआना",
      "name_default": "Aruanã",
      "native": "Aruanã",
      "type": "city",
      "level": null,
      "parent_id": null,
      "population": 8570,
      "latitude": "-14.81020000",
      "longitude": "-50.94501000",
      "timezone": "America/Sao_Paulo",
      "wikiDataId": "Q1754345",
      "country_code": "BR",
      "state_code": "GO",
      "state_id": 2000,
      "country_id": 31
    },
    {
      "id": 10449,
      "name": "ऑरिलैंडिया",
      "name_default": "Aurilândia",
      "native": "Aurilândia",
      "type": "city",
      "level": null,
      "parent_id": null,
      "population": 3237,
      "latitude": "-16.67681000",
      "longitude": "-50.52582000",
      "timezone": "America/Sao_Paulo",
      "wikiDataId": "Q268956",
      "country_code": "BR",
      "state_code": "GO",
      "state_id": 2000,
      "country_id": 31
    },
    {
      "id": 10460,
      "name": "एवेलिनोपोलिस",
      "name_default": "Avelinópolis",
      "native": "Avelinópolis",
      "type": "city",
      "level": null,
      "parent_id": null,
      "population": 2993,
      "latitude": "-16.49121000",
      "longitude": "-49.76368000",
      "timezone": "America/Sao_Paulo",
      "wikiDataId": "Q782812",
      "country_code": "BR",
      "state_code": "GO",
      "state_id": 2000,
      "country_id": 31
    },
    {
      "id": 10483,
      "name": "बलिजा",
      "name_default": "Baliza",
      "native": "Baliza",
      "type": "city",
      "level": null,
      "parent_id": null,
      "population": 3306,
      "latitude": "-16.36672000",
      "longitude": "-52.43611000",
      "timezone": "America/Sao_Paulo",
      "wikiDataId": "Q804068",
      "country_code": "BR",
      "state_code": "GO",
      "state_id": 2000,
      "country_id": 31
    },
    {
      "id": 10561,
      "name": "बारो ऑल्टो",
      "name_default": "Barro Alto",
      "native": "Barro Alto",
      "type": "city",
      "level": null,
      "parent_id": null,
      "population": 10853,
      "latitude": "-14.91276000",
      "longitude": "-48.87739000",
      "timezone": "America/Sao_Paulo",
      "wikiDataId": "Q2155729",
      "country_code": "BR",
      "state_code": "GO",
      "state_id": 2000,
      "country_id": 31
    },
    {
      "id": 10596,
      "name": "बेला विस्टा डे गोइआस",
      "name_default": "Bela Vista de Goiás",
      "native": "Bela Vista de Goiás",
      "type": "city",
      "level": null,
      "parent_id": null,
      "population": 34445,
      "latitude": "-16.97278000",
      "longitude": "-48.95333000",
      "timezone": "America/Sao_Paulo",
      "wikiDataId": "Q815101",
      "country_code": "BR",
      "state_code": "GO",
      "state_id": 2000,
      "country_id": 31
    },
    {
      "id": 10696,
      "name": "Bom Jardim de Goiás",
      "name_default": "Bom Jardim de Goiás",
      "native": "Bom Jardim de Goiás",
      "type": "city",
      "level": null,
      "parent_id": null,
      "population": 7775,
      "latitude": "-16.27033000",
      "longitude": "-52.05682000",
      "timezone": "America/Sao_Paulo",
      "wikiDataId": "Q2279959",
      "country_code": "BR",
      "state_code": "GO",
      "state_id": 2000,
      "country_id": 31
    },
    {
      "id": 10707,
      "name": "Bom Jesus de Goiás",
      "name_default": "Bom Jesus de Goiás",
      "native": "Bom Jesus de Goiás",
      "type": "city",
      "level": null,
      "parent_id": null,
      "population": 24925,
      "latitude": "-18.19213000",
      "longitude": "-49.89536000",
      "timezone": "America/Sao_Paulo",
      "wikiDataId": "Q891727",
      "country_code": "BR",
      "state_code": "GO",
      "state_id": 2000,
      "country_id": 31
    },
    {
      "id": 10733,
      "name": "बोनफिनोपोलिस",
      "name_default": "Bonfinópolis",
      "native": "Bonphinopol",
      "type": "city",
      "level": null,
      "parent_id": null,
      "population": 11025,
      "latitude": "-16.59726000",
      "longitude": "-49.01486000",
      "timezone": "America/Sao_Paulo",
      "wikiDataId": "Q2089257",
      "country_code": "BR",
      "state_code": "GO",
      "state_id": 2000,
      "country_id": 31
    },
    {
      "id": 10742,
      "name": "बोनोपोलिस",
      "name_default": "Bonópolis",
      "native": "Bonópolis",
      "type": "adm2",
      "level": null,
      "parent_id": null,
      "population": 3289,
      "latitude": "-13.57725000",
      "longitude": "-49.89702000",
      "timezone": "America/Sao_Paulo",
      "wikiDataId": "Q776733",
      "country_code": "BR",
      "state_code": "GO",
      "state_id": 2000,
      "country_id": 31
    },
    {
      "id": 10778,
      "name": "ब्राज़ाब्रांटेस",
      "name_default": "Brazabrantes",
      "native": "Brazabrant",
      "type": "city",
      "level": null,
      "parent_id": null,
      "population": 4201,
      "latitude": "-16.37909000",
      "longitude": "-49.38445000",
      "timezone": "America/Sao_Paulo",
      "wikiDataId": "Q22062752",
      "country_code": "BR",
      "state_code": "GO",
      "state_id": 2000,
      "country_id": 31
    },
    {
      "id": 10803,
      "name": "ब्रिटानिया",
      "name_default": "Britânia",
      "native": "Britânia",
      "type": "city",
      "level": null,
      "parent_id": null,
      "population": 5798,
      "latitude": "-15.21115000",
      "longitude": "-51.14785000",
      "timezone": "America/Sao_Paulo",
      "wikiDataId": "Q780494",
      "country_code": "BR",
      "state_code": "GO",
      "state_id": 2000,
      "country_id": 31
    },
    {
      "id": 10824,
      "name": "बुरीटी एलेग्रे",
      "name_default": "Buriti Alegre",
      "native": "Buriti Alegre",
      "type": "city",
      "level": null,
      "parent_id": null,
      "population": 10495,
      "latitude": "-18.14000000",
      "longitude": "-49.04028000",
      "timezone": "America/Sao_Paulo",
      "wikiDataId": "Q779122",
      "country_code": "BR",
      "state_code": "GO",
      "state_id": 2000,
      "country_id": 31
    },
    {
      "id": 10826,
      "name": "बुरीति दे गोइआस",
      "name_default": "Buriti de Goiás",
      "native": "Buriti de Goiás",
      "type": "city",
      "level": null,
      "parent_id": null,
      "population": 2800,
      "latitude": "-16.16439000",
      "longitude": "-50.42918000",
      "timezone": "America/Sao_Paulo",
      "wikiDataId": "Q2013234",
      "country_code": "BR",
      "state_code": "GO",
      "state_id": 2000,
      "country_id": 31
    },
    {
      "id": 10831,
      "name": "बुरिटिनोपोलिस",
      "name_default": "Buritinópolis",
      "native": "Buritinópolis",
      "type": "city",
      "level": null,
      "parent_id": null,
      "population": 3140,
      "latitude": "-14.40974000",
      "longitude": "-46.31759000",
      "timezone": "America/Sao_Paulo",
      "wikiDataId": "Q2064004",
      "country_code": "BR",
      "state_code": "GO",
      "state_id": 2000,
      "country_id": 31
    },
    {
      "id": 10848,
      "name": "कैबेसीरस",
      "name_default": "Cabeceiras",
      "native": "Cabeceiras",
      "type": "city",
      "level": null,
      "parent_id": null,
      "population": 7560,
      "latitude": "-15.73747000",
      "longitude": "-47.03428000",
      "timezone": "America/Sao_Paulo",
      "wikiDataId": "Q279492",
      "country_code": "BR",
      "state_code": "GO",
      "state_id": 2000,
      "country_id": 31
    },
    {
      "id": 10862,
      "name": "कचोइरा अल्टा",
      "name_default": "Cachoeira Alta",
      "native": "Cachoeira Alta",
      "type": "city",
      "level": null,
      "parent_id": null,
      "population": 11854,
      "latitude": "-18.54284000",
      "longitude": "-50.98208000",
      "timezone": "America/Sao_Paulo",
      "wikiDataId": "Q985576",
      "country_code": "BR",
      "state_code": "GO",
      "state_id": 2000,
      "country_id": 31
    },
    {
      "id": 10868,
      "name": "काचोइरा डे गोइआस",
      "name_default": "Cachoeira de Goiás",
      "native": "Cachoeira de Goiás",
      "type": "city",
      "level": null,
      "parent_id": null,
      "population": 1417,
      "latitude": "-16.72507000",
      "longitude": "-50.68613000",
      "timezone": "America/Sao_Paulo",
      "wikiDataId": "Q1760112",
      "country_code": "BR",
      "state_code": "GO",
      "state_id": 2000,
      "country_id": 31
    },
    {
      "id": 10864,
      "name": "कचोइरा डोराडा",
      "name_default": "Cachoeira Dourada",
      "native": "Cachoeira Dourada",
      "type": "city",
      "level": null,
      "parent_id": null,
      "population": 2337,
      "latitude": "-18.49516000",
      "longitude": "-49.65104000",
      "timezone": "America/Sao_Paulo",
      "wikiDataId": "Q22062738",
      "country_code": "BR",
      "state_code": "GO",
      "state_id": 2000,
      "country_id": 31
    },
    {
      "id": 11224,
      "name": "कैकू",
      "name_default": "Caçu",
      "native": "Caçu",
      "type": "city",
      "level": null,
      "parent_id": null,
      "population": 14034,
      "latitude": "-18.55667000",
      "longitude": "-51.13083000",
      "timezone": "America/Sao_Paulo",
      "wikiDataId": "Q1052080",
      "country_code": "BR",
      "state_code": "GO",
      "state_id": 2000,
      "country_id": 31
    },
    {
      "id": 10900,
      "name": "Caiaponia",
      "name_default": "Caiapônia",
      "native": "Caiapônia",
      "type": "city",
      "level": null,
      "parent_id": null,
      "population": 16628,
      "latitude": "-16.95987000",
      "longitude": "-51.79148000",
      "timezone": "America/Sao_Paulo",
      "wikiDataId": "Q1761543",
      "country_code": "BR",
      "state_code": "GO",
      "state_id": 2000,
      "country_id": 31
    },
    {
      "id": 10925,
      "name": "कैलदास नोवास",
      "name_default": "Caldas Novas",
      "native": "Caldas Novas",
      "type": "adm2",
      "level": null,
      "parent_id": null,
      "population": 106820,
      "latitude": "-17.73126000",
      "longitude": "-48.65479000",
      "timezone": "America/Sao_Paulo",
      "wikiDataId": "Q120708",
      "country_code": "BR",
      "state_code": "GO",
      "state_id": 2000,
      "country_id": 31
    },
    {
      "id": 10926,
      "name": "कैल्दाज़िन्हा",
      "name_default": "Caldazinha",
      "native": "Caldazinha",
      "type": "city",
      "level": null,
      "parent_id": null,
      "population": 4819,
      "latitude": "-16.74858000",
      "longitude": "-49.00064000",
      "timezone": "America/Sao_Paulo",
      "wikiDataId": "Q120708",
      "country_code": "BR",
      "state_code": "GO",
      "state_id": 2000,
      "country_id": 31
    },
    {
      "id": 10960,
      "name": "कैम्पेस्ट्रे डे गोइआस",
      "name_default": "Campestre de Goiás",
      "native": "Campestre de Goiás",
      "type": "city",
      "level": null,
      "parent_id": null,
      "population": 3879,
      "latitude": "-16.78337000",
      "longitude": "-49.70958000",
      "timezone": "America/Sao_Paulo",
      "wikiDataId": "Q22062719",
      "country_code": "BR",
      "state_code": "GO",
      "state_id": 2000,
      "country_id": 31
    },
    {
      "id": 10973,
      "name": "कैम्पिनासु",
      "name_default": "Campinaçu",
      "native": "Campinaçu",
      "type": "city",
      "level": null,
      "parent_id": null,
      "population": 3760,
      "latitude": "-13.86371000",
      "longitude": "-48.56754000",
      "timezone": "America/Sao_Paulo",
      "wikiDataId": "Q2365292",
      "country_code": "BR",
      "state_code": "GO",
      "state_id": 2000,
      "country_id": 31
    },
    {
      "id": 10974,
      "name": "कैम्पिनोर्टे",
      "name_default": "Campinorte",
      "native": "Campinorte",
      "type": "city",
      "level": null,
      "parent_id": null,
      "population": 12983,
      "latitude": "-14.04500000",
      "longitude": "-48.97524000",
      "timezone": "America/Sao_Paulo",
      "wikiDataId": "Q2365292",
      "country_code": "BR",
      "state_code": "GO",
      "state_id": 2000,
      "country_id": 31
    },
    {
      "id": 10978,
      "name": "कैम्पो एलेग्रे डे गोइआस",
      "name_default": "Campo Alegre de Goiás",
      "native": "Campo Alegre de Goiás",
      "type": "city",
      "level": null,
      "parent_id": null,
      "population": 7422,
      "latitude": "-17.67336000",
      "longitude": "-47.77801000",
      "timezone": "America/Sao_Paulo",
      "wikiDataId": "Q2028275",
      "country_code": "BR",
      "state_code": "GO",
      "state_id": 2000,
      "country_id": 31
    },
    {
      "id": 10995,
      "name": "कैम्पो लिम्पो डे गोइआस",
      "name_default": "Campo Limpo de Goiás",
      "native": "Campo Limpo de Goiás",
      "type": "adm2",
      "level": null,
      "parent_id": null,
      "population": 8579,
      "latitude": "-16.30048000",
      "longitude": "-49.09041000",
      "timezone": "America/Sao_Paulo",
      "wikiDataId": "Q989794",
      "country_code": "BR",
      "state_code": "GO",
      "state_id": 2000,
      "country_id": 31
    },
    {
      "id": 11009,
      "name": "कैम्पोस बेलोस",
      "name_default": "Campos Belos",
      "native": "Campos Belos",
      "type": "city",
      "level": null,
      "parent_id": null,
      "population": 18108,
      "latitude": "-13.03667000",
      "longitude": "-46.77167000",
      "timezone": "America/Sao_Paulo",
      "wikiDataId": "Q991108",
      "country_code": "BR",
      "state_code": "GO",
      "state_id": 2000,
      "country_id": 31
    },
    {
      "id": 11016,
      "name": "कैम्पोस वर्डेस",
      "name_default": "Campos Verdes",
      "native": "Campos verdes",
      "type": "city",
      "level": null,
      "parent_id": null,
      "population": 3822,
      "latitude": "-14.19022000",
      "longitude": "-49.65835000",
      "timezone": "America/Sao_Paulo",
      "wikiDataId": "Q1811948",
      "country_code": "BR",
      "state_code": "GO",
      "state_id": 2000,
      "country_id": 31
    },
    {
      "id": 11149,
      "name": "कार्मो डो रियो वर्डे",
      "name_default": "Carmo do Rio Verde",
      "native": "Carmo do Rio Verde",
      "type": "city",
      "level": null,
      "parent_id": null,
      "population": 9988,
      "latitude": "-15.35361000",
      "longitude": "-49.70750000",
      "timezone": "America/Sao_Paulo",
      "wikiDataId": "Q1805778",
      "country_code": "BR",
      "state_code": "GO",
      "state_id": 2000,
      "country_id": 31
    },
    {
      "id": 11189,
      "name": "Castelandia",
      "name_default": "Castelândia",
      "native": "Castelândia",
      "type": "city",
      "level": null,
      "parent_id": null,
      "population": 2871,
      "latitude": "-18.15581000",
      "longitude": "-50.34000000",
      "timezone": "America/Sao_Paulo",
      "wikiDataId": "Q2078710",
      "country_code": "BR",
      "state_code": "GO",
      "state_id": 2000,
      "country_id": 31
    },
    {
      "id": 11194,
      "name": "कैटालो",
      "name_default": "Catalão",
      "native": "Catalão",
      "type": "city",
      "level": null,
      "parent_id": null,
      "population": 114427,
      "latitude": "-18.16583000",
      "longitude": "-47.94639000",
      "timezone": "America/Sao_Paulo",
      "wikiDataId": "Q35135",
      "country_code": "BR",
      "state_code": "GO",
      "state_id": 2000,
      "country_id": 31
    },
    {
      "id": 11210,
      "name": "कैटुराई",
      "name_default": "Caturaí",
      "native": "Caturaí",
      "type": "city",
      "level": null,
      "parent_id": null,
      "population": 5352,
      "latitude": "-16.46981000",
      "longitude": "-49.59556000",
      "timezone": "America/Sao_Paulo",
      "wikiDataId": "Q22059575",
      "country_code": "BR",
      "state_code": "GO",
      "state_id": 2000,
      "country_id": 31
    },
    {
      "id": 11215,
      "name": "कैवलकैंटे",
      "name_default": "Cavalcante",
      "native": "Cavalcante",
      "type": "city",
      "level": null,
      "parent_id": null,
      "population": 9583,
      "latitude": "-13.79750000",
      "longitude": "-47.45833000",
      "timezone": "America/Sao_Paulo",
      "wikiDataId": "Q988763",
      "country_code": "BR",
      "state_code": "GO",
      "state_id": 2000,
      "country_id": 31
    },
    {
      "id": 11245,
      "name": "सायरस",
      "name_default": "Ceres",
      "native": "Ceres",
      "type": "city",
      "level": null,
      "parent_id": null,
      "population": 22570,
      "latitude": "-15.27350000",
      "longitude": "-49.64455000",
      "timezone": "America/Sao_Paulo",
      "wikiDataId": "Q2019995",
      "country_code": "BR",
      "state_code": "GO",
      "state_id": 2000,
      "country_id": 31
    },
    {
      "id": 11257,
      "name": "सेज़ारिना",
      "name_default": "Cezarina",
      "native": "Caesarina",
      "type": "city",
      "level": null,
      "parent_id": null,
      "population": 8301,
      "latitude": "-17.11818000",
      "longitude": "-49.72995000",
      "timezone": "America/Sao_Paulo",
      "wikiDataId": "Q1786013",
      "country_code": "BR",
      "state_code": "GO",
      "state_id": 2000,
      "country_id": 31
    },
    {
      "id": 11266,
      "name": "Chapadão do Céu",
      "name_default": "Chapadão do Céu",
      "native": "Chapadão do Céu",
      "type": "city",
      "level": null,
      "parent_id": null,
      "population": 14321,
      "latitude": "-18.37043000",
      "longitude": "-52.56560000",
      "timezone": "America/Sao_Paulo",
      "wikiDataId": "Q746060",
      "country_code": "BR",
      "state_code": "GO",
      "state_id": 2000,
      "country_id": 31
    },
    {
      "id": 11291,
      "name": "सिडेड ओसीडेंटल",
      "name_default": "Cidade Ocidental",
      "native": "Cidade Ocidental",
      "type": "city",
      "level": null,
      "parent_id": null,
      "population": 101570,
      "latitude": "-16.16178000",
      "longitude": "-47.79998000",
      "timezone": "America/Sao_Paulo",
      "wikiDataId": "Q1803580",
      "country_code": "BR",
      "state_code": "GO",
      "state_id": 2000,
      "country_id": 31
    },
    {
      "id": 11311,
      "name": "कोकाल्ज़िन्हो डे गोइआस",
      "name_default": "Cocalzinho de Goiás",
      "native": "Cocalzinho de Goiás",
      "type": "city",
      "level": null,
      "parent_id": null,
      "population": 27196,
      "latitude": "-15.65900000",
      "longitude": "-48.57595000",
      "timezone": "America/Sao_Paulo",
      "wikiDataId": "Q511764",
      "country_code": "BR",
      "state_code": "GO",
      "state_id": 2000,
      "country_id": 31
    },
    {
      "id": 11324,
      "name": "कोलिनास डो सुल",
      "name_default": "Colinas do Sul",
      "native": "Colinas do Sul",
      "type": "adm2",
      "level": null,
      "parent_id": null,
      "population": 4188,
      "latitude": "-14.01221000",
      "longitude": "-48.05124000",
      "timezone": "America/Sao_Paulo",
      "wikiDataId": "Q1759203",
      "country_code": "BR",
      "state_code": "GO",
      "state_id": 2000,
      "country_id": 31
    },
    {
      "id": 11557,
      "name": "कोरेगो डो ओरो",
      "name_default": "Córrego do Ouro",
      "native": "Córrego do Ouro",
      "type": "city",
      "level": null,
      "parent_id": null,
      "population": 3794,
      "latitude": "-16.39566000",
      "longitude": "-50.57320000",
      "timezone": "America/Sao_Paulo",
      "wikiDataId": "Q1791989",
      "country_code": "BR",
      "state_code": "GO",
      "state_id": 2000,
      "country_id": 31
    },
    {
      "id": 11443,
      "name": "कोरुम्बा डे गोइआस",
      "name_default": "Corumbá de Goiás",
      "native": "Corumbá de Goiás",
      "type": "city",
      "level": null,
      "parent_id": null,
      "population": 10724,
      "latitude": "-15.92190000",
      "longitude": "-48.62979000",
      "timezone": "America/Sao_Paulo",
      "wikiDataId": "Q271215",
      "country_code": "BR",
      "state_code": "GO",
      "state_id": 2000,
      "country_id": 31
    },
    {
      "id": 11440,
      "name": "कोरुम्बैबा",
      "name_default": "Corumbaíba",
      "native": "Corumbaíba",
      "type": "city",
      "level": null,
      "parent_id": null,
      "population": 9484,
      "latitude": "-18.16664000",
      "longitude": "-48.53205000",
      "timezone": "America/Sao_Paulo",
      "wikiDataId": "Q1061205",
      "country_code": "BR",
      "state_code": "GO",
      "state_id": 2000,
      "country_id": 31
    },
    {
      "id": 11471,
      "name": "क्रिस्टालीना",
      "name_default": "Cristalina",
      "native": "Cristalina",
      "type": "adm2",
      "level": null,
      "parent_id": null,
      "population": 66827,
      "latitude": "-16.76769000",
      "longitude": "-47.61530000",
      "timezone": "America/Sao_Paulo",
      "wikiDataId": "Q1012541",
      "country_code": "BR",
      "state_code": "GO",
      "state_id": 2000,
      "country_id": 31
    },
    {
      "id": 11475,
      "name": "क्रिस्टियानोपोलिस",
      "name_default": "Cristianópolis",
      "native": "Cristianópolis",
      "type": "city",
      "level": null,
      "parent_id": null,
      "population": 3670,
      "latitude": "-17.19669000",
      "longitude": "-48.68114000",
      "timezone": "America/Sao_Paulo",
      "wikiDataId": "Q1012541",
      "country_code": "BR",
      "state_code": "GO",
      "state_id": 2000,
      "country_id": 31
    },
    {
      "id": 11483,
      "name": "Crixas",
      "name_default": "Crixás",
      "native": "Crixás",
      "type": "city",
      "level": null,
      "parent_id": null,
      "population": 17532,
      "latitude": "-14.54889000",
      "longitude": "-49.96917000",
      "timezone": "America/Sao_Paulo",
      "wikiDataId": "Q177030",
      "country_code": "BR",
      "state_code": "GO",
      "state_id": 2000,
      "country_id": 31
    },
    {
      "id": 11486,
      "name": "क्रोमिनिया",
      "name_default": "Cromínia",
      "native": "Cromínia",
      "type": "city",
      "level": null,
      "parent_id": null,
      "population": 3999,
      "latitude": "-17.24762000",
      "longitude": "-49.32979000",
      "timezone": "America/Sao_Paulo",
      "wikiDataId": "Q177030",
      "country_code": "BR",
      "state_code": "GO",
      "state_id": 2000,
      "country_id": 31
    },
    {
      "id": 11512,
      "name": "कुमारि",
      "name_default": "Cumari",
      "native": "Cumari",
      "type": "city",
      "level": null,
      "parent_id": null,
      "population": 2951,
      "latitude": "-18.31597000",
      "longitude": "-48.16375000",
      "timezone": "America/Sao_Paulo",
      "wikiDataId": "Q2064364",
      "country_code": "BR",
      "state_code": "GO",
      "state_id": 2000,
      "country_id": 31
    },
    {
      "id": 11559,
      "name": "डैमियानोपोलिस",
      "name_default": "Damianópolis",
      "native": "Damianópolis",
      "type": "city",
      "level": null,
      "parent_id": null,
      "population": 3917,
      "latitude": "-14.54949000",
      "longitude": "-46.19367000",
      "timezone": "America/Sao_Paulo",
      "wikiDataId": "Q1806869",
      "country_code": "BR",
      "state_code": "GO",
      "state_id": 2000,
      "country_id": 31
    },
    {
      "id": 11561,
      "name": "दामोलैंडिया",
      "name_default": "Damolândia",
      "native": "Damolândia",
      "type": "city",
      "level": null,
      "parent_id": null,
      "population": 2753,
      "latitude": "-16.25109000",
      "longitude": "-49.34505000",
      "timezone": "America/Sao_Paulo",
      "wikiDataId": "Q663661",
      "country_code": "BR",
      "state_code": "GO",
      "state_id": 2000,
      "country_id": 31
    },
    {
      "id": 11566,
      "name": "डेविनोपोलिस",
      "name_default": "Davinópolis",
      "native": "Davinópolis",
      "type": "city",
      "level": null,
      "parent_id": null,
      "population": 14828,
      "latitude": "-18.13603000",
      "longitude": "-47.57750000",
      "timezone": "America/Sao_Paulo",
      "wikiDataId": "Q663661",
      "country_code": "BR",
      "state_code": "GO",
      "state_id": 2000,
      "country_id": 31
    },
    {
      "id": 11596,
      "name": "चित्रावली",
      "name_default": "Diorama",
      "native": "Diorama",
      "type": "city",
      "level": null,
      "parent_id": null,
      "population": 1991,
      "latitude": "-16.22318000",
      "longitude": "-51.34971000",
      "timezone": "America/Sao_Paulo",
      "wikiDataId": "Q2296402",
      "country_code": "BR",
      "state_code": "GO",
      "state_id": 2000,
      "country_id": 31
    },
    {
      "id": 11607,
      "name": "डिविनोपोलिस डी गोइआस",
      "name_default": "Divinópolis de Goiás",
      "native": "Divinópolis de Goiás",
      "type": "city",
      "level": null,
      "parent_id": null,
      "population": 4405,
      "latitude": "-13.22378000",
      "longitude": "-46.52704000",
      "timezone": "America/Sao_Paulo",
      "wikiDataId": "Q926606",
      "country_code": "BR",
      "state_code": "GO",
      "state_id": 2000,
      "country_id": 31
    },
    {
      "id": 11661,
      "name": "डोवरलैंडिया",
      "name_default": "Doverlândia",
      "native": "DesserlânDia",
      "type": "city",
      "level": null,
      "parent_id": null,
      "population": 6823,
      "latitude": "-16.87767000",
      "longitude": "-52.49917000",
      "timezone": "America/Sao_Paulo",
      "wikiDataId": "Q651874",
      "country_code": "BR",
      "state_code": "GO",
      "state_id": 2000,
      "country_id": 31
    },
    {
      "id": 11674,
      "name": "एडेलिना",
      "name_default": "Edealina",
      "native": "ErnhoneLuk",
      "type": "city",
      "level": null,
      "parent_id": null,
      "population": 4104,
      "latitude": "-17.43990000",
      "longitude": "-49.73319000",
      "timezone": "America/Sao_Paulo",
      "wikiDataId": "Q1794439",
      "country_code": "BR",
      "state_code": "GO",
      "state_id": 2000,
      "country_id": 31
    },
    {
      "id": 11675,
      "name": "एडिया",
      "name_default": "Edéia",
      "native": "Edéia",
      "type": "city",
      "level": null,
      "parent_id": null,
      "population": 11982,
      "latitude": "-17.33833000",
      "longitude": "-49.93139000",
      "timezone": "America/Sao_Paulo",
      "wikiDataId": "Q1794351",
      "country_code": "BR",
      "state_code": "GO",
      "state_id": 2000,
      "country_id": 31
    },
    {
      "id": 11755,
      "name": "एस्ट्रेला डो नॉर्ट",
      "name_default": "Estrela do Norte",
      "native": "Estrela do Norte",
      "type": "city",
      "level": null,
      "parent_id": null,
      "population": 2751,
      "latitude": "-13.78262000",
      "longitude": "-49.10026000",
      "timezone": "America/Sao_Paulo",
      "wikiDataId": "Q1795726",
      "country_code": "BR",
      "state_code": "GO",
      "state_id": 2000,
      "country_id": 31
    },
    {
      "id": 11772,
      "name": "फ़ैना",
      "name_default": "Faina",
      "native": "Farinha",
      "type": "city",
      "level": null,
      "parent_id": null,
      "population": 7167,
      "latitude": "-15.43697000",
      "longitude": "-50.39151000",
      "timezone": "America/Sao_Paulo",
      "wikiDataId": "Q988788",
      "country_code": "BR",
      "state_code": "GO",
      "state_id": 2000,
      "country_id": 31
    },
    {
      "id": 11785,
      "name": "फ़ज़ेंडा नोवा",
      "name_default": "Fazenda Nova",
      "native": "Fazenda Nova",
      "type": "city",
      "level": null,
      "parent_id": null,
      "population": 5842,
      "latitude": "-16.12866000",
      "longitude": "-50.92604000",
      "timezone": "America/Sao_Paulo",
      "wikiDataId": "Q2005159",
      "country_code": "BR",
      "state_code": "GO",
      "state_id": 2000,
      "country_id": 31
    },
    {
      "id": 11823,
      "name": "फ़िरमिनोपोलिस",
      "name_default": "Firminópolis",
      "native": "Firminópolis",
      "type": "city",
      "level": null,
      "parent_id": null,
      "population": 10419,
      "latitude": "-16.58194000",
      "longitude": "-50.30500000",
      "timezone": "America/Sao_Paulo",
      "wikiDataId": "Q991093",
      "country_code": "BR",
      "state_code": "GO",
      "state_id": 2000,
      "country_id": 31
    },
    {
      "id": 11832,
      "name": "फ्लोरेस डी गोइआस",
      "name_default": "Flores de Goiás",
      "native": "Flores de Goiás",
      "type": "city",
      "level": null,
      "parent_id": null,
      "population": 14273,
      "latitude": "-14.59003000",
      "longitude": "-46.87853000",
      "timezone": "America/Sao_Paulo",
      "wikiDataId": "Q1757597",
      "country_code": "BR",
      "state_code": "GO",
      "state_id": 2000,
      "country_id": 31
    },
    {
      "id": 11852,
      "name": "Formosa",
      "name_default": "Formosa",
      "native": "Formosa",
      "type": "city",
      "level": null,
      "parent_id": null,
      "population": 115901,
      "latitude": "-15.53722000",
      "longitude": "-47.33444000",
      "timezone": "America/Sao_Paulo",
      "wikiDataId": "Q1003392",
      "country_code": "BR",
      "state_code": "GO",
      "state_id": 2000,
      "country_id": 31
    },
    {
      "id": 11858,
      "name": "फ़ॉर्मोसो",
      "name_default": "Formoso",
      "native": "Formoso",
      "type": "city",
      "level": null,
      "parent_id": null,
      "population": 4662,
      "latitude": "-13.70339000",
      "longitude": "-48.87538000",
      "timezone": "America/Sao_Paulo",
      "wikiDataId": "Q1762128",
      "country_code": "BR",
      "state_code": "GO",
      "state_id": 2000,
      "country_id": 31
    },
    {
      "id": 11916,
      "name": "गेमलेइरा डी गोइआस",
      "name_default": "Gameleira de Goiás",
      "native": "Gameleira de Goiás",
      "type": "city",
      "level": null,
      "parent_id": null,
      "population": 3563,
      "latitude": "-16.43131000",
      "longitude": "-48.67456000",
      "timezone": "America/Sao_Paulo",
      "wikiDataId": "Q301331",
      "country_code": "BR",
      "state_code": "GO",
      "state_id": 2000,
      "country_id": 31
    },
    {
      "id": 11963,
      "name": "गोयानापोलिस",
      "name_default": "Goianápolis",
      "native": "Goianápolis",
      "type": "city",
      "level": null,
      "parent_id": null,
      "population": 14758,
      "latitude": "-16.53041000",
      "longitude": "-49.08769000",
      "timezone": "America/Sao_Paulo",
      "wikiDataId": "Q985611",
      "country_code": "BR",
      "state_code": "GO",
      "state_id": 2000,
      "country_id": 31
    },
    {
      "id": 11958,
      "name": "गोइआंदिरा",
      "name_default": "Goiandira",
      "native": "Ir",
      "type": "city",
      "level": null,
      "parent_id": null,
      "population": 4962,
      "latitude": "-18.10979000",
      "longitude": "-48.14934000",
      "timezone": "America/Sao_Paulo",
      "wikiDataId": "Q1767210",
      "country_code": "BR",
      "state_code": "GO",
      "state_id": 2000,
      "country_id": 31
    },
    {
      "id": 11964,
      "name": "गोइनेसिया",
      "name_default": "Goianésia",
      "native": "Goianésia",
      "type": "city",
      "level": null,
      "parent_id": null,
      "population": 73707,
      "latitude": "-15.31750000",
      "longitude": "-49.11750000",
      "timezone": "America/Sao_Paulo",
      "wikiDataId": "Q988771",
      "country_code": "BR",
      "state_code": "GO",
      "state_id": 2000,
      "country_id": 31
    },
    {
      "id": 11971,
      "name": "गोइआनिया",
      "name_default": "Goiânia",
      "native": "Goiânia",
      "type": "adm1",
      "level": null,
      "parent_id": null,
      "population": 1503256,
      "latitude": "-16.67861000",
      "longitude": "-49.25389000",
      "timezone": "America/Sao_Paulo",
      "wikiDataId": "Q83189",
      "country_code": "BR",
      "state_code": "GO",
      "state_id": 2000,
      "country_id": 31
    },
    {
      "id": 11960,
      "name": "गोइनानिका",
      "name_default": "Goianira",
      "native": "Goianira",
      "type": "city",
      "level": null,
      "parent_id": null,
      "population": 71916,
      "latitude": "-16.49611000",
      "longitude": "-49.42639000",
      "timezone": "America/Sao_Paulo",
      "wikiDataId": "Q281011",
      "country_code": "BR",
      "state_code": "GO",
      "state_id": 2000,
      "country_id": 31
    },
    {
      "id": 11970,
      "name": "गोइआस",
      "name_default": "Goiás",
      "native": "Goiás",
      "type": "city",
      "level": null,
      "parent_id": null,
      "population": 24071,
      "latitude": "-15.93444000",
      "longitude": "-50.14028000",
      "timezone": "America/Sao_Paulo",
      "wikiDataId": "Q427697",
      "country_code": "BR",
      "state_code": "GO",
      "state_id": 2000,
      "country_id": 31
    },
    {
      "id": 11967,
      "name": "गोइयातुबा",
      "name_default": "Goiatuba",
      "native": "Goiatuba",
      "type": "city",
      "level": null,
      "parent_id": null,
      "population": 35664,
      "latitude": "-18.01250000",
      "longitude": "-49.35472000",
      "timezone": "America/Sao_Paulo",
      "wikiDataId": "Q1797061",
      "country_code": "BR",
      "state_code": "GO",
      "state_id": 2000,
      "country_id": 31
    },
    {
      "id": 11977,
      "name": "गौवेलैंडिया",
      "name_default": "Gouvelândia",
      "native": "Gouvelândia",
      "type": "adm2",
      "level": null,
      "parent_id": null,
      "population": 4313,
      "latitude": "-18.50777000",
      "longitude": "-50.17554000",
      "timezone": "America/Sao_Paulo",
      "wikiDataId": "Q22066972",
      "country_code": "BR",
      "state_code": "GO",
      "state_id": 2000,
      "country_id": 31
    },
    {
      "id": 12033,
      "name": "ग्वापो",
      "name_default": "Guapó",
      "native": "Bonito",
      "type": "city",
      "level": null,
      "parent_id": null,
      "population": 19545,
      "latitude": "-16.83056000",
      "longitude": "-49.53194000",
      "timezone": "America/Sao_Paulo",
      "wikiDataId": "Q986256",
      "country_code": "BR",
      "state_code": "GO",
      "state_id": 2000,
      "country_id": 31
    },
    {
      "id": 12062,
      "name": "गुआराइता",
      "name_default": "Guaraíta",
      "native": "Guaraíta",
      "type": "city",
      "level": null,
      "parent_id": null,
      "population": 2170,
      "latitude": "-15.65961000",
      "longitude": "-50.06663000",
      "timezone": "America/Sao_Paulo",
      "wikiDataId": "Q1779983",
      "country_code": "BR",
      "state_code": "GO",
      "state_id": 2000,
      "country_id": 31
    },
    {
      "id": 12046,
      "name": "गुआरानी डे गोइआस",
      "name_default": "Guarani de Goiás",
      "native": "Guarani de Goiás",
      "type": "city",
      "level": null,
      "parent_id": null,
      "population": 4091,
      "latitude": "-13.88485000",
      "longitude": "-46.50711000",
      "timezone": "America/Sao_Paulo",
      "wikiDataId": "Q1649834",
      "country_code": "BR",
      "state_code": "GO",
      "state_id": 2000,
      "country_id": 31
    },
    {
      "id": 12067,
      "name": "ग्वारिनोस",
      "name_default": "Guarinos",
      "native": "Moedas",
      "type": "city",
      "level": null,
      "parent_id": null,
      "population": 2154,
      "latitude": "-14.69976000",
      "longitude": "-49.73100000",
      "timezone": "America/Sao_Paulo",
      "wikiDataId": "Q1759773",
      "country_code": "BR",
      "state_code": "GO",
      "state_id": 2000,
      "country_id": 31
    },
    {
      "id": 12093,
      "name": "हेइटोराई",
      "name_default": "Heitoraí",
      "native": "Heitoraí",
      "type": "city",
      "level": null,
      "parent_id": null,
      "population": 3342,
      "latitude": "-15.73416000",
      "longitude": "-49.83108000",
      "timezone": "America/Sao_Paulo",
      "wikiDataId": "Q1151685",
      "country_code": "BR",
      "state_code": "GO",
      "state_id": 2000,
      "country_id": 31
    },
    {
      "id": 12102,
      "name": "हिड्रोलैंडिया",
      "name_default": "Hidrolândia",
      "native": "Hidrolândia",
      "type": "city",
      "level": null,
      "parent_id": null,
      "population": 27742,
      "latitude": "-16.96222000",
      "longitude": "-49.22806000",
      "timezone": "America/Sao_Paulo",
      "wikiDataId": "Q988811",
      "country_code": "BR",
      "state_code": "GO",
      "state_id": 2000,
      "country_id": 31
    },
    {
      "id": 12100,
      "name": "हाइड्रोलिना",
      "name_default": "Hidrolina",
      "native": "Hidrolina",
      "type": "city",
      "level": null,
      "parent_id": null,
      "population": 3477,
      "latitude": "-14.75739000",
      "longitude": "-49.35965000",
      "timezone": "America/Sao_Paulo",
      "wikiDataId": "Q1784481",
      "country_code": "BR",
      "state_code": "GO",
      "state_id": 2000,
      "country_id": 31
    },
    {
      "id": 12114,
      "name": "इयासिआरा",
      "name_default": "Iaciara",
      "native": "Iaciara",
      "type": "city",
      "level": null,
      "parent_id": null,
      "population": 10289,
      "latitude": "-14.09583000",
      "longitude": "-46.63167000",
      "timezone": "America/Sao_Paulo",
      "wikiDataId": "Q1806877",
      "country_code": "BR",
      "state_code": "GO",
      "state_id": 2000,
      "country_id": 31
    },
    {
      "id": 12227,
      "name": "इनासियोलैंडिया",
      "name_default": "Inaciolândia",
      "native": "Inaciolândia",
      "type": "city",
      "level": null,
      "parent_id": null,
      "population": 6076,
      "latitude": "-18.49889000",
      "longitude": "-49.90164000",
      "timezone": "America/Sao_Paulo",
      "wikiDataId": "Q504755",
      "country_code": "BR",
      "state_code": "GO",
      "state_id": 2000,
      "country_id": 31
    },
    {
      "id": 12240,
      "name": "इंडियारा",
      "name_default": "Indiara",
      "native": "Para a Índia",
      "type": "city",
      "level": null,
      "parent_id": null,
      "population": 17985,
      "latitude": "-17.18504000",
      "longitude": "-49.96826000",
      "timezone": "America/Sao_Paulo",
      "wikiDataId": "Q2050304",
      "country_code": "BR",
      "state_code": "GO",
      "state_id": 2000,
      "country_id": 31
    },
    {
      "id": 12253,
      "name": "इनहुमास",
      "name_default": "Inhumas",
      "native": "Inhumas",
      "type": "city",
      "level": null,
      "parent_id": null,
      "population": 52204,
      "latitude": "-16.35778000",
      "longitude": "-49.49611000",
      "timezone": "America/Sao_Paulo",
      "wikiDataId": "Q986245",
      "country_code": "BR",
      "state_code": "GO",
      "state_id": 2000,
      "country_id": 31
    },
    {
      "id": 12260,
      "name": "इपामेरी",
      "name_default": "Ipameri",
      "native": "Ipameri",
      "type": "city",
      "level": null,
      "parent_id": null,
      "population": 25548,
      "latitude": "-17.72194000",
      "longitude": "-48.15972000",
      "timezone": "America/Sao_Paulo",
      "wikiDataId": "Q985981",
      "country_code": "BR",
      "state_code": "GO",
      "state_id": 2000,
      "country_id": 31
    },
    {
      "id": 12276,
      "name": "इपिरंगा डे गोइआस",
      "name_default": "Ipiranga de Goiás",
      "native": "Ipiranga de Goiás",
      "type": "city",
      "level": null,
      "parent_id": null,
      "population": 2968,
      "latitude": "-15.16876000",
      "longitude": "-49.65047000",
      "timezone": "America/Sao_Paulo",
      "wikiDataId": "Q609451",
      "country_code": "BR",
      "state_code": "GO",
      "state_id": 2000,
      "country_id": 31
    },
    {
      "id": 12285,
      "name": "इपोरा",
      "name_default": "Iporá",
      "native": "Iporá",
      "type": "city",
      "level": null,
      "parent_id": null,
      "population": 37283,
      "latitude": "-16.45543000",
      "longitude": "-51.15977000",
      "timezone": "America/Sao_Paulo",
      "wikiDataId": "Q675142",
      "country_code": "BR",
      "state_code": "GO",
      "state_id": 2000,
      "country_id": 31
    },
    {
      "id": 12323,
      "name": "इज़राइल और भारत",
      "name_default": "Israelândia",
      "native": "Israelândia",
      "type": "city",
      "level": null,
      "parent_id": null,
      "population": 2515,
      "latitude": "-16.35776000",
      "longitude": "-50.89499000",
      "timezone": "America/Sao_Paulo",
      "wikiDataId": "Q1807920",
      "country_code": "BR",
      "state_code": "GO",
      "state_id": 2000,
      "country_id": 31
    },
    {
      "id": 12330,
      "name": "Itaberai",
      "name_default": "Itaberaí",
      "native": "Itaberaí",
      "type": "city",
      "level": null,
      "parent_id": null,
      "population": 44734,
      "latitude": "-16.02028000",
      "longitude": "-49.81028000",
      "timezone": "America/Sao_Paulo",
      "wikiDataId": "Q527149",
      "country_code": "BR",
      "state_code": "GO",
      "state_id": 2000,
      "country_id": 31
    },
    {
      "id": 12352,
      "name": "इटागुआरी",
      "name_default": "Itaguari",
      "native": "Itaguari",
      "type": "city",
      "level": null,
      "parent_id": null,
      "population": 5120,
      "latitude": "-15.91179000",
      "longitude": "-49.61834000",
      "timezone": "America/Sao_Paulo",
      "wikiDataId": "Q782196",
      "country_code": "BR",
      "state_code": "GO",
      "state_id": 2000,
      "country_id": 31
    },
    {
      "id": 12353,
      "name": "इटागुआरु",
      "name_default": "Itaguaru",
      "native": "Itaguaru",
      "type": "city",
      "level": null,
      "parent_id": null,
      "population": 4837,
      "latitude": "-15.76944000",
      "longitude": "-49.60042000",
      "timezone": "America/Sao_Paulo",
      "wikiDataId": "Q782196",
      "country_code": "BR",
      "state_code": "GO",
      "state_id": 2000,
      "country_id": 31
    },
    {
      "id": 12373,
      "name": "इटाजा",
      "name_default": "Itajá",
      "native": "Itajá",
      "type": "city",
      "level": null,
      "parent_id": null,
      "population": 7551,
      "latitude": "-19.11554000",
      "longitude": "-51.24473000",
      "timezone": "America/Sao_Paulo",
      "wikiDataId": "Q1772508",
      "country_code": "BR",
      "state_code": "GO",
      "state_id": 2000,
      "country_id": 31
    },
    {
      "id": 12398,
      "name": "इटापासी",
      "name_default": "Itapaci",
      "native": "Itapaci",
      "type": "city",
      "level": null,
      "parent_id": null,
      "population": 21891,
      "latitude": "-14.95083000",
      "longitude": "-49.54944000",
      "timezone": "America/Sao_Paulo",
      "wikiDataId": "Q1806982",
      "country_code": "BR",
      "state_code": "GO",
      "state_id": 2000,
      "country_id": 31
    },
    {
      "id": 12423,
      "name": "इटापिरापुआ",
      "name_default": "Itapirapuã",
      "native": "Itapirapuã",
      "type": "city",
      "level": null,
      "parent_id": null,
      "population": 8007,
      "latitude": "-15.82333000",
      "longitude": "-50.61333000",
      "timezone": "America/Sao_Paulo",
      "wikiDataId": "Q988783",
      "country_code": "BR",
      "state_code": "GO",
      "state_id": 2000,
      "country_id": 31
    },
    {
      "id": 12438,
      "name": "इटापुरंगा",
      "name_default": "Itapuranga",
      "native": "Itapuranga",
      "type": "city",
      "level": null,
      "parent_id": null,
      "population": 26553,
      "latitude": "-15.56944000",
      "longitude": "-49.93481000",
      "timezone": "America/Sao_Paulo",
      "wikiDataId": "Q1806805",
      "country_code": "BR",
      "state_code": "GO",
      "state_id": 2000,
      "country_id": 31
    },
    {
      "id": 12452,
      "name": "इटारुमा",
      "name_default": "Itarumã",
      "native": "Istarumã",
      "type": "city",
      "level": null,
      "parent_id": null,
      "population": 6124,
      "latitude": "-18.87992000",
      "longitude": "-51.32023000",
      "timezone": "America/Sao_Paulo",
      "wikiDataId": "Q579753",
      "country_code": "BR",
      "state_code": "GO",
      "state_id": 2000,
      "country_id": 31
    },
    {
      "id": 12464,
      "name": "इटाउकू",
      "name_default": "Itauçu",
      "native": "Itauçu",
      "type": "city",
      "level": null,
      "parent_id": null,
      "population": 7636,
      "latitude": "-16.21434000",
      "longitude": "-49.60066000",
      "timezone": "America/Sao_Paulo",
      "wikiDataId": "Q2079025",
      "country_code": "BR",
      "state_code": "GO",
      "state_id": 2000,
      "country_id": 31
    },
    {
      "id": 12487,
      "name": "इतुम्बियारा",
      "name_default": "Itumbiara",
      "native": "Itumbiara",
      "type": "city",
      "level": null,
      "parent_id": null,
      "population": 79582,
      "latitude": "-18.41917000",
      "longitude": "-49.21528000",
      "timezone": "America/Sao_Paulo",
      "wikiDataId": "Q193350",
      "country_code": "BR",
      "state_code": "GO",
      "state_id": 2000,
      "country_id": 31
    },
    {
      "id": 12503,
      "name": "इवोलांडिया",
      "name_default": "Ivolândia",
      "native": "Ivolândia",
      "type": "city",
      "level": null,
      "parent_id": null,
      "population": 2731,
      "latitude": "-16.68830000",
      "longitude": "-50.92660000",
      "timezone": "America/Sao_Paulo",
      "wikiDataId": "Q745307",
      "country_code": "BR",
      "state_code": "GO",
      "state_id": 2000,
      "country_id": 31
    },
    {
      "id": 12556,
      "name": "जंदाया",
      "name_default": "Jandaia",
      "native": "Jandaia",
      "type": "city",
      "level": null,
      "parent_id": null,
      "population": 6365,
      "latitude": "-17.12900000",
      "longitude": "-50.19476000",
      "timezone": "America/Sao_Paulo",
      "wikiDataId": "Q1791340",
      "country_code": "BR",
      "state_code": "GO",
      "state_id": 2000,
      "country_id": 31
    },
    {
      "id": 12580,
      "name": "जारागुआ",
      "name_default": "Jaraguá",
      "native": "Jaraguá",
      "type": "city",
      "level": null,
      "parent_id": null,
      "population": 46633,
      "latitude": "-15.75694000",
      "longitude": "-49.33444000",
      "timezone": "America/Sao_Paulo",
      "wikiDataId": "Q1022458",
      "country_code": "BR",
      "state_code": "GO",
      "state_id": 2000,
      "country_id": 31
    },
    {
      "id": 12598,
      "name": "जटाइ",
      "name_default": "Jataí",
      "native": "Jataí",
      "type": "city",
      "level": null,
      "parent_id": null,
      "population": 111634,
      "latitude": "-17.85829000",
      "longitude": "-51.70531000",
      "timezone": "America/Sao_Paulo",
      "wikiDataId": "Q963195",
      "country_code": "BR",
      "state_code": "GO",
      "state_id": 2000,
      "country_id": 31
    },
    {
      "id": 12605,
      "name": "जौपासी",
      "name_default": "Jaupaci",
      "native": "Jaupation",
      "type": "city",
      "level": null,
      "parent_id": null,
      "population": 2939,
      "latitude": "-16.16749000",
      "longitude": "-51.10168000",
      "timezone": "America/Sao_Paulo",
      "wikiDataId": "Q2472554",
      "country_code": "BR",
      "state_code": "GO",
      "state_id": 2000,
      "country_id": 31
    },
    {
      "id": 12627,
      "name": "जेसुपोलिस",
      "name_default": "Jesúpolis",
      "native": "Jesu",
      "type": "city",
      "level": null,
      "parent_id": null,
      "population": 2112,
      "latitude": "-15.96458000",
      "longitude": "-49.39461000",
      "timezone": "America/Sao_Paulo",
      "wikiDataId": "Q1806739",
      "country_code": "BR",
      "state_code": "GO",
      "state_id": 2000,
      "country_id": 31
    },
    {
      "id": 12656,
      "name": "जोवियानिया",
      "name_default": "Joviânia",
      "native": "Jovinia",
      "type": "city",
      "level": null,
      "parent_id": null,
      "population": 7247,
      "latitude": "-17.78422000",
      "longitude": "-49.58440000",
      "timezone": "America/Sao_Paulo",
      "wikiDataId": "Q2078167",
      "country_code": "BR",
      "state_code": "GO",
      "state_id": 2000,
      "country_id": 31
    },
    {
      "id": 12707,
      "name": "जुस्सारा",
      "name_default": "Jussara",
      "native": "Jussara",
      "type": "city",
      "level": null,
      "parent_id": null,
      "population": 19926,
      "latitude": "-15.58295000",
      "longitude": "-51.32970000",
      "timezone": "America/Sao_Paulo",
      "wikiDataId": "Q1008360",
      "country_code": "BR",
      "state_code": "GO",
      "state_id": 2000,
      "country_id": 31
    },
    {
      "id": 12745,
      "name": "लागोआ सांता",
      "name_default": "Lagoa Santa",
      "native": "Lagoa Santa",
      "type": "city",
      "level": null,
      "parent_id": null,
      "population": 1435,
      "latitude": "-19.21207000",
      "longitude": "-51.25891000",
      "timezone": "America/Sao_Paulo",
      "wikiDataId": "Q2099571",
      "country_code": "BR",
      "state_code": "GO",
      "state_id": 2000,
      "country_id": 31
    },
    {
      "id": 12821,
      "name": "लियोपोल्डो डी बुल्होएस",
      "name_default": "Leopoldo de Bulhões",
      "native": "Leopoldo de Bulhões",
      "type": "city",
      "level": null,
      "parent_id": null,
      "population": 9123,
      "latitude": "-16.58142000",
      "longitude": "-48.90604000",
      "timezone": "America/Sao_Paulo",
      "wikiDataId": "Q1805359",
      "country_code": "BR",
      "state_code": "GO",
      "state_id": 2000,
      "country_id": 31
    },
    {
      "id": 12877,
      "name": "लुज़ियानिया",
      "name_default": "Luziânia",
      "native": "Luziânia",
      "type": "city",
      "level": null,
      "parent_id": null,
      "population": 209129,
      "latitude": "-16.25250000",
      "longitude": "-47.95028000",
      "timezone": "America/Sao_Paulo",
      "wikiDataId": "Q956017",
      "country_code": "BR",
      "state_code": "GO",
      "state_id": 2000,
      "country_id": 31
    },
    {
      "id": 12919,
      "name": "मैरीपोटाबा",
      "name_default": "Mairipotaba",
      "native": "Mairipotaba",
      "type": "city",
      "level": null,
      "parent_id": null,
      "population": 2631,
      "latitude": "-17.32688000",
      "longitude": "-49.50788000",
      "timezone": "America/Sao_Paulo",
      "wikiDataId": "Q931560",
      "country_code": "BR",
      "state_code": "GO",
      "state_id": 2000,
      "country_id": 31
    },
    {
      "id": 12932,
      "name": "Mambai",
      "name_default": "Mambaí",
      "native": "Mambaí",
      "type": "city",
      "level": null,
      "parent_id": null,
      "population": 8493,
      "latitude": "-14.44220000",
      "longitude": "-46.05807000",
      "timezone": "America/Sao_Paulo",
      "wikiDataId": "Q1008338",
      "country_code": "BR",
      "state_code": "GO",
      "state_id": 2000,
      "country_id": 31
    },
    {
      "id": 12963,
      "name": "मारा रोजा",
      "name_default": "Mara Rosa",
      "native": "Mara Rosa",
      "type": "city",
      "level": null,
      "parent_id": null,
      "population": 10806,
      "latitude": "-14.01285000",
      "longitude": "-49.39507000",
      "timezone": "America/Sao_Paulo",
      "wikiDataId": "Q1754689",
      "country_code": "BR",
      "state_code": "GO",
      "state_id": 2000,
      "country_id": 31
    },
    {
      "id": 13038,
      "name": "मार्ज़ागाओ",
      "name_default": "Marzagão",
      "native": "Marzagão",
      "type": "city",
      "level": null,
      "parent_id": null,
      "population": 2942,
      "latitude": "-17.99103000",
      "longitude": "-48.68316000",
      "timezone": "America/Sao_Paulo",
      "wikiDataId": "Q1806945",
      "country_code": "BR",
      "state_code": "GO",
      "state_id": 2000,
      "country_id": 31
    },
    {
      "id": 13072,
      "name": "मैट्रिंचा",
      "name_default": "Matrinchã",
      "native": "Enralhador",
      "type": "city",
      "level": null,
      "parent_id": null,
      "population": 4004,
      "latitude": "-15.33819000",
      "longitude": "-50.82655000",
      "timezone": "America/Sao_Paulo",
      "wikiDataId": "Q1755730",
      "country_code": "BR",
      "state_code": "GO",
      "state_id": 2000,
      "country_id": 31
    },
    {
      "id": 13080,
      "name": "मौरीलैंडिया",
      "name_default": "Maurilândia",
      "native": "Maurilândia",
      "type": "city",
      "level": null,
      "parent_id": null,
      "population": 10145,
      "latitude": "-18.05037000",
      "longitude": "-50.32935000",
      "timezone": "America/Sao_Paulo",
      "wikiDataId": "Q1649629",
      "country_code": "BR",
      "state_code": "GO",
      "state_id": 2000,
      "country_id": 31
    },
    {
      "id": 13119,
      "name": "मिमोसो डी गोइआस",
      "name_default": "Mimoso de Goiás",
      "native": "Mimoso de Goiás",
      "type": "city",
      "level": null,
      "parent_id": null,
      "population": 2626,
      "latitude": "-15.04832000",
      "longitude": "-48.34448000",
      "timezone": "America/Sao_Paulo",
      "wikiDataId": "Q2092809",
      "country_code": "BR",
      "state_code": "GO",
      "state_id": 2000,
      "country_id": 31
    },
    {
      "id": 13124,
      "name": "मिनासु",
      "name_default": "Minaçu",
      "native": "Minaçu",
      "type": "city",
      "level": null,
      "parent_id": null,
      "population": 26616,
      "latitude": "-13.42682000",
      "longitude": "-48.38780000",
      "timezone": "America/Sao_Paulo",
      "wikiDataId": "Q1750029",
      "country_code": "BR",
      "state_code": "GO",
      "state_id": 2000,
      "country_id": 31
    },
    {
      "id": 13126,
      "name": "मिनीरोस",
      "name_default": "Mineiros",
      "native": "Mineiros",
      "type": "city",
      "level": null,
      "parent_id": null,
      "population": 74999,
      "latitude": "-17.56944000",
      "longitude": "-52.55111000",
      "timezone": "America/Sao_Paulo",
      "wikiDataId": "Q1795244",
      "country_code": "BR",
      "state_code": "GO",
      "state_id": 2000,
      "country_id": 31
    },
    {
      "id": 13168,
      "name": "मोइपोरा",
      "name_default": "Moiporá",
      "native": "Morge",
      "type": "city",
      "level": null,
      "parent_id": null,
      "population": 1687,
      "latitude": "-16.50172000",
      "longitude": "-50.76811000",
      "timezone": "America/Sao_Paulo",
      "wikiDataId": "Q194332",
      "country_code": "BR",
      "state_code": "GO",
      "state_id": 2000,
      "country_id": 31
    },
    {
      "id": 13188,
      "name": "मोंटे एलेग्रे डे गोइआस",
      "name_default": "Monte Alegre de Goiás",
      "native": "Monte Alegre de Goiás",
      "type": "city",
      "level": null,
      "parent_id": null,
      "population": 6534,
      "latitude": "-13.26150000",
      "longitude": "-46.84266000",
      "timezone": "America/Sao_Paulo",
      "wikiDataId": "Q2289897",
      "country_code": "BR",
      "state_code": "GO",
      "state_id": 2000,
      "country_id": 31
    },
    {
      "id": 13221,
      "name": "मोंटेस क्लारोस डी गोइआस",
      "name_default": "Montes Claros de Goiás",
      "native": "Montes Claros de Goiás",
      "type": "city",
      "level": null,
      "parent_id": null,
      "population": 9024,
      "latitude": "-15.96248000",
      "longitude": "-51.50601000",
      "timezone": "America/Sao_Paulo",
      "wikiDataId": "Q651906",
      "country_code": "BR",
      "state_code": "GO",
      "state_id": 2000,
      "country_id": 31
    },
    {
      "id": 13223,
      "name": "मोंटीविडिउ",
      "name_default": "Montividiu",
      "native": "Montididiu",
      "type": "city",
      "level": null,
      "parent_id": null,
      "population": 13094,
      "latitude": "-17.25815000",
      "longitude": "-51.15739000",
      "timezone": "America/Sao_Paulo",
      "wikiDataId": "Q22062358",
      "country_code": "BR",
      "state_code": "GO",
      "state_id": 2000,
      "country_id": 31
    },
    {
      "id": 13224,
      "name": "मोंटिविडु डो नॉर्टे",
      "name_default": "Montividiu do Norte",
      "native": "Montividiu do Norte",
      "type": "city",
      "level": null,
      "parent_id": null,
      "population": 3743,
      "latitude": "-13.09232000",
      "longitude": "-48.74161000",
      "timezone": "America/Sao_Paulo",
      "wikiDataId": "Q22062358",
      "country_code": "BR",
      "state_code": "GO",
      "state_id": 2000,
      "country_id": 31
    },
    {
      "id": 13237,
      "name": "मोरिन्होस",
      "name_default": "Morrinhos",
      "native": "Morrinhos",
      "type": "city",
      "level": null,
      "parent_id": null,
      "population": 54326,
      "latitude": "-17.79922000",
      "longitude": "-49.09225000",
      "timezone": "America/Sao_Paulo",
      "wikiDataId": "Q1025767",
      "country_code": "BR",
      "state_code": "GO",
      "state_id": 2000,
      "country_id": 31
    },
    {
      "id": 13240,
      "name": "Morro Agudo de Goiás",
      "name_default": "Morro Agudo de Goiás",
      "native": "Morro Agudo de Goiás",
      "type": "city",
      "level": null,
      "parent_id": null,
      "population": 2505,
      "latitude": "-15.32310000",
      "longitude": "-50.01578000",
      "timezone": "America/Sao_Paulo",
      "wikiDataId": "Q1806964",
      "country_code": "BR",
      "state_code": "GO",
      "state_id": 2000,
      "country_id": 31
    },
    {
      "id": 13255,
      "name": "मोसामेडिस",
      "name_default": "Mossâmedes",
      "native": "Mossâmedes",
      "type": "city",
      "level": null,
      "parent_id": null,
      "population": 4626,
      "latitude": "-16.16495000",
      "longitude": "-50.17004000",
      "timezone": "America/Sao_Paulo",
      "wikiDataId": "Q694845",
      "country_code": "BR",
      "state_code": "GO",
      "state_id": 2000,
      "country_id": 31
    },
    {
      "id": 13258,
      "name": "मोज़ारलैंडिया",
      "name_default": "Mozarlândia",
      "native": "Mozarlândia",
      "type": "city",
      "level": null,
      "parent_id": null,
      "population": 15199,
      "latitude": "-14.74472000",
      "longitude": "-50.57056000",
      "timezone": "America/Sao_Paulo",
      "wikiDataId": "Q1003419",
      "country_code": "BR",
      "state_code": "GO",
      "state_id": 2000,
      "country_id": 31
    },
    {
      "id": 13271,
      "name": "मुंडो नोवो",
      "name_default": "Mundo Novo",
      "native": "Mundo Novo",
      "type": "city",
      "level": null,
      "parent_id": null,
      "population": 20087,
      "latitude": "-13.71649000",
      "longitude": "-50.23715000",
      "timezone": "America/Sao_Paulo",
      "wikiDataId": "Q2289881",
      "country_code": "BR",
      "state_code": "GO",
      "state_id": 2000,
      "country_id": 31
    },
    {
      "id": 13286,
      "name": "मुटुनोपोलिस",
      "name_default": "Mutunópolis",
      "native": "Mutunogolis",
      "type": "city",
      "level": null,
      "parent_id": null,
      "population": 3540,
      "latitude": "-13.70257000",
      "longitude": "-49.29995000",
      "timezone": "America/Sao_Paulo",
      "wikiDataId": "Q945723",
      "country_code": "BR",
      "state_code": "GO",
      "state_id": 2000,
      "country_id": 31
    },
    {
      "id": 13316,
      "name": "Nazario",
      "name_default": "Nazário",
      "native": "Nazário",
      "type": "city",
      "level": null,
      "parent_id": null,
      "population": 8349,
      "latitude": "-16.58010000",
      "longitude": "-49.86543000",
      "timezone": "America/Sao_Paulo",
      "wikiDataId": "Q10335889",
      "country_code": "BR",
      "state_code": "GO",
      "state_id": 2000,
      "country_id": 31
    },
    {
      "id": 13318,
      "name": "नेरोपोलिस",
      "name_default": "Nerópolis",
      "native": "Neropol",
      "type": "city",
      "level": null,
      "parent_id": null,
      "population": 34273,
      "latitude": "-16.43883000",
      "longitude": "-49.18117000",
      "timezone": "America/Sao_Paulo",
      "wikiDataId": "Q986284",
      "country_code": "BR",
      "state_code": "GO",
      "state_id": 2000,
      "country_id": 31
    },
    {
      "id": 13330,
      "name": "निक्वेलैंडिया",
      "name_default": "Niquelândia",
      "native": "Niquelândia",
      "type": "city",
      "level": null,
      "parent_id": null,
      "population": 33890,
      "latitude": "-14.47389000",
      "longitude": "-48.45972000",
      "timezone": "America/Sao_Paulo",
      "wikiDataId": "Q1794378",
      "country_code": "BR",
      "state_code": "GO",
      "state_id": 2000,
      "country_id": 31
    },
    {
      "id": 13349,
      "name": "नोवा अमेरिका",
      "name_default": "Nova América",
      "native": "Nova América",
      "type": "city",
      "level": null,
      "parent_id": null,
      "population": 2380,
      "latitude": "-15.05098000",
      "longitude": "-49.92499000",
      "timezone": "America/Sao_Paulo",
      "wikiDataId": "Q2104808",
      "country_code": "BR",
      "state_code": "GO",
      "state_id": 2000,
      "country_id": 31
    },
    {
      "id": 13354,
      "name": "नोवा ऑरोरा",
      "name_default": "Nova Aurora",
      "native": "Nova Aurora",
      "type": "city",
      "level": null,
      "parent_id": null,
      "population": 13765,
      "latitude": "-18.10107000",
      "longitude": "-48.27661000",
      "timezone": "America/Sao_Paulo",
      "wikiDataId": "Q22038543",
      "country_code": "BR",
      "state_code": "GO",
      "state_id": 2000,
      "country_id": 31
    },
    {
      "id": 13370,
      "name": "नोवा क्रिक्सास",
      "name_default": "Nova Crixás",
      "native": "Nova Crixás",
      "type": "city",
      "level": null,
      "parent_id": null,
      "population": 13153,
      "latitude": "-14.27678000",
      "longitude": "-50.57649000",
      "timezone": "America/Sao_Paulo",
      "wikiDataId": "Q734270",
      "country_code": "BR",
      "state_code": "GO",
      "state_id": 2000,
      "country_id": 31
    },
    {
      "id": 13383,
      "name": "नोवा ग्लोरिया",
      "name_default": "Nova Glória",
      "native": "Nova Glória",
      "type": "city",
      "level": null,
      "parent_id": null,
      "population": 8356,
      "latitude": "-15.06360000",
      "longitude": "-49.48353000",
      "timezone": "America/Sao_Paulo",
      "wikiDataId": "Q2472564",
      "country_code": "BR",
      "state_code": "GO",
      "state_id": 2000,
      "country_id": 31
    },
    {
      "id": 13390,
      "name": "नोवा इगुआसु डी गोइआस",
      "name_default": "Nova Iguaçu de Goiás",
      "native": "Nova Iguaçu de Goiás",
      "type": "city",
      "level": null,
      "parent_id": null,
      "population": 3084,
      "latitude": "-14.29731000",
      "longitude": "-49.31188000",
      "timezone": "America/Sao_Paulo",
      "wikiDataId": "Q188897",
      "country_code": "BR",
      "state_code": "GO",
      "state_id": 2000,
      "country_id": 31
    },
    {
      "id": 13427,
      "name": "नोवा रोमा",
      "name_default": "Nova Roma",
      "native": "Nova Roma",
      "type": "city",
      "level": null,
      "parent_id": null,
      "population": 3022,
      "latitude": "-13.84078000",
      "longitude": "-47.00832000",
      "timezone": "America/Sao_Paulo",
      "wikiDataId": "Q1758146",
      "country_code": "BR",
      "state_code": "GO",
      "state_id": 2000,
      "country_id": 31
    },
    {
      "id": 13445,
      "name": "नोवा वेनेज़ा",
      "name_default": "Nova Veneza",
      "native": "Nova Veneza",
      "type": "city",
      "level": null,
      "parent_id": null,
      "population": 14004,
      "latitude": "-16.35456000",
      "longitude": "-49.30001000",
      "timezone": "America/Sao_Paulo",
      "wikiDataId": "Q22062438",
      "country_code": "BR",
      "state_code": "GO",
      "state_id": 2000,
      "country_id": 31
    },
    {
      "id": 13455,
      "name": "नोवो ब्रासिल",
      "name_default": "Novo Brasil",
      "native": "Novo Brasil",
      "type": "city",
      "level": null,
      "parent_id": null,
      "population": 3567,
      "latitude": "-16.04806000",
      "longitude": "-50.63638000",
      "timezone": "America/Sao_Paulo",
      "wikiDataId": "Q1793549",
      "country_code": "BR",
      "state_code": "GO",
      "state_id": 2000,
      "country_id": 31
    },
    {
      "id": 13458,
      "name": "नोवो गामा",
      "name_default": "Novo Gama",
      "native": "Novo Gama",
      "type": "city",
      "level": null,
      "parent_id": null,
      "population": 107663,
      "latitude": "-16.12535000",
      "longitude": "-48.07041000",
      "timezone": "America/Sao_Paulo",
      "wikiDataId": "Q1755515",
      "country_code": "BR",
      "state_code": "GO",
      "state_id": 2000,
      "country_id": 31
    },
    {
      "id": 13474,
      "name": "नोवो प्लानाल्टो",
      "name_default": "Novo Planalto",
      "native": "Novo Planalto",
      "type": "city",
      "level": null,
      "parent_id": null,
      "population": 3703,
      "latitude": "-13.38362000",
      "longitude": "-49.76104000",
      "timezone": "America/Sao_Paulo",
      "wikiDataId": "Q22059540",
      "country_code": "BR",
      "state_code": "GO",
      "state_id": 2000,
      "country_id": 31
    },
    {
      "id": 13519,
      "name": "ओरिज़ोना",
      "name_default": "Orizona",
      "native": "Orizone",
      "type": "city",
      "level": null,
      "parent_id": null,
      "population": 16399,
      "latitude": "-17.03139000",
      "longitude": "-48.29583000",
      "timezone": "America/Sao_Paulo",
      "wikiDataId": "Q519154",
      "country_code": "BR",
      "state_code": "GO",
      "state_id": 2000,
      "country_id": 31
    },
    {
      "id": 13547,
      "name": "Ouro Verde de Goiás",
      "name_default": "Ouro Verde de Goiás",
      "native": "Ouro Verde de Goiás",
      "type": "city",
      "level": null,
      "parent_id": null,
      "population": 4109,
      "latitude": "-16.23604000",
      "longitude": "-49.22771000",
      "timezone": "America/Sao_Paulo",
      "wikiDataId": "Q1803223",
      "country_code": "BR",
      "state_code": "GO",
      "state_id": 2000,
      "country_id": 31
    },
    {
      "id": 13553,
      "name": "ओविडोर",
      "name_default": "Ouvidor",
      "native": "Ouvidor",
      "type": "city",
      "level": null,
      "parent_id": null,
      "population": 7665,
      "latitude": "-18.20107000",
      "longitude": "-47.71513000",
      "timezone": "America/Sao_Paulo",
      "wikiDataId": "Q1829502",
      "country_code": "BR",
      "state_code": "GO",
      "state_id": 2000,
      "country_id": 31
    },
    {
      "id": 13561,
      "name": "पाद्रे बर्नार्डो",
      "name_default": "Padre Bernardo",
      "native": "Padre Bernardo",
      "type": "city",
      "level": null,
      "parent_id": null,
      "population": 34967,
      "latitude": "-15.16595000",
      "longitude": "-48.28281000",
      "timezone": "America/Sao_Paulo",
      "wikiDataId": "Q22037037",
      "country_code": "BR",
      "state_code": "GO",
      "state_id": 2000,
      "country_id": 31
    },
    {
      "id": 13577,
      "name": "Palestina de Goiás",
      "name_default": "Palestina de Goiás",
      "native": "Palestina de Goiás",
      "type": "city",
      "level": null,
      "parent_id": null,
      "population": 3113,
      "latitude": "-16.72854000",
      "longitude": "-51.45851000",
      "timezone": "America/Sao_Paulo",
      "wikiDataId": "Q2005187",
      "country_code": "BR",
      "state_code": "GO",
      "state_id": 2000,
      "country_id": 31
    },
    {
      "id": 13598,
      "name": "पाल्मेरास डी गोइआस",
      "name_default": "Palmeiras de Goiás",
      "native": "Palmeiras de Goiás",
      "type": "city",
      "level": null,
      "parent_id": null,
      "population": 31858,
      "latitude": "-16.80500000",
      "longitude": "-49.92583000",
      "timezone": "America/Sao_Paulo",
      "wikiDataId": "Q985972",
      "country_code": "BR",
      "state_code": "GO",
      "state_id": 2000,
      "country_id": 31
    },
    {
      "id": 13603,
      "name": "पामेलो",
      "name_default": "Palmelo",
      "native": "Palmelo",
      "type": "city",
      "level": null,
      "parent_id": null,
      "population": 2266,
      "latitude": "-17.31937000",
      "longitude": "-48.39429000",
      "timezone": "America/Sao_Paulo",
      "wikiDataId": "Q1801156",
      "country_code": "BR",
      "state_code": "GO",
      "state_id": 2000,
      "country_id": 31
    },
    {
      "id": 13604,
      "name": "पामिनोपोलिस",
      "name_default": "Palminópolis",
      "native": "Palminópolis",
      "type": "city",
      "level": null,
      "parent_id": null,
      "population": 3959,
      "latitude": "-16.83157000",
      "longitude": "-50.24267000",
      "timezone": "America/Sao_Paulo",
      "wikiDataId": "Q1801156",
      "country_code": "BR",
      "state_code": "GO",
      "state_id": 2000,
      "country_id": 31
    },
    {
      "id": 13613,
      "name": "पनामा",
      "name_default": "Panamá",
      "native": "Panamá",
      "type": "city",
      "level": null,
      "parent_id": null,
      "population": 2432,
      "latitude": "-18.20132000",
      "longitude": "-49.38890000",
      "timezone": "America/Sao_Paulo",
      "wikiDataId": "Q1004891",
      "country_code": "BR",
      "state_code": "GO",
      "state_id": 2000,
      "country_id": 31
    },
    {
      "id": 13638,
      "name": "परानाइगुआरा",
      "name_default": "Paranaiguara",
      "native": "Paranaiguara",
      "type": "city",
      "level": null,
      "parent_id": null,
      "population": 7356,
      "latitude": "-18.77492000",
      "longitude": "-50.61841000",
      "timezone": "America/Sao_Paulo",
      "wikiDataId": "Q503852",
      "country_code": "BR",
      "state_code": "GO",
      "state_id": 2000,
      "country_id": 31
    },
    {
      "id": 13666,
      "name": "Parauna",
      "name_default": "Paraúna",
      "native": "Freguesia",
      "type": "city",
      "level": null,
      "parent_id": null,
      "population": 10659,
      "latitude": "-16.94778000",
      "longitude": "-50.44861000",
      "timezone": "America/Sao_Paulo",
      "wikiDataId": "Q913766",
      "country_code": "BR",
      "state_code": "GO",
      "state_id": 2000,
      "country_id": 31
    },
    {
      "id": 13813,
      "name": "पेरोलैंडिया",
      "name_default": "Perolândia",
      "native": "Perolândia",
      "type": "city",
      "level": null,
      "parent_id": null,
      "population": 2999,
      "latitude": "-17.52861000",
      "longitude": "-52.06417000",
      "timezone": "America/Sao_Paulo",
      "wikiDataId": "Q2028227",
      "country_code": "BR",
      "state_code": "GO",
      "state_id": 2000,
      "country_id": 31
    },
    {
      "id": 13818,
      "name": "पेट्रोलिना डे गोइआस",
      "name_default": "Petrolina de Goiás",
      "native": "Petrolina de Goiás",
      "type": "city",
      "level": null,
      "parent_id": null,
      "population": 9573,
      "latitude": "-16.09500000",
      "longitude": "-49.33806000",
      "timezone": "America/Sao_Paulo",
      "wikiDataId": "Q991127",
      "country_code": "BR",
      "state_code": "GO",
      "state_id": 2000,
      "country_id": 31
    },
    {
      "id": 13838,
      "name": "पिलर डी गोइआस",
      "name_default": "Pilar de Goiás",
      "native": "Pilar de Goiás",
      "type": "city",
      "level": null,
      "parent_id": null,
      "population": 2254,
      "latitude": "-14.52999000",
      "longitude": "-49.51094000",
      "timezone": "America/Sao_Paulo",
      "wikiDataId": "Q2013557",
      "country_code": "BR",
      "state_code": "GO",
      "state_id": 2000,
      "country_id": 31
    },
    {
      "id": 13884,
      "name": "पिराकांजुबा",
      "name_default": "Piracanjuba",
      "native": "Piracanjuba",
      "type": "city",
      "level": null,
      "parent_id": null,
      "population": 24883,
      "latitude": "-17.30278000",
      "longitude": "-49.01667000",
      "timezone": "America/Sao_Paulo",
      "wikiDataId": "Q985960",
      "country_code": "BR",
      "state_code": "GO",
      "state_id": 2000,
      "country_id": 31
    },
    {
      "id": 13896,
      "name": "पिरान्हा",
      "name_default": "Piranhas",
      "native": "Piranhas",
      "type": "city",
      "level": null,
      "parent_id": null,
      "population": 11712,
      "latitude": "-16.42694000",
      "longitude": "-51.82222000",
      "timezone": "America/Sao_Paulo",
      "wikiDataId": "Q1025769",
      "country_code": "BR",
      "state_code": "GO",
      "state_id": 2000,
      "country_id": 31
    },
    {
      "id": 13914,
      "name": "पाइरेनोपोलिस",
      "name_default": "Pirenópolis",
      "native": "Pirenópolis",
      "type": "city",
      "level": null,
      "parent_id": null,
      "population": 26690,
      "latitude": "-15.85072000",
      "longitude": "-48.96087000",
      "timezone": "America/Sao_Paulo",
      "wikiDataId": "Q988797",
      "country_code": "BR",
      "state_code": "GO",
      "state_id": 2000,
      "country_id": 31
    },
    {
      "id": 13916,
      "name": "पाइरेस डू रियो",
      "name_default": "Pires do Rio",
      "native": "Pires do Rio",
      "type": "city",
      "level": null,
      "parent_id": null,
      "population": 32373,
      "latitude": "-17.29972000",
      "longitude": "-48.27944000",
      "timezone": "America/Sao_Paulo",
      "wikiDataId": "Q987688",
      "country_code": "BR",
      "state_code": "GO",
      "state_id": 2000,
      "country_id": 31
    },
    {
      "id": 13933,
      "name": "प्लैनाल्टीना",
      "name_default": "Planaltina",
      "native": "Planaltina",
      "type": "city",
      "level": null,
      "parent_id": null,
      "population": 105031,
      "latitude": "-15.45278000",
      "longitude": "-47.61417000",
      "timezone": "America/Sao_Paulo",
      "wikiDataId": "Q1004078",
      "country_code": "BR",
      "state_code": "GO",
      "state_id": 2000,
      "country_id": 31
    },
    {
      "id": 13963,
      "name": "पोंटालिना",
      "name_default": "Pontalina",
      "native": "Pontalina",
      "type": "city",
      "level": null,
      "parent_id": null,
      "population": 18309,
      "latitude": "-17.52500000",
      "longitude": "-49.44722000",
      "timezone": "America/Sao_Paulo",
      "wikiDataId": "Q509804",
      "country_code": "BR",
      "state_code": "GO",
      "state_id": 2000,
      "country_id": 31
    },
    {
      "id": 13983,
      "name": "पोरांगाटु",
      "name_default": "Porangatu",
      "native": "Porangatu",
      "type": "city",
      "level": null,
      "parent_id": null,
      "population": 45512,
      "latitude": "-13.44083000",
      "longitude": "-49.14861000",
      "timezone": "America/Sao_Paulo",
      "wikiDataId": "Q1806864",
      "country_code": "BR",
      "state_code": "GO",
      "state_id": 2000,
      "country_id": 31
    },
    {
      "id": 13989,
      "name": "पोर्टेइराओ",
      "name_default": "Porteirão",
      "native": "Porteirão",
      "type": "city",
      "level": null,
      "parent_id": null,
      "population": 4276,
      "latitude": "-17.90236000",
      "longitude": "-50.15667000",
      "timezone": "America/Sao_Paulo",
      "wikiDataId": "Q1789713",
      "country_code": "BR",
      "state_code": "GO",
      "state_id": 2000,
      "country_id": 31
    },
    {
      "id": 13991,
      "name": "पोर्टेलैंडिया",
      "name_default": "Portelândia",
      "native": "Portelândia",
      "type": "city",
      "level": null,
      "parent_id": null,
      "population": 3191,
      "latitude": "-17.35610000",
      "longitude": "-52.67861000",
      "timezone": "America/Sao_Paulo",
      "wikiDataId": "Q1798727",
      "country_code": "BR",
      "state_code": "GO",
      "state_id": 2000,
      "country_id": 31
    },
    {
      "id": 14030,
      "name": "मेला",
      "name_default": "Posse",
      "native": "Posse",
      "type": "city",
      "level": null,
      "parent_id": null,
      "population": 36291,
      "latitude": "-14.09306000",
      "longitude": "-46.36944000",
      "timezone": "America/Sao_Paulo",
      "wikiDataId": "Q2021419",
      "country_code": "BR",
      "state_code": "GO",
      "state_id": 2000,
      "country_id": 31
    },
    {
      "id": 14108,
      "name": "प्रोफेसर जमील",
      "name_default": "Professor Jamil",
      "native": "Professor Jamil",
      "type": "city",
      "level": null,
      "parent_id": null,
      "population": 3750,
      "latitude": "-17.29408000",
      "longitude": "-49.25572000",
      "timezone": "America/Sao_Paulo",
      "wikiDataId": "Q2095104",
      "country_code": "BR",
      "state_code": "GO",
      "state_id": 2000,
      "country_id": 31
    },
    {
      "id": 14154,
      "name": "क्विरिनोपोलिस",
      "name_default": "Quirinópolis",
      "native": "Quirinópolis",
      "type": "city",
      "level": null,
      "parent_id": null,
      "population": 48447,
      "latitude": "-18.44833000",
      "longitude": "-50.45167000",
      "timezone": "America/Sao_Paulo",
      "wikiDataId": "Q986268",
      "country_code": "BR",
      "state_code": "GO",
      "state_id": 2000,
      "country_id": 31
    },
    {
      "id": 14227,
      "name": "रियाल्मा",
      "name_default": "Rialma",
      "native": "Rialma",
      "type": "city",
      "level": null,
      "parent_id": null,
      "population": 12165,
      "latitude": "-15.31500000",
      "longitude": "-49.58444000",
      "timezone": "America/Sao_Paulo",
      "wikiDataId": "Q258992",
      "country_code": "BR",
      "state_code": "GO",
      "state_id": 2000,
      "country_id": 31
    },
    {
      "id": 14228,
      "name": "रियानापोलिस",
      "name_default": "Rianápolis",
      "native": "Rianápolis",
      "type": "city",
      "level": null,
      "parent_id": null,
      "population": 3893,
      "latitude": "-15.47467000",
      "longitude": "-49.44786000",
      "timezone": "America/Sao_Paulo",
      "wikiDataId": "Q258992",
      "country_code": "BR",
      "state_code": "GO",
      "state_id": 2000,
      "country_id": 31
    },
    {
      "id": 14294,
      "name": "रियो क्वेंटे",
      "name_default": "Rio Quente",
      "native": "Rio Quente",
      "type": "adm2",
      "level": null,
      "parent_id": null,
      "population": 4033,
      "latitude": "-17.81769000",
      "longitude": "-48.80202000",
      "timezone": "America/Sao_Paulo",
      "wikiDataId": "Q1793560",
      "country_code": "BR",
      "state_code": "GO",
      "state_id": 2000,
      "country_id": 31
    },
    {
      "id": 14300,
      "name": "रियो वर्डे",
      "name_default": "Rio Verde",
      "native": "Rio Verde",
      "type": "city",
      "level": null,
      "parent_id": null,
      "population": 241494,
      "latitude": "-17.71888000",
      "longitude": "-51.04215000",
      "timezone": "America/Sao_Paulo",
      "wikiDataId": "Q942064",
      "country_code": "BR",
      "state_code": "GO",
      "state_id": 2000,
      "country_id": 31
    },
    {
      "id": 14358,
      "name": "रुबियाताबा",
      "name_default": "Rubiataba",
      "native": "Rubiataba",
      "type": "city",
      "level": null,
      "parent_id": null,
      "population": 20186,
      "latitude": "-15.16444000",
      "longitude": "-49.80333000",
      "timezone": "America/Sao_Paulo",
      "wikiDataId": "Q1793260",
      "country_code": "BR",
      "state_code": "GO",
      "state_id": 2000,
      "country_id": 31
    },
    {
      "id": 14411,
      "name": "Sanclerlandia",
      "name_default": "Sanclerlândia",
      "native": "SanclerlânDia",
      "type": "city",
      "level": null,
      "parent_id": null,
      "population": 8085,
      "latitude": "-16.28223000",
      "longitude": "-50.37210000",
      "timezone": "America/Sao_Paulo",
      "wikiDataId": "Q1110228",
      "country_code": "BR",
      "state_code": "GO",
      "state_id": 2000,
      "country_id": 31
    },
    {
      "id": 14425,
      "name": "सांता बारबरा डे गोइआस",
      "name_default": "Santa Bárbara de Goiás",
      "native": "Santa Bárbara de Goiás",
      "type": "city",
      "level": null,
      "parent_id": null,
      "population": 6306,
      "latitude": "-16.60228000",
      "longitude": "-49.68624000",
      "timezone": "America/Sao_Paulo",
      "wikiDataId": "Q983747",
      "country_code": "BR",
      "state_code": "GO",
      "state_id": 2000,
      "country_id": 31
    },
    {
      "id": 14447,
      "name": "सांता क्रूज़ डी गोइआस",
      "name_default": "Santa Cruz de Goiás",
      "native": "Santa Cruz de Goiás",
      "type": "city",
      "level": null,
      "parent_id": null,
      "population": 3004,
      "latitude": "-17.45147000",
      "longitude": "-48.57101000",
      "timezone": "America/Sao_Paulo",
      "wikiDataId": "Q1648129",
      "country_code": "BR",
      "state_code": "GO",
      "state_id": 2000,
      "country_id": 31
    },
    {
      "id": 14465,
      "name": "सांता फ़े दे गोइआस",
      "name_default": "Santa Fé de Goiás",
      "native": "Santa Fé de Goiás",
      "type": "city",
      "level": null,
      "parent_id": null,
      "population": 5047,
      "latitude": "-15.62304000",
      "longitude": "-51.13850000",
      "timezone": "America/Sao_Paulo",
      "wikiDataId": "Q2065314",
      "country_code": "BR",
      "state_code": "GO",
      "state_id": 2000,
      "country_id": 31
    },
    {
      "id": 14474,
      "name": "सांता हेलेना डे गोइआस",
      "name_default": "Santa Helena de Goiás",
      "native": "Santa Helena de Goiás",
      "type": "city",
      "level": null,
      "parent_id": null,
      "population": 39601,
      "latitude": "-17.80542000",
      "longitude": "-50.53885000",
      "timezone": "America/Sao_Paulo",
      "wikiDataId": "Q1795206",
      "country_code": "BR",
      "state_code": "GO",
      "state_id": 2000,
      "country_id": 31
    },
    {
      "id": 14481,
      "name": "सांता इसाबेल",
      "name_default": "Santa Isabel",
      "native": "Santa Isabel",
      "type": "city",
      "level": null,
      "parent_id": null,
      "population": 54691,
      "latitude": "-15.26996000",
      "longitude": "-49.37797000",
      "timezone": "America/Sao_Paulo",
      "wikiDataId": "Q952830",
      "country_code": "BR",
      "state_code": "GO",
      "state_id": 2000,
      "country_id": 31
    },
    {
      "id": 14532,
      "name": "सांता रीटा डो अरागुआया",
      "name_default": "Santa Rita do Araguaia",
      "native": "Santa Rita do Araguaia",
      "type": "city",
      "level": null,
      "parent_id": null,
      "population": 5765,
      "latitude": "-17.23294000",
      "longitude": "-53.07676000",
      "timezone": "America/Sao_Paulo",
      "wikiDataId": "Q1789077",
      "country_code": "BR",
      "state_code": "GO",
      "state_id": 2000,
      "country_id": 31
    },