{
  "locale": "pt",
  "country": {
    "id": 85,
    "code": "GR",
    "iso3": "GRC",
    "numeric_code": "300",
    "name": "Grécia",
    "name_default": "Greece",
    "native": "Ελλάδα",
    "capital": "Athens",
    "phonecode": "30",
    "currency": "EUR",
    "currency_name": "Euro",
    "currency_symbol": "€",
    "tld": ".gr",
    "population": 10400720,
    "gdp": 267348,
    "region": "Europe",
    "region_id": 4,
    "subregion": "Southern Europe",
    "subregion_id": 16,
    "nationality": "Greek, Hellenic",
    "timezones": [
      {
        "zoneName": "Europe/Athens",
        "gmtOffset": 7200,
        "gmtOffsetName": "UTC+02:00",
        "abbreviation": "EET",
        "tzName": "Eastern European Time"
      }
    ],
    "latitude": "39.00000000",
    "longitude": "22.00000000",
    "emoji": "🇬🇷",
    "emojiU": "U+1F1EC U+1F1F7"
  },
  "state": {
    "id": 2109,
    "code": "M",
    "iso2": "M",
    "iso3166_2": "GR-M",
    "fips_code": "ESYE43",
    "name": "Creta",
    "name_default": "Crete",
    "native": "Κρήτη",
    "type": "administrative region",
    "level": "1",
    "parent_id": null,
    "population": null,
    "latitude": "35.28008260",
    "longitude": "24.63884400",
    "timezone": "Europe/Athens",
    "wikiDataId": "Q1267522",
    "country_code": "GR"
  },
  "cities": [
    {
      "id": 52415,
      "name": "Agía Foteiní",
      "name_default": "Agía Foteiní",
      "native": "Αγία Φωτεινή",
      "type": "adm3",
      "level": null,
      "parent_id": null,
      "population": 0,
      "latitude": "35.25459000",
      "longitude": "24.63495000",
      "timezone": "Europe/Athens",
      "wikiDataId": "Q12872912",
      "country_code": "GR",
      "state_code": "M",
      "state_id": 2109,
      "country_id": 85
    },
    {
      "id": 52416,
      "name": "Agía Galíni",
      "name_default": "Agía Galíni",
      "native": "Αγία Γαλήνη",
      "type": "city",
      "level": null,
      "parent_id": null,
      "population": 1369,
      "latitude": "35.09707000",
      "longitude": "24.68818000",
      "timezone": "Europe/Athens",
      "wikiDataId": "Q201088",
      "country_code": "GR",
      "state_code": "M",
      "state_id": 2109,
      "country_id": 85
    },
    {
      "id": 52418,
      "name": "Agía Marína",
      "name_default": "Agía Marína",
      "native": "Αγία Μαρίνα",
      "type": "city",
      "level": null,
      "parent_id": null,
      "population": 2380,
      "latitude": "35.51778000",
      "longitude": "23.92675000",
      "timezone": "Europe/Athens",
      "wikiDataId": "Q4692505",
      "country_code": "GR",
      "state_code": "M",
      "state_id": 2109,
      "country_id": 85
    },
    {
      "id": 52427,
      "name": "Agía Varvára",
      "name_default": "Agía Varvára",
      "native": "Αγία Βαρβάρα",
      "type": "city",
      "level": null,
      "parent_id": null,
      "population": 2167,
      "latitude": "35.13715000",
      "longitude": "25.00131000",
      "timezone": "Europe/Athens",
      "wikiDataId": "Q393633",
      "country_code": "GR",
      "state_code": "M",
      "state_id": 2109,
      "country_id": 85
    },
    {
      "id": 53371,
      "name": "Ágioi Déka",
      "name_default": "Ágioi Déka",
      "native": "Άγιοι Δέκα",
      "type": "adm3",
      "level": null,
      "parent_id": null,
      "population": 0,
      "latitude": "35.06667000",
      "longitude": "24.96667000",
      "timezone": "Europe/Athens",
      "wikiDataId": "Q4692593",
      "country_code": "GR",
      "state_code": "M",
      "state_id": 2109,
      "country_id": 85
    },
    {
      "id": 53380,
      "name": "Ágios Nikólaos",
      "name_default": "Ágios Nikólaos",
      "native": "Άγιος Νικόλαος",
      "type": "adm2",
      "level": null,
      "parent_id": null,
      "population": 11421,
      "latitude": "35.19106000",
      "longitude": "25.71524000",
      "timezone": "Europe/Athens",
      "wikiDataId": "Q21555128",
      "country_code": "GR",
      "state_code": "M",
      "state_id": 2109,
      "country_id": 85
    },
    {
      "id": 52467,
      "name": "Ano Arhanes",
      "name_default": "Ano Arhanes",
      "native": "Άνω Αρχάνες",
      "type": "city",
      "level": null,
      "parent_id": null,
      "population": 3913,
      "latitude": "35.23333000",
      "longitude": "25.16667000",
      "timezone": "Europe/Athens",
      "wikiDataId": "Q2466281",
      "country_code": "GR",
      "state_code": "M",
      "state_id": 2109,
      "country_id": 85
    },
    {
      "id": 52480,
      "name": "Anógeia",
      "name_default": "Anógeia",
      "native": "Ανώγεια",
      "type": "city",
      "level": null,
      "parent_id": null,
      "population": 2964,
      "latitude": "35.29084000",
      "longitude": "24.88412000",
      "timezone": "Europe/Athens",
      "wikiDataId": "Q567511",
      "country_code": "GR",
      "state_code": "M",
      "state_id": 2109,
      "country_id": 85
    },
    {
      "id": 52493,
      "name": "Arcalochóri",
      "name_default": "Arkalochóri",
      "native": "Αρκαλοχώρι",
      "type": "city",
      "level": null,
      "parent_id": null,
      "population": 3501,
      "latitude": "35.14634000",
      "longitude": "25.26538000",
      "timezone": "Europe/Athens",
      "wikiDataId": "Q2283009",
      "country_code": "GR",
      "state_code": "M",
      "state_id": 2109,
      "country_id": 85
    },
    {
      "id": 52512,
      "name": "Asímion",
      "name_default": "Asímion",
      "native": "Ασίμιον",
      "type": "city",
      "level": null,
      "parent_id": null,
      "population": 1148,
      "latitude": "35.04321000",
      "longitude": "25.09277000",
      "timezone": "Europe/Athens",
      "wikiDataId": "Q12179786",
      "country_code": "GR",
      "state_code": "M",
      "state_id": 2109,
      "country_id": 85
    },
    {
      "id": 52517,
      "name": "Atsipópoulo",
      "name_default": "Atsipópoulo",
      "native": "Ατσιπόπουλο",
      "type": "city",
      "level": null,
      "parent_id": null,
      "population": 1392,
      "latitude": "35.35253000",
      "longitude": "24.43378000",
      "timezone": "Europe/Athens",
      "wikiDataId": "Q3566843",
      "country_code": "GR",
      "state_code": "M",
      "state_id": 2109,
      "country_id": 85
    },
    {
      "id": 52530,
      "name": "Chaniá",
      "name_default": "Chaniá",
      "native": "Χανιά",
      "type": "adm2",
      "level": null,
      "parent_id": null,
      "population": 54559,
      "latitude": "35.51124000",
      "longitude": "24.02921000",
      "timezone": "Europe/Athens",
      "wikiDataId": "Q182299",
      "country_code": "GR",
      "state_code": "M",
      "state_id": 2109,
      "country_id": 85
    },
    {
      "id": 52544,
      "name": "Chóra Sfakíon",
      "name_default": "Chóra Sfakíon",
      "native": "Χώρα Σφακίων",
      "type": "adm3",
      "level": null,
      "parent_id": null,
      "population": 243,
      "latitude": "35.20176000",
      "longitude": "24.13711000",
      "timezone": "Europe/Athens",
      "wikiDataId": "Q1076320",
      "country_code": "GR",
      "state_code": "M",
      "state_id": 2109,
      "country_id": 85
    },
    {
      "id": 52546,
      "name": "Darátsos",
      "name_default": "Darátsos",
      "native": "Δαράτσος",
      "type": "city",
      "level": null,
      "parent_id": null,
      "population": 4822,
      "latitude": "35.49955000",
      "longitude": "23.97488000",
      "timezone": "Europe/Athens",
      "wikiDataId": "Q205832",
      "country_code": "GR",
      "state_code": "M",
      "state_id": 2109,
      "country_id": 85
    },
    {
      "id": 52582,
      "name": "Eloúnda",
      "name_default": "Eloúnda",
      "native": "Ελούντα",
      "type": "cities",
      "level": null,
      "parent_id": null,
      "population": 2193,
      "latitude": "35.26500000",
      "longitude": "25.72127000",
      "timezone": "Europe/Athens",
      "wikiDataId": "Q659728",
      "country_code": "GR",
      "state_code": "M",
      "state_id": 2109,
      "country_id": 85
    },
    {
      "id": 52623,
      "name": "Galatás",
      "name_default": "Galatás",
      "native": "Γαλατάς",
      "type": "city",
      "level": null,
      "parent_id": null,
      "population": 3166,
      "latitude": "35.49864000",
      "longitude": "23.96341000",
      "timezone": "Europe/Athens",
      "wikiDataId": "Q12276095",
      "country_code": "GR",
      "state_code": "M",
      "state_id": 2109,
      "country_id": 85
    },
    {
      "id": 52648,
      "name": "Gázi",
      "name_default": "Gázi",
      "native": "Γάζι",
      "type": "adm3",
      "level": null,
      "parent_id": null,
      "population": 13526,
      "latitude": "35.32531000",
      "longitude": "25.06694000",
      "timezone": "Europe/Athens",
      "wikiDataId": "Q2097291",
      "country_code": "GR",
      "state_code": "M",
      "state_id": 2109,
      "country_id": 85
    },
    {
      "id": 52633,
      "name": "Georgioupolis",
      "name_default": "Georgioupolis",
      "native": "Γεωργιούπολη",
      "type": "city",
      "level": null,
      "parent_id": null,
      "population": 2483,
      "latitude": "35.36225000",
      "longitude": "24.26013000",
      "timezone": "Europe/Athens",
      "wikiDataId": "Q15725356",
      "country_code": "GR",
      "state_code": "M",
      "state_id": 2109,
      "country_id": 85
    },
    {
      "id": 52636,
      "name": "Geráni",
      "name_default": "Geráni",
      "native": "Γεράνι",
      "type": "adm3",
      "level": null,
      "parent_id": null,
      "population": 0,
      "latitude": "35.51721000",
      "longitude": "23.87818000",
      "timezone": "Europe/Athens",
      "wikiDataId": "Q5549851",
      "country_code": "GR",
      "state_code": "M",
      "state_id": 2109,
      "country_id": 85
    },
    {
      "id": 52654,
      "name": "Gérgeri",
      "name_default": "Gérgeri",
      "native": "Γκέργκερι",
      "type": "city",
      "level": null,
      "parent_id": null,
      "population": 1444,
      "latitude": "35.13281000",
      "longitude": "24.94963000",
      "timezone": "Europe/Athens",
      "wikiDataId": "Q3104044",
      "country_code": "GR",
      "state_code": "M",
      "state_id": 2109,
      "country_id": 85
    },
    {
      "id": 52641,
      "name": "Goúrnes",
      "name_default": "Goúrnes",
      "native": "Γούρνες",
      "type": "adm3",
      "level": null,
      "parent_id": null,
      "population": 1628,
      "latitude": "35.32626000",
      "longitude": "25.27740000",
      "timezone": "Europe/Athens",
      "wikiDataId": "Q12875472",
      "country_code": "GR",
      "state_code": "M",
      "state_id": 2109,
      "country_id": 85
    },
    {
      "id": 52642,
      "name": "Gra Liyiá",
      "name_default": "Gra Liyiá",
      "native": "Γκρα Λιγιά",
      "type": "city",
      "level": null,
      "parent_id": null,
      "population": 1528,
      "latitude": "35.01467000",
      "longitude": "25.69127000",
      "timezone": "Europe/Athens",
      "wikiDataId": "Q12875472",
      "country_code": "GR",
      "state_code": "M",
      "state_id": 2109,
      "country_id": 85
    },
    {
      "id": 153541,
      "name": "Heraclião",
      "name_default": "Heraklion",
      "native": "Ηράκλειο",
      "type": "adm1",
      "level": null,
      "parent_id": null,
      "population": 137154,
      "latitude": "35.33870000",
      "longitude": "25.14420000",
      "timezone": "Europe/Athens",
      "wikiDataId": "Q34402",
      "country_code": "GR",
      "state_code": "M",
      "state_id": 2109,
      "country_id": 85
    },
    {
      "id": 52659,
      "name": "Ierápetra",
      "name_default": "Ierápetra",
      "native": "Ιεράπετρα",
      "type": "adm3",
      "level": null,
      "parent_id": null,
      "population": 12355,
      "latitude": "35.01186000",
      "longitude": "25.74234000",
      "timezone": "Europe/Athens",
      "wikiDataId": "Q938412",
      "country_code": "GR",
      "state_code": "M",
      "state_id": 2109,
      "country_id": 85
    },
    {
      "id": 52666,
      "name": "Irákleion",
      "name_default": "Irákleion",
      "native": "Ηράκλειο",
      "type": "adm1",
      "level": null,
      "parent_id": null,
      "population": 137154,
      "latitude": "35.32787000",
      "longitude": "25.14341000",
      "timezone": "Europe/Athens",
      "wikiDataId": "Q160544",
      "country_code": "GR",
      "state_code": "M",
      "state_id": 2109,
      "country_id": 85
    },
    {
      "id": 52692,
      "name": "Kalives",
      "name_default": "Kalýves",
      "native": "Καλύβες",
      "type": "city",
      "level": null,
      "parent_id": null,
      "population": 1304,
      "latitude": "35.45046000",
      "longitude": "24.17507000",
      "timezone": "Europe/Athens",
      "wikiDataId": "Q285734",
      "country_code": "GR",
      "state_code": "M",
      "state_id": 2109,
      "country_id": 85
    },
    {
      "id": 52728,
      "name": "Kastélli",
      "name_default": "Kastélli",
      "native": "Καστέλι",
      "type": "adm3",
      "level": null,
      "parent_id": null,
      "population": 1828,
      "latitude": "35.20902000",
      "longitude": "25.33773000",
      "timezone": "Europe/Athens",
      "wikiDataId": "Q845105",
      "country_code": "GR",
      "state_code": "M",
      "state_id": 2109,
      "country_id": 85
    },
    {
      "id": 52726,
      "name": "Kastrí",
      "name_default": "Kastrí",
      "native": "Καστρί",
      "type": "adm3",
      "level": null,
      "parent_id": null,
      "population": 37,
      "latitude": "34.83460000",
      "longitude": "24.08572000",
      "timezone": "Europe/Athens",
      "wikiDataId": "Q21758160",
      "country_code": "GR",
      "state_code": "M",
      "state_id": 2109,
      "country_id": 85
    },
    {
      "id": 52806,
      "name": "Káto Asítai",
      "name_default": "Káto Asítai",
      "native": "Κάτω Ασίται",
      "type": "city",
      "level": null,
      "parent_id": null,
      "population": 1264,
      "latitude": "35.20271000",
      "longitude": "24.99827000",
      "timezone": "Europe/Athens",
      "wikiDataId": "Q3564248",
      "country_code": "GR",
      "state_code": "M",
      "state_id": 2109,
      "country_id": 85
    },
    {
      "id": 52809,
      "name": "Káto Goúves",
      "name_default": "Káto Goúves",
      "native": "Κάτω Γούβες",
      "type": "city",
      "level": null,
      "parent_id": null,
      "population": 2630,
      "latitude": "35.32934000",
      "longitude": "25.31353000",
      "timezone": "Europe/Athens",
      "wikiDataId": "Q12234195",
      "country_code": "GR",
      "state_code": "M",
      "state_id": 2109,
      "country_id": 85
    },
    {
      "id": 52738,
      "name": "Kentrí",
      "name_default": "Kentrí",
      "native": "Κεντρί",
      "type": "city",
      "level": null,
      "parent_id": null,
      "population": 1051,
      "latitude": "35.03258000",
      "longitude": "25.75280000",
      "timezone": "Europe/Athens",
      "wikiDataId": "Q3558285",
      "country_code": "GR",
      "state_code": "M",
      "state_id": 2109,
      "country_id": 85
    },
    {
      "id": 52822,
      "name": "Beijos",
      "name_default": "Kíssamos",
      "native": "Κίσσαμος",
      "type": "adm3",
      "level": null,
      "parent_id": null,
      "population": 4295,
      "latitude": "35.49459000",
      "longitude": "23.65375000",
      "timezone": "Europe/Athens",
      "wikiDataId": "Q1021629",
      "country_code": "GR",
      "state_code": "M",
      "state_id": 2109,
      "country_id": 85
    },
    {
      "id": 52756,
      "name": "Kokkíni Cháni",
      "name_default": "Kokkíni Cháni",
      "native": "Κοκκίνη Χάνι",
      "type": "city",
      "level": null,
      "parent_id": null,
      "population": 1733,
      "latitude": "35.32827000",
      "longitude": "25.25810000",
      "timezone": "Europe/Athens",
      "wikiDataId": "Q12234402",
      "country_code": "GR",
      "state_code": "M",
      "state_id": 2109,
      "country_id": 85
    },
    {
      "id": 52760,
      "name": "Kolympári",
      "name_default": "Kolympári",
      "native": "Κολυμπάρι",
      "type": "city",
      "level": null,
      "parent_id": null,
      "population": 1032,
      "latitude": "35.54115000",
      "longitude": "23.77995000",
      "timezone": "Europe/Athens",
      "wikiDataId": "Q12078328",
      "country_code": "GR",
      "state_code": "M",
      "state_id": 2109,
      "country_id": 85
    },
    {
      "id": 52787,
      "name": "Kritsá",
      "name_default": "Kritsá",
      "native": "Κρίτσα",
      "type": "city",
      "level": null,
      "parent_id": null,
      "population": 1291,
      "latitude": "35.15821000",
      "longitude": "25.64459000",
      "timezone": "Europe/Athens",
      "wikiDataId": "Q1384932",
      "country_code": "GR",
      "state_code": "M",
      "state_id": 2109,
      "country_id": 85
    },
    {
      "id": 52789,
      "name": "Krousón",
      "name_default": "Krousón",
      "native": "Κρουσόν",
      "type": "city",
      "level": null,
      "parent_id": null,
      "population": 2811,
      "latitude": "35.23062000",
      "longitude": "24.98291000",
      "timezone": "Europe/Athens",
      "wikiDataId": "Q640658",
      "country_code": "GR",
      "state_code": "M",
      "state_id": 2109,
      "country_id": 85
    },
    {
      "id": 52855,
      "name": "Limín Khersonísou",
      "name_default": "Limín Khersonísou",
      "native": "Λιμίν Χερσονήσου",
      "type": "city",
      "level": null,
      "parent_id": null,
      "population": 2968,
      "latitude": "35.32297000",
      "longitude": "25.39275000",
      "timezone": "Europe/Athens",
      "wikiDataId": "Q1014258",
      "country_code": "GR",
      "state_code": "M",
      "state_id": 2109,
      "country_id": 85
    },
    {
      "id": 52953,
      "name": "Mália",
      "name_default": "Mália",
      "native": "Μάλια",
      "type": "city",
      "level": null,
      "parent_id": null,
      "population": 4343,
      "latitude": "35.28367000",
      "longitude": "25.46262000",
      "timezone": "Europe/Athens",
      "wikiDataId": "Q21540690",
      "country_code": "GR",
      "state_code": "M",
      "state_id": 2109,
      "country_id": 85
    },
    {
      "id": 52948,
      "name": "Moíres",
      "name_default": "Moíres",
      "native": "Μοίρες",
      "type": "adm3",
      "level": null,
      "parent_id": null,
      "population": 6740,
      "latitude": "35.05143000",
      "longitude": "24.87330000",
      "timezone": "Europe/Athens",
      "wikiDataId": "Q1016694",
      "country_code": "GR",
      "state_code": "M",
      "state_id": 2109,
      "country_id": 85
    },
    {
      "id": 52939,
      "name": "Mokhós",
      "name_default": "Mokhós",
      "native": "Μόχος",
      "type": "city",
      "level": null,
      "parent_id": null,
      "population": 1132,
      "latitude": "35.26342000",
      "longitude": "25.42305000",
      "timezone": "Europe/Athens",
      "wikiDataId": "Q3859489",
      "country_code": "GR",
      "state_code": "M",
      "state_id": 2109,
      "country_id": 85
    },
    {
      "id": 52944,
      "name": "Mourniés",
      "name_default": "Mourniés",
      "native": "Μουρνιές",
      "type": "city",
      "level": null,
      "parent_id": null,
      "population": 5318,
      "latitude": "35.48228000",
      "longitude": "24.01253000",
      "timezone": "Europe/Athens",
      "wikiDataId": "Q3326154",
      "country_code": "GR",
      "state_code": "M",
      "state_id": 2109,
      "country_id": 85
    },
    {
      "id": 52946,
      "name": "Mouzourás",
      "name_default": "Mouzourás",
      "native": "Μουζούρας",
      "type": "city",
      "level": null,
      "parent_id": null,
      "population": 1462,
      "latitude": "35.53885000",
      "longitude": "24.15554000",
      "timezone": "Europe/Athens",
      "wikiDataId": "Q3326154",
      "country_code": "GR",
      "state_code": "M",
      "state_id": 2109,
      "country_id": 85
    },
    {
      "id": 52999,
      "name": "Néa Alikarnassós",
      "name_default": "Néa Alikarnassós",
      "native": "Νέα Αλικαρνασσός",
      "type": "city",
      "level": null,
      "parent_id": null,
      "population": 12925,
      "latitude": "35.33977000",
      "longitude": "25.15895000",
      "timezone": "Europe/Athens",
      "wikiDataId": "Q1021602",
      "country_code": "GR",
      "state_code": "M",
      "state_id": 2109,
      "country_id": 85
    },
    {
      "id": 53000,
      "name": "Néa Anatolí",
      "name_default": "Néa Anatolí",
      "native": "Νέα Ανατολή",
      "type": "city",
      "level": null,
      "parent_id": null,
      "population": 1002,
      "latitude": "35.00920000",
      "longitude": "25.66170000",
      "timezone": "Europe/Athens",
      "wikiDataId": "Q1021602",
      "country_code": "GR",
      "state_code": "M",
      "state_id": 2109,
      "country_id": 85
    },
    {
      "id": 52973,
      "name": "Neápoli",
      "name_default": "Neápoli",
      "native": "Νεάπολη",
      "type": "city",
      "level": null,
      "parent_id": null,
      "population": 2683,
      "latitude": "35.25627000",
      "longitude": "25.60415000",
      "timezone": "Europe/Athens",
      "wikiDataId": "Q1736413",
      "country_code": "GR",
      "state_code": "M",
      "state_id": 2109,
      "country_id": 85
    },
    {
      "id": 52971,
      "name": "Nerokoúros",
      "name_default": "Nerokoúros",
      "native": "Νεροκούρος",
      "type": "city",
      "level": null,
      "parent_id": null,
      "population": 4388,
      "latitude": "35.47587000",
      "longitude": "24.03995000",
      "timezone": "Europe/Athens",
      "wikiDataId": "Q12249495",
      "country_code": "GR",
      "state_code": "M",
      "state_id": 2109,
      "country_id": 85
    },
    {
      "id": 52986,
      "name": "Nomós Irakleíou",
      "name_default": "Nomós Irakleíou",
      "native": "Νομός Ηρακλείου",
      "type": "city",
      "level": null,
      "parent_id": null,
      "population": null,
      "latitude": "35.32969000",
      "longitude": "25.12985000",
      "timezone": "Europe/Athens",
      "wikiDataId": "Q19896769",
      "country_code": "GR",
      "state_code": "M",
      "state_id": 2109,
      "country_id": 85
    },
    {
      "id": 52991,
      "name": "Nomós Rethýmnis",
      "name_default": "Nomós Rethýmnis",
      "native": "Νομός Ρεθύμνης",
      "type": "city",
      "level": null,
      "parent_id": null,
      "population": null,
      "latitude": "35.25000000",
      "longitude": "24.58333000",
      "timezone": "Europe/Athens",
      "wikiDataId": "Q17317934",
      "country_code": "GR",
      "state_code": "M",
      "state_id": 2109,
      "country_id": 85
    },
    {
      "id": 53079,
      "name": "Palaióchora",
      "name_default": "Palaióchora",
      "native": "Παλαιόχωρα",
      "type": "adm3",
      "level": null,
      "parent_id": null,
      "population": 2038,
      "latitude": "35.23128000",
      "longitude": "23.68185000",
      "timezone": "Europe/Athens",
      "wikiDataId": "Q2047708",
      "country_code": "GR",
      "state_code": "M",
      "state_id": 2109,
      "country_id": 85
    },
    {
      "id": 53083,
      "name": "Palekastro",
      "name_default": "Palekastro",
      "native": "Παλαίκαστρο",
      "type": "city",
      "level": null,
      "parent_id": null,
      "population": 1024,
      "latitude": "35.19793000",
      "longitude": "26.25429000",
      "timezone": "Europe/Athens",
      "wikiDataId": "Q941860",
      "country_code": "GR",
      "state_code": "M",
      "state_id": 2109,
      "country_id": 85
    },
    {
      "id": 53163,
      "name": "Pánormos",
      "name_default": "Pánormos",
      "native": "Πάνορμος",
      "type": "city",
      "level": null,
      "parent_id": null,
      "population": 1157,
      "latitude": "35.41815000",
      "longitude": "24.69091000",
      "timezone": "Europe/Athens",
      "wikiDataId": "Q238648",
      "country_code": "GR",
      "state_code": "M",
      "state_id": 2109,
      "country_id": 85
    },
    {
      "id": 53176,
      "name": "Pérama",
      "name_default": "Pérama",
      "native": "Πέραμα",
      "type": "city",
      "level": null,
      "parent_id": null,
      "population": 1937,
      "latitude": "35.37030000",
      "longitude": "24.70345000",
      "timezone": "Europe/Athens",
      "wikiDataId": "Q2070110",
      "country_code": "GR",
      "state_code": "M",
      "state_id": 2109,
      "country_id": 85
    },
    {
      "id": 53114,
      "name": "Perivólia",
      "name_default": "Perivólia",
      "native": "Περιβόλια",
      "type": "city",
      "level": null,
      "parent_id": null,
      "population": 3320,
      "latitude": "35.48491000",
      "longitude": "23.99421000",
      "timezone": "Europe/Athens",
      "wikiDataId": "Q827238",
      "country_code": "GR",
      "state_code": "M",
      "state_id": 2109,
      "country_id": 85
    },
    {
      "id": 53124,
      "name": "Pithári",
      "name_default": "Pithári",
      "native": "Πιθάρι",
      "type": "city",
      "level": null,
      "parent_id": null,
      "population": 1302,
      "latitude": "35.51672000",
      "longitude": "24.08653000",
      "timezone": "Europe/Athens",
      "wikiDataId": "Q58976",
      "country_code": "GR",
      "state_code": "M",
      "state_id": 2109,
      "country_id": 85
    },
    {
      "id": 53142,
      "name": "Profítis Ilías",
      "name_default": "Profítis Ilías",
      "native": "Προφήτης Ηλίας",
      "type": "city",
      "level": null,
      "parent_id": null,
      "population": 1320,
      "latitude": "35.20555000",
      "longitude": "25.09985000",
      "timezone": "Europe/Athens",
      "wikiDataId": "Q12198148",
      "country_code": "GR",
      "state_code": "M",
      "state_id": 2109,
      "country_id": 85
    },
    {
      "id": 53185,
      "name": "Pírgos",
      "name_default": "Pýrgos",
      "native": "Πύργος",
      "type": "city",
      "level": null,
      "parent_id": null,
      "population": 1134,
      "latitude": "35.00611000",
      "longitude": "25.15191000",
      "timezone": "Europe/Athens",
      "wikiDataId": "Q12884059",
      "country_code": "GR",
      "state_code": "M",
      "state_id": 2109,
      "country_id": 85
    },
    {
      "id": 53187,
      "name": "Rethymno",
      "name_default": "Rethymno",
      "native": "Ρέθυμνο",
      "type": "adm2",
      "level": null,
      "parent_id": null,
      "population": 34085,
      "latitude": "35.36555000",
      "longitude": "24.48232000",
      "timezone": "Europe/Athens",
      "wikiDataId": "Q200908",
      "country_code": "GR",
      "state_code": "M",
      "state_id": 2109,
      "country_id": 85
    },
    {
      "id": 53210,
      "name": "Schísma Eloúndas",
      "name_default": "Schísma Eloúndas",
      "native": "Σχίσμα Ελούντας",
      "type": "city",
      "level": null,
      "parent_id": null,
      "population": 1730,
      "latitude": "35.25757000",
      "longitude": "25.72796000",
      "timezone": "Europe/Athens",
      "wikiDataId": "Q1227707",
      "country_code": "GR",
      "state_code": "M",
      "state_id": 2109,
      "country_id": 85
    },
    {
      "id": 53272,
      "name": "Sísion",
      "name_default": "Sísion",
      "native": "Σίσιον",
      "type": "city",
      "level": null,
      "parent_id": null,
      "population": 1003,
      "latitude": "35.30770000",
      "longitude": "25.52021000",
      "timezone": "Europe/Athens",
      "wikiDataId": "Q3565823",
      "country_code": "GR",
      "state_code": "M",
      "state_id": 2109,
      "country_id": 85
    },
    {
      "id": 53217,
      "name": "Sitia",
      "name_default": "Sitia",
      "native": "Σητεία",
      "type": "adm3",
      "level": null,
      "parent_id": null,
      "population": 10565,
      "latitude": "35.20783000",
      "longitude": "26.10467000",
      "timezone": "Europe/Athens",
      "wikiDataId": "Q985549",
      "country_code": "GR",
      "state_code": "M",
      "state_id": 2109,
      "country_id": 85
    },
    {
      "id": 53219,
      "name": "Skalánion",
      "name_default": "Skalánion",
      "native": "Σκαλάνι",
      "type": "city",
      "level": null,
      "parent_id": null,
      "population": 1012,
      "latitude": "35.28262000",
      "longitude": "25.18684000",
      "timezone": "Europe/Athens",
      "wikiDataId": "Q16322951",
      "country_code": "GR",
      "state_code": "M",
      "state_id": 2109,
      "country_id": 85
    },
    {
      "id": 53237,
      "name": "Souda",
      "name_default": "Soúda",
      "native": "Σούδα",
      "type": "city",
      "level": null,
      "parent_id": null,
      "population": 6155,
      "latitude": "35.48717000",
      "longitude": "24.07344000",
      "timezone": "Europe/Athens",
      "wikiDataId": "Q544242",
      "country_code": "GR",
      "state_code": "M",
      "state_id": 2109,
      "country_id": 85
    },
    {
      "id": 53244,
      "name": "Stalís",
      "name_default": "Stalís",
      "native": "Σταλίδα",
      "type": "city",
      "level": null,
      "parent_id": null,
      "population": 1182,
      "latitude": "35.29257000",
      "longitude": "25.43292000",
      "timezone": "Europe/Athens",
      "wikiDataId": "Q368275",
      "country_code": "GR",
      "state_code": "M",
      "state_id": 2109,
      "country_id": 85
    },
    {
      "id": 53281,
      "name": "Thrapsanón",
      "name_default": "Thrapsanón",
      "native": "Θραψανό",
      "type": "city",
      "level": null,
      "parent_id": null,
      "population": 1499,
      "latitude": "35.18798000",
      "longitude": "25.28091000",
      "timezone": "Europe/Athens",
      "wikiDataId": "Q1142680",
      "country_code": "GR",
      "state_code": "M",
      "state_id": 2109,
      "country_id": 85
    },
    {
      "id": 53302,
      "name": "Tílisos",
      "name_default": "Tílisos",
      "native": "Τίλισος",
      "type": "city",
      "level": null,
      "parent_id": null,
      "population": 1026,
      "latitude": "35.29607000",
      "longitude": "25.01587000",
      "timezone": "Europe/Athens",
      "wikiDataId": "Q2707725",
      "country_code": "GR",
      "state_code": "M",
      "state_id": 2109,
      "country_id": 85
    },
    {
      "id": 53296,
      "name": "Tsikalariá",
      "name_default": "Tsikalariá",
      "native": "Τσικαλαριά",
      "type": "city",
      "level": null,
      "parent_id": null,
      "population": 1545,
      "latitude": "35.47623000",
      "longitude": "24.06274000",
      "timezone": "Europe/Athens",
      "wikiDataId": "Q2637021",
      "country_code": "GR",
      "state_code": "M",
      "state_id": 2109,
      "country_id": 85
    },
    {
      "id": 53299,
      "name": "Tympáki",
      "name_default": "Tympáki",
      "native": "Τυμπάκι",
      "type": "city",
      "level": null,
      "parent_id": null,
      "population": 5515,
      "latitude": "35.07286000",
      "longitude": "24.76851000",
      "timezone": "Europe/Athens",
      "wikiDataId": "Q2462767",
      "country_code": "GR",
      "state_code": "M",
      "state_id": 2109,
      "country_id": 85
    },
    {
      "id": 53321,
      "name": "Violí Charáki",
      "name_default": "Violí Charáki",
      "native": "Βιολί Χαράκι",
      "type": "city",
      "level": null,
      "parent_id": null,
      "population": 3185,
      "latitude": "35.35864000",
      "longitude": "24.43857000",
      "timezone": "Europe/Athens",
      "wikiDataId": "Q213916",
      "country_code": "GR",
      "state_code": "M",
      "state_id": 2109,
      "country_id": 85
    },
    {
      "id": 53337,
      "name": "Vrýses",
      "name_default": "Vrýses",
      "native": "Βρύσες",
      "type": "adm3",
      "level": null,
      "parent_id": null,
      "population": 812,
      "latitude": "35.37585000",
      "longitude": "24.20109000",
      "timezone": "Europe/Athens",
      "wikiDataId": "Q3563193",
      "country_code": "GR",
      "state_code": "M",
      "state_id": 2109,
      "country_id": 85
    },
    {
      "id": 53359,
      "name": "Zarós",
      "name_default": "Zarós",
      "native": "Ζάρος",
      "type": "city",
      "level": null,
      "parent_id": null,
      "population": 2205,
      "latitude": "35.13030000",
      "longitude": "24.90412000",
      "timezone": "Europe/Athens",
      "wikiDataId": "Q1142647",
      "country_code": "GR",
      "state_code": "M",
      "state_id": 2109,
      "country_id": 85
    },
    {
      "id": 53364,
      "name": "Zonianá",
      "name_default": "Zonianá",
      "native": "Ζωνιανά",
      "type": "city",
      "level": null,
      "parent_id": null,
      "population": 1703,
      "latitude": "35.29502000",
      "longitude": "24.82944000",
      "timezone": "Europe/Athens",
      "wikiDataId": "Q219951",
      "country_code": "GR",
      "state_code": "M",
      "state_id": 2109,
      "country_id": 85
    }
  ]
}
