{
  "locale": "pt",
  "country": {
    "id": 103,
    "code": "IR",
    "iso3": "IRN",
    "numeric_code": "364",
    "name": "Irão",
    "name_default": "Iran",
    "native": "ایران",
    "capital": "Tehran",
    "phonecode": "98",
    "currency": "IRR",
    "currency_name": "Iranian rial",
    "currency_symbol": "﷼",
    "tld": ".ir",
    "population": 85961000,
    "gdp": 341013,
    "region": "Asia",
    "region_id": 3,
    "subregion": "Southern Asia",
    "subregion_id": 14,
    "nationality": "Iranian, Persian",
    "timezones": [
      {
        "zoneName": "Asia/Tehran",
        "gmtOffset": 12600,
        "gmtOffsetName": "UTC+03:30",
        "abbreviation": "IRDT",
        "tzName": "Iran Daylight Time"
      }
    ],
    "latitude": "32.00000000",
    "longitude": "53.00000000",
    "emoji": "🇮🇷",
    "emojiU": "U+1F1EE U+1F1F7"
  },
  "state": {
    "id": 3928,
    "code": "15",
    "iso2": "15",
    "iso3166_2": "IR-15",
    "fips_code": "23",
    "name": "Lorestão",
    "name_default": "Lorestan",
    "native": "لرستان",
    "type": "province",
    "level": null,
    "parent_id": null,
    "population": 1760649,
    "latitude": "33.53682060",
    "longitude": "48.24439450",
    "timezone": "Asia/Tehran",
    "wikiDataId": "Q1131727",
    "country_code": "IR"
  },
  "cities": [
    {
      "id": 134564,
      "name": "Aleshtar",
      "name_default": "Aleshtar",
      "native": "الشتار",
      "type": "adm2",
      "level": null,
      "parent_id": null,
      "population": 33558,
      "latitude": "33.86419000",
      "longitude": "48.26258000",
      "timezone": "Asia/Tehran",
      "wikiDataId": "Q967701",
      "country_code": "IR",
      "state_code": "15",
      "state_id": 3928,
      "country_id": 103
    },
    {
      "id": 134567,
      "name": "Aligudarz",
      "name_default": "Aligudarz",
      "native": "عیاشی",
      "type": "adm2",
      "level": null,
      "parent_id": null,
      "population": 89268,
      "latitude": "33.40400000",
      "longitude": "49.69179000",
      "timezone": "Asia/Tehran",
      "wikiDataId": "Q643166",
      "country_code": "IR",
      "state_code": "15",
      "state_id": 3928,
      "country_id": 103
    },
    {
      "id": 134573,
      "name": "Azna",
      "name_default": "Azna",
      "native": "تغذیه کننده",
      "type": "adm2",
      "level": null,
      "parent_id": null,
      "population": 47489,
      "latitude": "33.45643000",
      "longitude": "49.45646000",
      "timezone": "Asia/Tehran",
      "wikiDataId": "Q604576",
      "country_code": "IR",
      "state_code": "15",
      "state_id": 3928,
      "country_id": 103
    },
    {
      "id": 150900,
      "name": "Bayranshahr",
      "name_default": "Bayranshahr",
      "native": "بی نظیر",
      "type": "city",
      "level": null,
      "parent_id": null,
      "population": 1720,
      "latitude": "33.64777800",
      "longitude": "48.55888900",
      "timezone": "Asia/Tehran",
      "wikiDataId": "Q4359635",
      "country_code": "IR",
      "state_code": "15",
      "state_id": 3928,
      "country_id": 103
    },
    {
      "id": 134591,
      "name": "Borujerd",
      "name_default": "Borujerd",
      "native": "بوروجرد",
      "type": "adm2",
      "level": null,
      "parent_id": null,
      "population": 234997,
      "latitude": "33.89730000",
      "longitude": "48.75160000",
      "timezone": "Asia/Tehran",
      "wikiDataId": "Q605454",
      "country_code": "IR",
      "state_code": "15",
      "state_id": 3928,
      "country_id": 103
    },
    {
      "id": 150904,
      "name": "Chalan Chulan",
      "name_default": "Chalan Chulan",
      "native": "چگان چلان",
      "type": "city",
      "level": null,
      "parent_id": null,
      "population": null,
      "latitude": "33.66517450",
      "longitude": "48.89954560",
      "timezone": "Asia/Tehran",
      "wikiDataId": "Q4359136",
      "country_code": "IR",
      "state_code": "15",
      "state_id": 3928,
      "country_id": 103
    },
    {
      "id": 150908,
      "name": "Chaqabol",
      "name_default": "Chaqabol",
      "native": "شربت",
      "type": "adm2",
      "level": null,
      "parent_id": null,
      "population": 0,
      "latitude": "33.28083300",
      "longitude": "47.50888900",
      "timezone": "Asia/Tehran",
      "wikiDataId": "Q2624797",
      "country_code": "IR",
      "state_code": "15",
      "state_id": 3928,
      "country_id": 103
    },
    {
      "id": 150910,
      "name": "Darb Gonbad",
      "name_default": "Darb Gonbad",
      "native": "گنبد داربان",
      "type": "city",
      "level": null,
      "parent_id": null,
      "population": null,
      "latitude": "33.68929030",
      "longitude": "47.14619640",
      "timezone": "Asia/Tehran",
      "wikiDataId": null,
      "country_code": "IR",
      "state_code": "15",
      "state_id": 3928,
      "country_id": 103
    },
    {
      "id": 134619,
      "name": "Delfan",
      "name_default": "Delfan",
      "native": "لطیف",
      "type": "city",
      "level": null,
      "parent_id": null,
      "population": 143973,
      "latitude": "34.05000000",
      "longitude": "47.78333000",
      "timezone": "Asia/Tehran",
      "wikiDataId": "Q2630618",
      "country_code": "IR",
      "state_code": "15",
      "state_id": 3928,
      "country_id": 103
    },
    {
      "id": 150905,
      "name": "Dorud",
      "name_default": "Dorud",
      "native": "دورود",
      "type": "city",
      "level": null,
      "parent_id": null,
      "population": 121608,
      "latitude": "33.49215260",
      "longitude": "49.02520120",
      "timezone": "Asia/Tehran",
      "wikiDataId": "Q238375",
      "country_code": "IR",
      "state_code": "15",
      "state_id": 3928,
      "country_id": 103
    },
    {
      "id": 150909,
      "name": "Firouz Abad",
      "name_default": "Firouz Abad",
      "native": "قرن فیروز",
      "type": "city",
      "level": null,
      "parent_id": null,
      "population": null,
      "latitude": "33.89859610",
      "longitude": "48.09895990",
      "timezone": "Asia/Tehran",
      "wikiDataId": null,
      "country_code": "IR",
      "state_code": "15",
      "state_id": 3928,
      "country_id": 103
    },
    {
      "id": 150912,
      "name": "Garab",
      "name_default": "Garab",
      "native": "شانه",
      "type": "city",
      "level": null,
      "parent_id": null,
      "population": 3295,
      "latitude": "33.48518270",
      "longitude": "48.48797680",
      "timezone": "Asia/Tehran",
      "wikiDataId": "Q5521826",
      "country_code": "IR",
      "state_code": "15",
      "state_id": 3928,
      "country_id": 103
    },
    {
      "id": 150903,
      "name": "Haft Cheshmeh",
      "name_default": "Haft Cheshmeh",
      "native": "چاشم",
      "type": "city",
      "level": null,
      "parent_id": null,
      "population": null,
      "latitude": "34.20727710",
      "longitude": "47.76102300",
      "timezone": "Asia/Tehran",
      "wikiDataId": "Q5638434",
      "country_code": "IR",
      "state_code": "15",
      "state_id": 3928,
      "country_id": 103
    },
    {
      "id": 134673,
      "name": "Khorramabad",
      "name_default": "Khorramabad",
      "native": "خرمه",
      "type": "adm1",
      "level": null,
      "parent_id": null,
      "population": 373416,
      "latitude": "33.48778000",
      "longitude": "48.35583000",
      "timezone": "Asia/Tehran",
      "wikiDataId": "Q502212",
      "country_code": "IR",
      "state_code": "15",
      "state_id": 3928,
      "country_id": 103
    },
    {
      "id": 134687,
      "name": "Kuhdasht",
      "name_default": "Kuhdasht",
      "native": "کوهدشت",
      "type": "adm2",
      "level": null,
      "parent_id": null,
      "population": 100208,
      "latitude": "33.53335000",
      "longitude": "47.60999000",
      "timezone": "Asia/Tehran",
      "wikiDataId": "Q720059",
      "country_code": "IR",
      "state_code": "15",
      "state_id": 3928,
      "country_id": 103
    },
    {
      "id": 150911,
      "name": "Kunani",
      "name_default": "Kunani",
      "native": "چیست",
      "type": "city",
      "level": null,
      "parent_id": null,
      "population": 7768,
      "latitude": "33.40296240",
      "longitude": "47.31635560",
      "timezone": "Asia/Tehran",
      "wikiDataId": "Q2620893",
      "country_code": "IR",
      "state_code": "15",
      "state_id": 3928,
      "country_id": 103
    },
    {
      "id": 150899,
      "name": "Mamulano",
      "name_default": "Mamulan",
      "native": "مهمل",
      "type": "city",
      "level": null,
      "parent_id": null,
      "population": null,
      "latitude": "33.37947580",
      "longitude": "47.95176030",
      "timezone": "Asia/Tehran",
      "wikiDataId": "Q2621304",
      "country_code": "IR",
      "state_code": "15",
      "state_id": 3928,
      "country_id": 103
    },
    {
      "id": 150895,
      "name": "Momen Abad",
      "name_default": "Momen Abad",
      "native": "لحظه قرن",
      "type": "city",
      "level": null,
      "parent_id": null,
      "population": null,
      "latitude": "33.58523350",
      "longitude": "49.50169070",
      "timezone": "Asia/Tehran",
      "wikiDataId": null,
      "country_code": "IR",
      "state_code": "15",
      "state_id": 3928,
      "country_id": 103
    },
    {
      "id": 134720,
      "name": "Nurabad",
      "name_default": "Nurabad",
      "native": "نوراباد",
      "type": "adm2",
      "level": null,
      "parent_id": null,
      "population": 73528,
      "latitude": "34.07340000",
      "longitude": "47.97250000",
      "timezone": "Asia/Tehran",
      "wikiDataId": "Q720657",
      "country_code": "IR",
      "state_code": "15",
      "state_id": 3928,
      "country_id": 103
    },
    {
      "id": 150897,
      "name": "Oshtorinan",
      "name_default": "Oshtorinan",
      "native": "اوشورینان",
      "type": "city",
      "level": null,
      "parent_id": null,
      "population": 5520,
      "latitude": "34.01542270",
      "longitude": "48.63428580",
      "timezone": "Asia/Tehran",
      "wikiDataId": "Q2624804",
      "country_code": "IR",
      "state_code": "15",
      "state_id": 3928,
      "country_id": 103
    },
    {
      "id": 150898,
      "name": "Pol Dokhtar",
      "name_default": "Pol Dokhtar",
      "native": "دوکتار",
      "type": "adm2",
      "level": null,
      "parent_id": null,
      "population": null,
      "latitude": "33.14617260",
      "longitude": "47.70149940",
      "timezone": "Asia/Tehran",
      "wikiDataId": "Q2004387",
      "country_code": "IR",
      "state_code": "15",
      "state_id": 3928,
      "country_id": 103
    },
    {
      "id": 134728,
      "name": "Pol-e Dokhtar",
      "name_default": "Pol-e Dokhtar",
      "native": "دوکتار",
      "type": "city",
      "level": null,
      "parent_id": null,
      "population": 26352,
      "latitude": "33.16667000",
      "longitude": "48.00000000",
      "timezone": "Asia/Tehran",
      "wikiDataId": "Q2004387",
      "country_code": "IR",
      "state_code": "15",
      "state_id": 3928,
      "country_id": 103
    },
    {
      "id": 134756,
      "name": "Condado de Rumeshkhan",
      "name_default": "Rumeshkhan",
      "native": "شهرستان رومشخان",
      "type": "county",
      "level": null,
      "parent_id": null,
      "population": null,
      "latitude": "33.27960000",
      "longitude": "47.48995000",
      "timezone": "Asia/Tehran",
      "wikiDataId": "Q967688",
      "country_code": "IR",
      "state_code": "15",
      "state_id": 3928,
      "country_id": 103
    },
    {
      "id": 150906,
      "name": "Sarab-e Dowreh",
      "name_default": "Sarab-e Dowreh",
      "native": "ساراب دوره",
      "type": "city",
      "level": null,
      "parent_id": null,
      "population": 1713,
      "latitude": "33.56388900",
      "longitude": "48.02222200",
      "timezone": "Asia/Tehran",
      "wikiDataId": "Q1026071",
      "country_code": "IR",
      "state_code": "15",
      "state_id": 3928,
      "country_id": 103
    },
    {
      "id": 134773,
      "name": "Selseleh",
      "name_default": "Selseleh",
      "native": "سللی",
      "type": "city",
      "level": null,
      "parent_id": null,
      "population": 75559,
      "latitude": "33.83333000",
      "longitude": "48.16667000",
      "timezone": "Asia/Tehran",
      "wikiDataId": "Q1282207",
      "country_code": "IR",
      "state_code": "15",
      "state_id": 3928,
      "country_id": 103
    },
    {
      "id": 150902,
      "name": "Sepid Dasht",
      "name_default": "Sepid Dasht",
      "native": "سپید دشت",
      "type": "city",
      "level": null,
      "parent_id": null,
      "population": null,
      "latitude": "33.21903120",
      "longitude": "48.88153190",
      "timezone": "Asia/Tehran",
      "wikiDataId": "Q20643144",
      "country_code": "IR",
      "state_code": "15",
      "state_id": 3928,
      "country_id": 103
    },
    {
      "id": 150896,
      "name": "Escola Abad",
      "name_default": "Shool Abad",
      "native": "شول آباد",
      "type": "city",
      "level": null,
      "parent_id": null,
      "population": null,
      "latitude": "33.18481160",
      "longitude": "49.18555500",
      "timezone": "Asia/Tehran",
      "wikiDataId": null,
      "country_code": "IR",
      "state_code": "15",
      "state_id": 3928,
      "country_id": 103
    },
    {
      "id": 135138,
      "name": "Vasian",
      "name_default": "Vasian",
      "native": "وسی",
      "type": "city",
      "level": null,
      "parent_id": null,
      "population": 1817,
      "latitude": "33.49083000",
      "longitude": "48.04917000",
      "timezone": "Asia/Tehran",
      "wikiDataId": "Q4358737",
      "country_code": "IR",
      "state_code": "15",
      "state_id": 3928,
      "country_id": 103
    },
    {
      "id": 150907,
      "name": "Veysiano",
      "name_default": "Veysian",
      "native": "ویسیان",
      "type": "city",
      "level": null,
      "parent_id": null,
      "population": 2087,
      "latitude": "33.49083300",
      "longitude": "48.04916700",
      "timezone": "Asia/Tehran",
      "wikiDataId": "Q4358737",
      "country_code": "IR",
      "state_code": "15",
      "state_id": 3928,
      "country_id": 103
    },
    {
      "id": 150901,
      "name": "Zagheh",
      "name_default": "Zagheh",
      "native": "زغه",
      "type": "city",
      "level": null,
      "parent_id": null,
      "population": 2776,
      "latitude": "33.49888900",
      "longitude": "48.70861100",
      "timezone": "Asia/Tehran",
      "wikiDataId": "Q2422675",
      "country_code": "IR",
      "state_code": "15",
      "state_id": 3928,
      "country_id": 103
    }
  ]
}
