{
  "locale": "hr",
  "country": {
    "id": 38,
    "code": "CM",
    "iso3": "CMR",
    "numeric_code": "120",
    "name": "Kamerun",
    "name_default": "Cameroon",
    "native": "Cameroon",
    "capital": "Yaounde",
    "phonecode": "237",
    "currency": "XAF",
    "currency_name": "Central African CFA franc",
    "currency_symbol": "FCFA",
    "tld": ".cm",
    "population": 29442327,
    "gdp": 56011,
    "region": "Africa",
    "region_id": 1,
    "subregion": "Middle Africa",
    "subregion_id": 2,
    "nationality": "Cameroonian",
    "timezones": [
      {
        "zoneName": "Africa/Douala",
        "gmtOffset": 3600,
        "gmtOffsetName": "UTC+01:00",
        "abbreviation": "WAT",
        "tzName": "West Africa Time"
      }
    ],
    "latitude": "6.00000000",
    "longitude": "12.00000000",
    "emoji": "🇨🇲",
    "emojiU": "U+1F1E8 U+1F1F2"
  },
  "state": {
    "id": 2656,
    "code": "EN",
    "iso2": "EN",
    "iso3166_2": "CM-EN",
    "fips_code": "12",
    "name": "Daleki sjever",
    "name_default": "Far North",
    "native": "Grand Nord",
    "type": "region",
    "level": "1",
    "parent_id": null,
    "population": null,
    "latitude": "10.63771860",
    "longitude": "14.27381560",
    "timezone": "Africa/Douala",
    "wikiDataId": "Q823976",
    "country_code": "CM"
  },
  "cities": [
    {
      "id": 19157,
      "name": "Bogo",
      "name_default": "Bogo",
      "native": "Bogo",
      "type": "city",
      "level": null,
      "parent_id": null,
      "population": 32830,
      "latitude": "10.73360000",
      "longitude": "14.60928000",
      "timezone": "Africa/Douala",
      "wikiDataId": "Q23676899",
      "country_code": "CM",
      "state_code": "EN",
      "state_id": 2656,
      "country_id": 38
    },
    {
      "id": 19186,
      "name": "Kaélé",
      "name_default": "Kaélé",
      "native": "Kaété",
      "type": "city",
      "level": null,
      "parent_id": null,
      "population": 32853,
      "latitude": "10.10917000",
      "longitude": "14.45083000",
      "timezone": "Africa/Douala",
      "wikiDataId": "Q2443778",
      "country_code": "CM",
      "state_code": "EN",
      "state_id": 2656,
      "country_id": 38
    },
    {
      "id": 19189,
      "name": "Kousséri",
      "name_default": "Kousséri",
      "native": "Kousseri",
      "type": "city",
      "level": null,
      "parent_id": null,
      "population": 139024,
      "latitude": "12.07689000",
      "longitude": "15.03063000",
      "timezone": "Africa/Douala",
      "wikiDataId": "Q697662",
      "country_code": "CM",
      "state_code": "EN",
      "state_id": 2656,
      "country_id": 38
    },
    {
      "id": 19190,
      "name": "Koza",
      "name_default": "Koza",
      "native": "Peau",
      "type": "city",
      "level": null,
      "parent_id": null,
      "population": 3665,
      "latitude": "10.86846000",
      "longitude": "13.88205000",
      "timezone": "Africa/Douala",
      "wikiDataId": "Q23672974",
      "country_code": "CM",
      "state_code": "EN",
      "state_id": 2656,
      "country_id": 38
    },
    {
      "id": 19199,
      "name": "Makari",
      "name_default": "Makary",
      "native": "Makary",
      "type": "city",
      "level": null,
      "parent_id": null,
      "population": 7331,
      "latitude": "12.57535000",
      "longitude": "14.45483000",
      "timezone": "Africa/Douala",
      "wikiDataId": "Q6738809",
      "country_code": "CM",
      "state_code": "EN",
      "state_id": 2656,
      "country_id": 38
    },
    {
      "id": 19202,
      "name": "Maroua",
      "name_default": "Maroua",
      "native": "Maroua",
      "type": "adm1",
      "level": null,
      "parent_id": null,
      "population": 314122,
      "latitude": "10.59095000",
      "longitude": "14.31593000",
      "timezone": "Africa/Douala",
      "wikiDataId": "Q818824",
      "country_code": "CM",
      "state_code": "EN",
      "state_id": 2656,
      "country_id": 38
    },
    {
      "id": 19206,
      "name": "Mayo-Sava",
      "name_default": "Mayo-Sava",
      "native": "May-sava",
      "type": "city",
      "level": null,
      "parent_id": null,
      "population": 348890,
      "latitude": "11.10682000",
      "longitude": "14.20560000",
      "timezone": "Africa/Douala",
      "wikiDataId": "Q613340",
      "country_code": "CM",
      "state_code": "EN",
      "state_id": 2656,
      "country_id": 38
    },
    {
      "id": 19207,
      "name": "Mayo-Tsanaga",
      "name_default": "Mayo-Tsanaga",
      "native": "Mai-tasanaga",
      "type": "city",
      "level": null,
      "parent_id": null,
      "population": null,
      "latitude": "10.58221000",
      "longitude": "13.79351000",
      "timezone": "Africa/Douala",
      "wikiDataId": "Q613340",
      "country_code": "CM",
      "state_code": "EN",
      "state_id": 2656,
      "country_id": 38
    },
    {
      "id": 19220,
      "name": "Mindif",
      "name_default": "Mindif",
      "native": "Mindif",
      "type": "city",
      "level": null,
      "parent_id": null,
      "population": 10538,
      "latitude": "10.39757000",
      "longitude": "14.43626000",
      "timezone": "Africa/Douala",
      "wikiDataId": "Q2445046",
      "country_code": "CM",
      "state_code": "EN",
      "state_id": 2656,
      "country_id": 38
    },
    {
      "id": 19223,
      "name": "Mokolo",
      "name_default": "Mokolo",
      "native": "Vieux",
      "type": "city",
      "level": null,
      "parent_id": null,
      "population": 51999,
      "latitude": "10.74244000",
      "longitude": "13.80227000",
      "timezone": "Africa/Douala",
      "wikiDataId": "Q2708658",
      "country_code": "CM",
      "state_code": "EN",
      "state_id": 2656,
      "country_id": 38
    },
    {
      "id": 19224,
      "name": "Mora",
      "name_default": "Mora",
      "native": "Mora",
      "type": "city",
      "level": null,
      "parent_id": null,
      "population": 61523,
      "latitude": "11.04611000",
      "longitude": "14.14011000",
      "timezone": "Africa/Douala",
      "wikiDataId": "Q2708675",
      "country_code": "CM",
      "state_code": "EN",
      "state_id": 2656,
      "country_id": 38
    },
    {
      "id": 19265,
      "name": "Yagoua",
      "name_default": "Yagoua",
      "native": "Yagoua",
      "type": "city",
      "level": null,
      "parent_id": null,
      "population": 59069,
      "latitude": "10.34107000",
      "longitude": "15.23288000",
      "timezone": "Africa/Douala",
      "wikiDataId": "Q523657",
      "country_code": "CM",
      "state_code": "EN",
      "state_id": 2656,
      "country_id": 38
    }
  ]
}
