{
  "locale": "hr",
  "country": {
    "id": 99,
    "code": "HU",
    "iso3": "HUN",
    "numeric_code": "348",
    "name": "Mađarska",
    "name_default": "Hungary",
    "native": "Magyarország",
    "capital": "Budapest",
    "phonecode": "36",
    "currency": "HUF",
    "currency_name": "Hungarian forint",
    "currency_symbol": "Ft",
    "tld": ".hu",
    "population": 9539502,
    "gdp": 237070,
    "region": "Europe",
    "region_id": 4,
    "subregion": "Eastern Europe",
    "subregion_id": 15,
    "nationality": "Hungarian, Magyar",
    "timezones": [
      {
        "zoneName": "Europe/Budapest",
        "gmtOffset": 3600,
        "gmtOffsetName": "UTC+01:00",
        "abbreviation": "CET",
        "tzName": "Central European Time"
      }
    ],
    "latitude": "47.00000000",
    "longitude": "20.00000000",
    "emoji": "🇭🇺",
    "emojiU": "U+1F1ED U+1F1FA"
  },
  "state": {
    "id": 1058,
    "code": "BZ",
    "iso2": "BZ",
    "iso3166_2": "HU-BZ",
    "fips_code": "04",
    "name": "Boršodsko-abovsko-zemplínska županija",
    "name_default": "Borsod-Abaúj-Zemplén",
    "native": "Borsod-Abaúj-Zemplén",
    "type": "county",
    "level": null,
    "parent_id": null,
    "population": 623024,
    "latitude": "48.23979360",
    "longitude": "21.13534740",
    "timezone": "Europe/Budapest",
    "wikiDataId": "Q188895",
    "country_code": "HU"
  },
  "cities": [
    {
      "id": 55170,
      "name": "Abaújszántó",
      "name_default": "Abaújszántó",
      "native": "Abaújszántó",
      "type": "city",
      "level": null,
      "parent_id": null,
      "population": 2671,
      "latitude": "48.28333000",
      "longitude": "21.20000000",
      "timezone": "Europe/Budapest",
      "wikiDataId": "Q305749",
      "country_code": "HU",
      "state_code": "BZ",
      "state_id": 1058,
      "country_id": 99
    },
    {
      "id": 55186,
      "name": "Alsózsolca",
      "name_default": "Alsózsolca",
      "native": "Alsózsolca",
      "type": "city",
      "level": null,
      "parent_id": null,
      "population": 5459,
      "latitude": "48.06982000",
      "longitude": "20.88046000",
      "timezone": "Europe/Budapest",
      "wikiDataId": "Q432888",
      "country_code": "HU",
      "state_code": "BZ",
      "state_id": 1058,
      "country_id": 99
    },
    {
      "id": 55194,
      "name": "Arló",
      "name_default": "Arló",
      "native": "Arló",
      "type": "city",
      "level": null,
      "parent_id": null,
      "population": 3454,
      "latitude": "48.18333000",
      "longitude": "20.26667000",
      "timezone": "Europe/Budapest",
      "wikiDataId": "Q676021",
      "country_code": "HU",
      "state_code": "BZ",
      "state_id": 1058,
      "country_id": 99
    },
    {
      "id": 55195,
      "name": "Arnót",
      "name_default": "Arnót",
      "native": "Arnót",
      "type": "city",
      "level": null,
      "parent_id": null,
      "population": 2254,
      "latitude": "48.13058000",
      "longitude": "20.85832000",
      "timezone": "Europe/Budapest",
      "wikiDataId": "Q697898",
      "country_code": "HU",
      "state_code": "BZ",
      "state_id": 1058,
      "country_id": 99
    },
    {
      "id": 55196,
      "name": "Aszaló",
      "name_default": "Aszaló",
      "native": "Aszaló",
      "type": "city",
      "level": null,
      "parent_id": null,
      "population": 1834,
      "latitude": "48.21667000",
      "longitude": "20.96667000",
      "timezone": "Europe/Budapest",
      "wikiDataId": "Q668362",
      "country_code": "HU",
      "state_code": "BZ",
      "state_id": 1058,
      "country_id": 99
    },
    {
      "id": 55235,
      "name": "Bekecs",
      "name_default": "Bekecs",
      "native": "Bekek",
      "type": "city",
      "level": null,
      "parent_id": null,
      "population": 2149,
      "latitude": "48.15000000",
      "longitude": "21.18333000",
      "timezone": "Europe/Budapest",
      "wikiDataId": "Q580673",
      "country_code": "HU",
      "state_code": "BZ",
      "state_id": 1058,
      "country_id": 99
    },
    {
      "id": 55311,
      "name": "Bőcs",
      "name_default": "Bőcs",
      "native": "Bőcs",
      "type": "city",
      "level": null,
      "parent_id": null,
      "population": 2569,
      "latitude": "48.05000000",
      "longitude": "20.96667000",
      "timezone": "Europe/Budapest",
      "wikiDataId": "Q223607",
      "country_code": "HU",
      "state_code": "BZ",
      "state_id": 1058,
      "country_id": 99
    },
    {
      "id": 55252,
      "name": "Bogács",
      "name_default": "Bogács",
      "native": "Bogács",
      "type": "city",
      "level": null,
      "parent_id": null,
      "population": 1909,
      "latitude": "47.90000000",
      "longitude": "20.53333000",
      "timezone": "Europe/Budapest",
      "wikiDataId": "Q579531",
      "country_code": "HU",
      "state_code": "BZ",
      "state_id": 1058,
      "country_id": 99
    },
    {
      "id": 55254,
      "name": "Boldva",
      "name_default": "Boldva",
      "native": "Boldva",
      "type": "city",
      "level": null,
      "parent_id": null,
      "population": 2407,
      "latitude": "48.21667000",
      "longitude": "20.80000000",
      "timezone": "Europe/Budapest",
      "wikiDataId": "Q833982",
      "country_code": "HU",
      "state_code": "BZ",
      "state_id": 1058,
      "country_id": 99
    },
    {
      "id": 55258,
      "name": "Borsodnádasd",
      "name_default": "Borsodnádasd",
      "native": "Borsodnádasd",
      "type": "city",
      "level": null,
      "parent_id": null,
      "population": 3546,
      "latitude": "48.11667000",
      "longitude": "20.25000000",
      "timezone": "Europe/Budapest",
      "wikiDataId": "Q246691",
      "country_code": "HU",
      "state_code": "BZ",
      "state_id": 1058,
      "country_id": 99
    },
    {
      "id": 55321,
      "name": "Cigánd",
      "name_default": "Cigánd",
      "native": "Cigánd",
      "type": "adm2",
      "level": null,
      "parent_id": null,
      "population": 2780,
      "latitude": "48.25561000",
      "longitude": "21.89195000",
      "timezone": "Europe/Budapest",
      "wikiDataId": "Q846652",
      "country_code": "HU",
      "state_code": "BZ",
      "state_id": 1058,
      "country_id": 99
    },
    {
      "id": 55322,
      "name": "Cigándi Járás",
      "name_default": "Cigándi Járás",
      "native": "Cigándi Járás",
      "type": "city",
      "level": null,
      "parent_id": null,
      "population": null,
      "latitude": "48.30338000",
      "longitude": "21.87651000",
      "timezone": "Europe/Budapest",
      "wikiDataId": "Q642533",
      "country_code": "HU",
      "state_code": "BZ",
      "state_id": 1058,
      "country_id": 99
    },
    {
      "id": 55396,
      "name": "Edelény",
      "name_default": "Edelény",
      "native": "Edelény",
      "type": "adm2",
      "level": null,
      "parent_id": null,
      "population": 9032,
      "latitude": "48.30000000",
      "longitude": "20.73333000",
      "timezone": "Europe/Budapest",
      "wikiDataId": "Q842925",
      "country_code": "HU",
      "state_code": "BZ",
      "state_id": 1058,
      "country_id": 99
    },
    {
      "id": 55397,
      "name": "Edelényi Járás",
      "name_default": "Edelényi Járás",
      "native": "Edelényi Járás",
      "type": "adm1",
      "level": null,
      "parent_id": null,
      "population": null,
      "latitude": "48.40864000",
      "longitude": "20.77506000",
      "timezone": "Europe/Budapest",
      "wikiDataId": "Q987635",
      "country_code": "HU",
      "state_code": "BZ",
      "state_id": 1058,
      "country_id": 99
    },
    {
      "id": 55404,
      "name": "Emőd",
      "name_default": "Emőd",
      "native": "Emőd",
      "type": "city",
      "level": null,
      "parent_id": null,
      "population": 4712,
      "latitude": "47.93333000",
      "longitude": "20.81667000",
      "timezone": "Europe/Budapest",
      "wikiDataId": "Q854923",
      "country_code": "HU",
      "state_code": "BZ",
      "state_id": 1058,
      "country_id": 99
    },
    {
      "id": 55405,
      "name": "Enc-ovi",
      "name_default": "Encs",
      "native": "Encs",
      "type": "adm2",
      "level": null,
      "parent_id": null,
      "population": 6032,
      "latitude": "48.33333000",
      "longitude": "21.13333000",
      "timezone": "Europe/Budapest",
      "wikiDataId": "Q855060",
      "country_code": "HU",
      "state_code": "BZ",
      "state_id": 1058,
      "country_id": 99
    },
    {
      "id": 55407,
      "name": "Járás iz Encsi",
      "name_default": "Encsi Járás",
      "native": "Encsi Járás",
      "type": "city",
      "level": null,
      "parent_id": null,
      "population": null,
      "latitude": "48.39948000",
      "longitude": "21.08169000",
      "timezone": "Europe/Budapest",
      "wikiDataId": "Q921237",
      "country_code": "HU",
      "state_code": "BZ",
      "state_id": 1058,
      "country_id": 99
    },
    {
      "id": 55416,
      "name": "Farkasljuk",
      "name_default": "Farkaslyuk",
      "native": "Farkaslyuk",
      "type": "city",
      "level": null,
      "parent_id": null,
      "population": 1890,
      "latitude": "48.18333000",
      "longitude": "20.31667000",
      "timezone": "Europe/Budapest",
      "wikiDataId": "Q610280",
      "country_code": "HU",
      "state_code": "BZ",
      "state_id": 1058,
      "country_id": 99
    },
    {
      "id": 55426,
      "name": "Felsőzsolca",
      "name_default": "Felsőzsolca",
      "native": "Felsőzsolca",
      "type": "city",
      "level": null,
      "parent_id": null,
      "population": 6375,
      "latitude": "48.10000000",
      "longitude": "20.86667000",
      "timezone": "Europe/Budapest",
      "wikiDataId": "Q368429",
      "country_code": "HU",
      "state_code": "BZ",
      "state_id": 1058,
      "country_id": 99
    },
    {
      "id": 55448,
      "name": "Gesztély",
      "name_default": "Gesztely",
      "native": "Gesztely",
      "type": "city",
      "level": null,
      "parent_id": null,
      "population": 2628,
      "latitude": "48.10000000",
      "longitude": "20.96667000",
      "timezone": "Europe/Budapest",
      "wikiDataId": "Q1007962",
      "country_code": "HU",
      "state_code": "BZ",
      "state_id": 1058,
      "country_id": 99
    },
    {
      "id": 55477,
      "name": "Gönc",
      "name_default": "Gönc",
      "native": "Gönc",
      "type": "adm2",
      "level": null,
      "parent_id": null,
      "population": 2217,
      "latitude": "48.46667000",
      "longitude": "21.28333000",
      "timezone": "Europe/Budapest",
      "wikiDataId": "Q842967",
      "country_code": "HU",
      "state_code": "BZ",
      "state_id": 1058,
      "country_id": 99
    },
    {
      "id": 55478,
      "name": "Gönci Járás",
      "name_default": "Gönci Járás",
      "native": "Gönci Járás",
      "type": "city",
      "level": null,
      "parent_id": null,
      "population": null,
      "latitude": "48.39948000",
      "longitude": "21.28307000",
      "timezone": "Europe/Budapest",
      "wikiDataId": "Q15037608",
      "country_code": "HU",
      "state_code": "BZ",
      "state_id": 1058,
      "country_id": 99
    },
    {
      "id": 55494,
      "name": "Halmaj",
      "name_default": "Halmaj",
      "native": "Halmaj",
      "type": "city",
      "level": null,
      "parent_id": null,
      "population": 1712,
      "latitude": "48.25000000",
      "longitude": "21.00000000",
      "timezone": "Europe/Budapest",
      "wikiDataId": "Q1006959",
      "country_code": "HU",
      "state_code": "BZ",
      "state_id": 1058,
      "country_id": 99
    },
    {
      "id": 55498,
      "name": "Harsány",
      "name_default": "Harsány",
      "native": "Harsány",
      "type": "city",
      "level": null,
      "parent_id": null,
      "population": 1877,
      "latitude": "47.96667000",
      "longitude": "20.75000000",
      "timezone": "Europe/Budapest",
      "wikiDataId": "Q1006728",
      "country_code": "HU",
      "state_code": "BZ",
      "state_id": 1058,
      "country_id": 99
    },
    {
      "id": 55503,
      "name": "Hejőbaba",
      "name_default": "Hejőbába",
      "native": "Hejőbába",
      "type": "city",
      "level": null,
      "parent_id": null,
      "population": 1899,
      "latitude": "47.90000000",
      "longitude": "20.95000000",
      "timezone": "Europe/Budapest",
      "wikiDataId": "Q1006944",
      "country_code": "HU",
      "state_code": "BZ",
      "state_id": 1058,
      "country_id": 99
    },
    {
      "id": 55508,
      "name": "Hernádnemeti",
      "name_default": "Hernádnémeti",
      "native": "Hernádnémeti",
      "type": "city",
      "level": null,
      "parent_id": null,
      "population": 3464,
      "latitude": "48.06667000",
      "longitude": "20.98333000",
      "timezone": "Europe/Budapest",
      "wikiDataId": "Q259390",
      "country_code": "HU",
      "state_code": "BZ",
      "state_id": 1058,
      "country_id": 99
    },
    {
      "id": 55532,
      "name": "Izsófalva",
      "name_default": "Izsófalva",
      "native": "Izsófalva",
      "type": "city",
      "level": null,
      "parent_id": null,
      "population": 1682,
      "latitude": "48.30000000",
      "longitude": "20.66667000",
      "timezone": "Europe/Budapest",
      "wikiDataId": "Q124807",
      "country_code": "HU",
      "state_code": "BZ",
      "state_id": 1058,
      "country_id": 99
    },
    {
      "id": 55540,
      "name": "Járdánháza",
      "name_default": "Járdánháza",
      "native": "Járdánháza",
      "type": "city",
      "level": null,
      "parent_id": null,
      "population": 1660,
      "latitude": "48.15000000",
      "longitude": "20.25000000",
      "timezone": "Europe/Budapest",
      "wikiDataId": "Q1006968",
      "country_code": "HU",
      "state_code": "BZ",
      "state_id": 1058,
      "country_id": 99
    },
    {
      "id": 55569,
      "name": "Karcsa",
      "name_default": "Karcsa",
      "native": "Karcsa",
      "type": "city",
      "level": null,
      "parent_id": null,
      "population": 1984,
      "latitude": "48.31130000",
      "longitude": "21.80537000",
      "timezone": "Europe/Budapest",
      "wikiDataId": "Q1008016",
      "country_code": "HU",
      "state_code": "BZ",
      "state_id": 1058,
      "country_id": 99
    },
    {
      "id": 55575,
      "name": "Kazincbarcika",
      "name_default": "Kazincbarcika",
      "native": "Kazincbarcika",
      "type": "adm2",
      "level": null,
      "parent_id": null,
      "population": 32396,
      "latitude": "48.25000000",
      "longitude": "20.63333000",
      "timezone": "Europe/Budapest",
      "wikiDataId": "Q214942",
      "country_code": "HU",
      "state_code": "BZ",
      "state_id": 1058,
      "country_id": 99
    },
    {
      "id": 55576,
      "name": "Járás iz Kazincbarcikai",
      "name_default": "Kazincbarcikai Járás",
      "native": "Kazincbarcikai Járás",
      "type": "city",
      "level": null,
      "parent_id": null,
      "population": null,
      "latitude": "48.26371000",
      "longitude": "20.57978000",
      "timezone": "Europe/Budapest",
      "wikiDataId": "Q1043071",
      "country_code": "HU",
      "state_code": "BZ",
      "state_id": 1058,
      "country_id": 99
    },
    {
      "id": 55718,
      "name": "Lud",
      "name_default": "Mád",
      "native": "Mád",
      "type": "city",
      "level": null,
      "parent_id": null,
      "population": 2589,
      "latitude": "48.19442000",
      "longitude": "21.28208000",
      "timezone": "Europe/Budapest",
      "wikiDataId": "Q1018357",
      "country_code": "HU",
      "state_code": "BZ",
      "state_id": 1058,
      "country_id": 99
    },
    {
      "id": 55720,
      "name": "Mályi",
      "name_default": "Mályi",
      "native": "Mályi",
      "type": "city",
      "level": null,
      "parent_id": null,
      "population": 4371,
      "latitude": "48.01667000",
      "longitude": "20.83333000",
      "timezone": "Europe/Budapest",
      "wikiDataId": "Q250239",
      "country_code": "HU",
      "state_code": "BZ",
      "state_id": 1058,
      "country_id": 99
    },
    {
      "id": 55686,
      "name": "Megyaszó",
      "name_default": "Megyaszó",
      "native": "Megyaszó",
      "type": "city",
      "level": null,
      "parent_id": null,
      "population": 2498,
      "latitude": "48.18333000",
      "longitude": "21.05000000",
      "timezone": "Europe/Budapest",
      "wikiDataId": "Q1018346",
      "country_code": "HU",
      "state_code": "BZ",
      "state_id": 1058,
      "country_id": 99
    },
    {
      "id": 55689,
      "name": "Mezőcsát",
      "name_default": "Mezőcsát",
      "native": "Mezőcsát",
      "type": "adm2",
      "level": null,
      "parent_id": null,
      "population": 5578,
      "latitude": "47.81667000",
      "longitude": "20.91667000",
      "timezone": "Europe/Budapest",
      "wikiDataId": "Q304803",
      "country_code": "HU",
      "state_code": "BZ",
      "state_id": 1058,
      "country_id": 99
    },
    {
      "id": 55690,
      "name": "Mezőcsáti Járás",
      "name_default": "Mezőcsáti Járás",
      "native": "Mezőcsáti Járás",
      "type": "adm2",
      "level": null,
      "parent_id": null,
      "population": null,
      "latitude": "47.79841000",
      "longitude": "20.91693000",
      "timezone": "Europe/Budapest",
      "wikiDataId": "Q14630100",
      "country_code": "HU",
      "state_code": "BZ",
      "state_id": 1058,
      "country_id": 99
    },
    {
      "id": 55693,
      "name": "Mezőkeresztes",
      "name_default": "Mezőkeresztes",
      "native": "Mezőkeresztes",
      "type": "city",
      "level": null,
      "parent_id": null,
      "population": 3459,
      "latitude": "47.83333000",
      "longitude": "20.70000000",
      "timezone": "Europe/Budapest",
      "wikiDataId": "Q966970",
      "country_code": "HU",
      "state_code": "BZ",
      "state_id": 1058,
      "country_id": 99
    },
    {
      "id": 55696,
      "name": "Mezőkövesd",
      "name_default": "Mezőkövesd",
      "native": "Mezőkövesd",
      "type": "adm2",
      "level": null,
      "parent_id": null,
      "population": 15413,
      "latitude": "47.81667000",
      "longitude": "20.58333000",
      "timezone": "Europe/Budapest",
      "wikiDataId": "Q933638",
      "country_code": "HU",
      "state_code": "BZ",
      "state_id": 1058,
      "country_id": 99
    },
    {
      "id": 55697,
      "name": "Mezőkövesdi Járás",
      "name_default": "Mezőkövesdi Járás",
      "native": "Mezőkövesdi Járás",
      "type": "city",
      "level": null,
      "parent_id": null,
      "population": null,
      "latitude": "47.84876000",
      "longitude": "20.63623000",
      "timezone": "Europe/Budapest",
      "wikiDataId": "Q14630116",
      "country_code": "HU",
      "state_code": "BZ",
      "state_id": 1058,
      "country_id": 99
    },
    {
      "id": 55701,
      "name": "Mezőzombor",
      "name_default": "Mezőzombor",
      "native": "Mezőzombor",
      "type": "city",
      "level": null,
      "parent_id": null,
      "population": 2202,
      "latitude": "48.15000000",
      "longitude": "21.26667000",
      "timezone": "Europe/Budapest",
      "wikiDataId": "Q1017840",
      "country_code": "HU",
      "state_code": "BZ",
      "state_id": 1058,
      "country_id": 99
    },
    {
      "id": 55705,
      "name": "Miškolc",
      "name_default": "Miskolc",
      "native": "Miskolc",
      "type": "adm1",
      "level": null,
      "parent_id": null,
      "population": 227095,
      "latitude": "48.10000000",
      "longitude": "20.78333000",
      "timezone": "Europe/Budapest",
      "wikiDataId": "Q102397",
      "country_code": "HU",
      "state_code": "BZ",
      "state_id": 1058,
      "country_id": 99
    },
    {
      "id": 55706,
      "name": "Miškolci Járás",
      "name_default": "Miskolci Járás",
      "native": "Miskolci Járás",
      "type": "city",
      "level": null,
      "parent_id": null,
      "population": null,
      "latitude": "48.08675000",
      "longitude": "20.77353000",
      "timezone": "Europe/Budapest",
      "wikiDataId": "Q14630137",
      "country_code": "HU",
      "state_code": "BZ",
      "state_id": 1058,
      "country_id": 99
    },
    {
      "id": 55710,
      "name": "Monok",
      "name_default": "Monok",
      "native": "Monok",
      "type": "city",
      "level": null,
      "parent_id": null,
      "population": 1430,
      "latitude": "48.21102000",
      "longitude": "21.15052000",
      "timezone": "Europe/Budapest",
      "wikiDataId": "Q1019082",
      "country_code": "HU",
      "state_code": "BZ",
      "state_id": 1058,
      "country_id": 99
    },
    {
      "id": 55737,
      "name": "Múcsony",
      "name_default": "Múcsony",
      "native": "Múcsony",
      "type": "city",
      "level": null,
      "parent_id": null,
      "population": 3486,
      "latitude": "48.26667000",
      "longitude": "20.68333000",
      "timezone": "Europe/Budapest",
      "wikiDataId": "Q1089706",
      "country_code": "HU",
      "state_code": "BZ",
      "state_id": 1058,
      "country_id": 99
    },
    {
      "id": 55769,
      "name": "Nyékládháza",
      "name_default": "Nyékládháza",
      "native": "Nyékládháza",
      "type": "city",
      "level": null,
      "parent_id": null,
      "population": 5009,
      "latitude": "47.98333000",
      "longitude": "20.83333000",
      "timezone": "Europe/Budapest",
      "wikiDataId": "Q911567",
      "country_code": "HU",
      "state_code": "BZ",
      "state_id": 1058,
      "country_id": 99
    },
    {
      "id": 55797,
      "name": "Olászliszka",
      "name_default": "Olaszliszka",
      "native": "Olaszliszka",
      "type": "city",
      "level": null,
      "parent_id": null,
      "population": 1496,
      "latitude": "48.25000000",
      "longitude": "21.43333000",
      "timezone": "Europe/Budapest",
      "wikiDataId": "Q1017864",
      "country_code": "HU",
      "state_code": "BZ",
      "state_id": 1058,
      "country_id": 99
    },
    {
      "id": 55798,
      "name": "Onga",
      "name_default": "Onga",
      "native": "Mint",
      "type": "city",
      "level": null,
      "parent_id": null,
      "population": 4689,
      "latitude": "48.11667000",
      "longitude": "20.91667000",
      "timezone": "Europe/Budapest",
      "wikiDataId": "Q1184433",
      "country_code": "HU",
      "state_code": "BZ",
      "state_id": 1058,
      "country_id": 99
    },
    {
      "id": 56151,
      "name": "Onod",
      "name_default": "Ónod",
      "native": "Theod -tól",
      "type": "city",
      "level": null,
      "parent_id": null,
      "population": 2222,
      "latitude": "48.00000000",
      "longitude": "20.91667000",
      "timezone": "Europe/Budapest",
      "wikiDataId": "Q293081",
      "country_code": "HU",
      "state_code": "BZ",
      "state_id": 1058,
      "country_id": 99
    },
    {
      "id": 56154,
      "name": "Ózd",
      "name_default": "Ózd",
      "native": "Ózd",
      "type": "adm2",
      "level": null,
      "parent_id": null,
      "population": 38476,
      "latitude": "48.21667000",
      "longitude": "20.30000000",
      "timezone": "Europe/Budapest",
      "wikiDataId": "Q293558",
      "country_code": "HU",
      "state_code": "BZ",
      "state_id": 1058,
      "country_id": 99
    },
    {
      "id": 56155,
      "name": "Ózdi Járás",
      "name_default": "Ózdi Járás",
      "native": "Ózdi Járás",
      "type": "city",
      "level": null,
      "parent_id": null,
      "population": null,
      "latitude": "48.18133000",
      "longitude": "20.24874000",
      "timezone": "Europe/Budapest",
      "wikiDataId": "Q265020",
      "country_code": "HU",
      "state_code": "BZ",
      "state_id": 1058,
      "country_id": 99
    },
    {
      "id": 55832,
      "name": "Prügy",
      "name_default": "Prügy",
      "native": "Prüy",
      "type": "city",
      "level": null,
      "parent_id": null,
      "population": 2384,
      "latitude": "48.08333000",
      "longitude": "21.25000000",
      "timezone": "Europe/Budapest",
      "wikiDataId": "Q368355",
      "country_code": "HU",
      "state_code": "BZ",
      "state_id": 1058,
      "country_id": 99
    },
    {
      "id": 55837,
      "name": "Putnok",
      "name_default": "Putnok",
      "native": "Putnok",
      "type": "adm2",
      "level": null,
      "parent_id": null,
      "population": 6213,
      "latitude": "48.30000000",
      "longitude": "20.43333000",
      "timezone": "Europe/Budapest",
      "wikiDataId": "Q911558",
      "country_code": "HU",
      "state_code": "BZ",
      "state_id": 1058,
      "country_id": 99
    },
    {
      "id": 55838,
      "name": "Putnoki Járás",
      "name_default": "Putnoki Járás",
      "native": "Putnoki Járás",
      "type": "city",
      "level": null,
      "parent_id": null,
      "population": null,
      "latitude": "48.33694000",
      "longitude": "20.46384000",
      "timezone": "Europe/Budapest",
      "wikiDataId": "Q14371286",
      "country_code": "HU",
      "state_code": "BZ",
      "state_id": 1058,
      "country_id": 99
    },
    {
      "id": 55864,
      "name": "Ricse",
      "name_default": "Ricse",
      "native": "Ricse",
      "type": "city",
      "level": null,
      "parent_id": null,
      "population": 1604,
      "latitude": "48.32565000",
      "longitude": "21.97069000",
      "timezone": "Europe/Budapest",
      "wikiDataId": "Q586702",
      "country_code": "HU",
      "state_code": "BZ",
      "state_id": 1058,
      "country_id": 99
    },
    {
      "id": 55867,
      "name": "Rudabánya",
      "name_default": "Rudabánya",
      "native": "Rudabánya",
      "type": "city",
      "level": null,
      "parent_id": null,
      "population": 2941,
      "latitude": "48.38333000",
      "longitude": "20.63333000",
      "timezone": "Europe/Budapest",
      "wikiDataId": "Q1008635",
      "country_code": "HU",
      "state_code": "BZ",
      "state_id": 1058,
      "country_id": 99
    },
    {
      "id": 55882,
      "name": "Sajóbábony",
      "name_default": "Sajóbábony",
      "native": "Sajóbábony",
      "type": "city",
      "level": null,
      "parent_id": null,
      "population": 2509,
      "latitude": "48.16667000",
      "longitude": "20.73333000",
      "timezone": "Europe/Budapest",
      "wikiDataId": "Q1008708",
      "country_code": "HU",
      "state_code": "BZ",
      "state_id": 1058,
      "country_id": 99
    },
    {
      "id": 55883,
      "name": "Sajókaza",
      "name_default": "Sajókaza",
      "native": "Sajókaza",
      "type": "city",
      "level": null,
      "parent_id": null,
      "population": 2955,
      "latitude": "48.28333000",
      "longitude": "20.58333000",
      "timezone": "Europe/Budapest",
      "wikiDataId": "Q1016519",
      "country_code": "HU",
      "state_code": "BZ",
      "state_id": 1058,
      "country_id": 99
    },
    {
      "id": 55884,
      "name": "Sajólád",
      "name_default": "Sajólád",
      "native": "Sajólád",
      "type": "city",
      "level": null,
      "parent_id": null,
      "population": 2850,
      "latitude": "48.05000000",
      "longitude": "20.90000000",
      "timezone": "Europe/Budapest",
      "wikiDataId": "Q282953",
      "country_code": "HU",
      "state_code": "BZ",
      "state_id": 1058,
      "country_id": 99
    },
    {
      "id": 55888,
      "name": "Sajóörös",
      "name_default": "Sajóörös",
      "native": "Sajóörös",
      "type": "city",
      "level": null,
      "parent_id": null,
      "population": 1180,
      "latitude": "47.95000000",
      "longitude": "21.03333000",
      "timezone": "Europe/Budapest",
      "wikiDataId": "Q970031",
      "country_code": "HU",
      "state_code": "BZ",
      "state_id": 1058,
      "country_id": 99
    },
    {
      "id": 55885,
      "name": "Sajószentpéter",
      "name_default": "Sajószentpéter",
      "native": "Sajószentpéter",
      "type": "city",
      "level": null,
      "parent_id": null,
      "population": 11185,
      "latitude": "48.21667000",
      "longitude": "20.71667000",
      "timezone": "Europe/Budapest",
      "wikiDataId": "Q855086",
      "country_code": "HU",
      "state_code": "BZ",
      "state_id": 1058,
      "country_id": 99
    },
    {
      "id": 55886,
      "name": "Sajószöged",
      "name_default": "Sajószöged",
      "native": "Sajószöged",
      "type": "city",
      "level": null,
      "parent_id": null,
      "population": 2349,
      "latitude": "47.95000000",
      "longitude": "21.00000000",
      "timezone": "Europe/Budapest",
      "wikiDataId": "Q263570",
      "country_code": "HU",
      "state_code": "BZ",
      "state_id": 1058,
      "country_id": 99
    },
    {
      "id": 55887,
      "name": "Sajóvámos",
      "name_default": "Sajóvámos",
      "native": "Sajóvámos",
      "type": "city",
      "level": null,
      "parent_id": null,
      "population": 1996,
      "latitude": "48.18171000",
      "longitude": "20.83149000",
      "timezone": "Europe/Budapest",
      "wikiDataId": "Q689099",
      "country_code": "HU",
      "state_code": "BZ",
      "state_id": 1058,
      "country_id": 99
    },
    {
      "id": 55979,
      "name": "Sály",
      "name_default": "Sály",
      "native": "Terem",
      "type": "city",
      "level": null,
      "parent_id": null,
      "population": 2174,
      "latitude": "47.95000000",
      "longitude": "20.66667000",
      "timezone": "Europe/Budapest",
      "wikiDataId": "Q607253",
      "country_code": "HU",
      "state_code": "BZ",
      "state_id": 1058,
      "country_id": 99
    },
    {
      "id": 55986,
      "name": "Sárospatak",
      "name_default": "Sárospatak",
      "native": "Sárospatak",
      "type": "adm2",
      "level": null,
      "parent_id": null,
      "population": 10423,
      "latitude": "48.32450000",
      "longitude": "21.57383000",
      "timezone": "Europe/Budapest",
      "wikiDataId": "Q668318",
      "country_code": "HU",
      "state_code": "BZ",
      "state_id": 1058,
      "country_id": 99
    },
    {
      "id": 55987,
      "name": "Sárospataki Járás",
      "name_default": "Sárospataki Járás",
      "native": "Sárospataki Járás",
      "type": "city",
      "level": null,
      "parent_id": null,
      "population": null,
      "latitude": "48.29575000",
      "longitude": "21.52716000",
      "timezone": "Europe/Budapest",
      "wikiDataId": "Q853145",
      "country_code": "HU",
      "state_code": "BZ",
      "state_id": 1058,
      "country_id": 99
    },
    {
      "id": 55994,
      "name": "Sátoraljaújhely",
      "name_default": "Sátoraljaújhely",
      "native": "Sátoraljaújhely",
      "type": "adm2",
      "level": null,
      "parent_id": null,
      "population": 18052,
      "latitude": "48.39492000",
      "longitude": "21.65871000",
      "timezone": "Europe/Budapest",
      "wikiDataId": "Q116417",
      "country_code": "HU",
      "state_code": "BZ",
      "state_id": 1058,
      "country_id": 99
    },
    {
      "id": 55995,
      "name": "Sátoraljaújhelyi Járás",
      "name_default": "Sátoraljaújhelyi Járás",
      "native": "Sátoraljaújhelyi Járás",
      "type": "city",
      "level": null,
      "parent_id": null,
      "population": null,
      "latitude": "48.45898000",
      "longitude": "21.54394000",
      "timezone": "Europe/Budapest",
      "wikiDataId": "Q630821",
      "country_code": "HU",
      "state_code": "BZ",
      "state_id": 1058,
      "country_id": 99
    },
    {
      "id": 55933,
      "name": "Szendrő",
      "name_default": "Szendrő",
      "native": "Szendrő",
      "type": "city",
      "level": null,
      "parent_id": null,
      "population": 3921,
      "latitude": "48.40000000",
      "longitude": "20.73333000",
      "timezone": "Europe/Budapest",
      "wikiDataId": "Q590583",
      "country_code": "HU",
      "state_code": "BZ",
      "state_id": 1058,
      "country_id": 99
    },
    {
      "id": 55941,
      "name": "Szentistván",
      "name_default": "Szentistván",
      "native": "Szentistván",
      "type": "city",
      "level": null,
      "parent_id": null,
      "population": 2355,
      "latitude": "47.76667000",
      "longitude": "20.66667000",
      "timezone": "Europe/Budapest",
      "wikiDataId": "Q248474",
      "country_code": "HU",
      "state_code": "BZ",
      "state_id": 1058,
      "country_id": 99
    },
    {
      "id": 55948,
      "name": "Szerencs",
      "name_default": "Szerencs",
      "native": "Szerencs",
      "type": "adm2",
      "level": null,
      "parent_id": null,
      "population": 8300,
      "latitude": "48.15993000",
      "longitude": "21.20970000",
      "timezone": "Europe/Budapest",
      "wikiDataId": "Q854996",
      "country_code": "HU",
      "state_code": "BZ",
      "state_id": 1058,
      "country_id": 99
    },
    {
      "id": 55949,
      "name": "Szerencsij Járás",
      "name_default": "Szerencsi Járás",
      "native": "Szerencsi Járás",
      "type": "city",
      "level": null,
      "parent_id": null,
      "population": null,
      "latitude": "48.14929000",
      "longitude": "21.16865000",
      "timezone": "Europe/Budapest",
      "wikiDataId": "Q633324",
      "country_code": "HU",
      "state_code": "BZ",
      "state_id": 1058,
      "country_id": 99
    },
    {
      "id": 55958,
      "name": "Szikszó",
      "name_default": "Szikszó",
      "native": "Szikszó",
      "type": "adm2",
      "level": null,
      "parent_id": null,
      "population": 5415,
      "latitude": "48.20000000",
      "longitude": "20.93333000",
      "timezone": "Europe/Budapest",
      "wikiDataId": "Q854913",
      "country_code": "HU",
      "state_code": "BZ",
      "state_id": 1058,
      "country_id": 99
    },
    {
      "id": 55959,
      "name": "Járás Szikszói",
      "name_default": "Szikszói Járás",
      "native": "Szikszói Járás",
      "type": "city",
      "level": null,
      "parent_id": null,
      "population": null,
      "latitude": "48.30032000",
      "longitude": "20.95507000",
      "timezone": "Europe/Budapest",
      "wikiDataId": "Q854336",
      "country_code": "HU",
      "state_code": "BZ",
      "state_id": 1058,
      "country_id": 99
    },
    {
      "id": 55961,
      "name": "Szirmabesenyő",
      "name_default": "Szirmabesenyő",
      "native": "Szirmabesenyő",
      "type": "city",
      "level": null,
      "parent_id": null,
      "population": 4331,
      "latitude": "48.15000000",
      "longitude": "20.80000000",
      "timezone": "Europe/Budapest",
      "wikiDataId": "Q248566",
      "country_code": "HU",
      "state_code": "BZ",
      "state_id": 1058,
      "country_id": 99
    },
    {
      "id": 56005,
      "name": "Taktaharkány",
      "name_default": "Taktaharkány",
      "native": "Taktaharkány",
      "type": "city",
      "level": null,
      "parent_id": null,
      "population": 3447,
      "latitude": "48.08333000",
      "longitude": "21.13333000",
      "timezone": "Europe/Budapest",
      "wikiDataId": "Q1089620",
      "country_code": "HU",
      "state_code": "BZ",
      "state_id": 1058,
      "country_id": 99
    },
    {
      "id": 56006,
      "name": "Taktaszada",
      "name_default": "Taktaszada",
      "native": "Tapintat",
      "type": "city",
      "level": null,
      "parent_id": null,
      "population": 1739,
      "latitude": "48.11667000",
      "longitude": "21.18333000",
      "timezone": "Europe/Budapest",
      "wikiDataId": "Q123719",
      "country_code": "HU",
      "state_code": "BZ",
      "state_id": 1058,
      "country_id": 99
    },
    {
      "id": 56062,
      "name": "Tálya",
      "name_default": "Tállya",
      "native": "Tállya",
      "type": "city",
      "level": null,
      "parent_id": null,
      "population": 2169,
      "latitude": "48.23333000",
      "longitude": "21.23333000",
      "timezone": "Europe/Budapest",
      "wikiDataId": "Q304304",
      "country_code": "HU",
      "state_code": "BZ",
      "state_id": 1058,
      "country_id": 99
    },
    {
      "id": 56012,
      "name": "Tarcal",
      "name_default": "Tarcal",
      "native": "Tarkális",
      "type": "city",
      "level": null,
      "parent_id": null,
      "population": 3283,
      "latitude": "48.13333000",
      "longitude": "21.35000000",
      "timezone": "Europe/Budapest",
      "wikiDataId": "Q923050",
      "country_code": "HU",
      "state_code": "BZ",
      "state_id": 1058,
      "country_id": 99
    },
    {
      "id": 56033,
      "name": "Tiszakarád",
      "name_default": "Tiszakarád",
      "native": "Tiszakarád",
      "type": "city",
      "level": null,
      "parent_id": null,
      "population": 2128,
      "latitude": "48.20000000",
      "longitude": "21.71667000",
      "timezone": "Europe/Budapest",
      "wikiDataId": "Q572103",
      "country_code": "HU",
      "state_code": "BZ",
      "state_id": 1058,
      "country_id": 99
    },
    {
      "id": 56034,
      "name": "Tiszákeszi",
      "name_default": "Tiszakeszi",
      "native": "Tiszakeszi",
      "type": "city",
      "level": null,
      "parent_id": null,
      "population": 2433,
      "latitude": "47.78333000",
      "longitude": "21.00000000",
      "timezone": "Europe/Budapest",
      "wikiDataId": "Q368964",
      "country_code": "HU",
      "state_code": "BZ",
      "state_id": 1058,
      "country_id": 99
    },
    {
      "id": 56038,
      "name": "Tiszalúc",
      "name_default": "Tiszalúc",
      "native": "Tiszalúc",
      "type": "city",
      "level": null,
      "parent_id": null,
      "population": 4676,
      "latitude": "48.03774000",
      "longitude": "21.07261000",
      "timezone": "Europe/Budapest",
      "wikiDataId": "Q239610",
      "country_code": "HU",
      "state_code": "BZ",
      "state_id": 1058,
      "country_id": 99
    },
    {
      "id": 56048,
      "name": "Tiszaújváros",
      "name_default": "Tiszaújváros",
      "native": "Tiszaújváros",
      "type": "adm2",
      "level": null,
      "parent_id": null,
      "population": 14060,
      "latitude": "47.93333000",
      "longitude": "21.08333000",
      "timezone": "Europe/Budapest",
      "wikiDataId": "Q375097",
      "country_code": "HU",
      "state_code": "BZ",
      "state_id": 1058,
      "country_id": 99
    },
    {
      "id": 56049,
      "name": "Járás u Tiszaújvárosi",
      "name_default": "Tiszaújvárosi Járás",
      "native": "Tiszaújvárosi Járás",
      "type": "city",
      "level": null,
      "parent_id": null,
      "population": null,
      "latitude": "47.92656000",
      "longitude": "20.99321000",
      "timezone": "Europe/Budapest",
      "wikiDataId": "Q853879",
      "country_code": "HU",
      "state_code": "BZ",
      "state_id": 1058,
      "country_id": 99
    },
    {
      "id": 56050,
      "name": "Tokaj",
      "name_default": "Tokaj",
      "native": "Tokaj",
      "type": "adm2",
      "level": null,
      "parent_id": null,
      "population": 3649,
      "latitude": "48.11667000",
      "longitude": "21.41667000",
      "timezone": "Europe/Budapest",
      "wikiDataId": "Q582209",
      "country_code": "HU",
      "state_code": "BZ",
      "state_id": 1058,
      "country_id": 99
    },
    {
      "id": 56051,
      "name": "Tokajski Járás",
      "name_default": "Tokaji Járás",
      "native": "Tokaji Járás",
      "type": "city",
      "level": null,
      "parent_id": null,
      "population": null,
      "latitude": "48.14014000",
      "longitude": "21.37002000",
      "timezone": "Europe/Budapest",
      "wikiDataId": "Q547193",
      "country_code": "HU",
      "state_code": "BZ",
      "state_id": 1058,
      "country_id": 99
    },
    {
      "id": 56052,
      "name": "Tolcsvá",
      "name_default": "Tolcsva",
      "native": "Tolcsva",
      "type": "city",
      "level": null,
      "parent_id": null,
      "population": 1860,
      "latitude": "48.28333000",
      "longitude": "21.45000000",
      "timezone": "Europe/Budapest",
      "wikiDataId": "Q1008032",
      "country_code": "HU",
      "state_code": "BZ",
      "state_id": 1058,
      "country_id": 99
    }
  ]
}
