{
  "locale": "br",
  "country": {
    "id": 204,
    "code": "ZA",
    "iso3": "ZAF",
    "numeric_code": "710",
    "name": "Suafrika",
    "name_default": "South Africa",
    "native": "South Africa",
    "capital": "Pretoria",
    "phonecode": "27",
    "currency": "ZAR",
    "currency_name": "South African rand",
    "currency_symbol": "R",
    "tld": ".za",
    "population": 63100945,
    "gdp": 410338,
    "region": "Africa",
    "region_id": 1,
    "subregion": "Southern Africa",
    "subregion_id": 5,
    "nationality": "South African",
    "timezones": [
      {
        "zoneName": "Africa/Johannesburg",
        "gmtOffset": 7200,
        "gmtOffsetName": "UTC+02:00",
        "abbreviation": "SAST",
        "tzName": "South African Standard Time"
      }
    ],
    "latitude": "-29.00000000",
    "longitude": "24.00000000",
    "emoji": "🇿🇦",
    "emojiU": "U+1F1FF U+1F1E6"
  },
  "state": {
    "id": 939,
    "code": "WC",
    "iso2": "WC",
    "iso3166_2": "ZA-WC",
    "fips_code": "11",
    "name": "Kab ar C'hornôg",
    "name_default": "Western Cape",
    "native": "Western Cape",
    "type": "province",
    "level": null,
    "parent_id": null,
    "population": 7433020,
    "latitude": "-33.54697700",
    "longitude": "20.72753000",
    "timezone": "Africa/Johannesburg",
    "wikiDataId": "Q127167",
    "country_code": "ZA"
  },
  "cities": [
    {
      "id": 131016,
      "name": "Albertina",
      "name_default": "Albertina",
      "native": "Albertine",
      "type": "city",
      "level": null,
      "parent_id": null,
      "population": 7634,
      "latitude": "-34.20544000",
      "longitude": "21.58001000",
      "timezone": "Africa/Johannesburg",
      "wikiDataId": "Q2549949",
      "country_code": "ZA",
      "state_code": "WC",
      "state_id": 939,
      "country_id": 204
    },
    {
      "id": 131024,
      "name": "Arniston",
      "name_default": "Arniston",
      "native": "Arniston",
      "type": "city",
      "level": null,
      "parent_id": null,
      "population": 1518,
      "latitude": "-34.66739000",
      "longitude": "20.23086000",
      "timezone": "Africa/Johannesburg",
      "wikiDataId": "Q694016",
      "country_code": "ZA",
      "state_code": "WC",
      "state_id": 939,
      "country_id": 204
    },
    {
      "id": 131025,
      "name": "Atlantis",
      "name_default": "Atlantis",
      "native": "Atlantis",
      "type": "city",
      "level": null,
      "parent_id": null,
      "population": 67491,
      "latitude": "-33.56668000",
      "longitude": "18.48335000",
      "timezone": "Africa/Johannesburg",
      "wikiDataId": "Q3493630",
      "country_code": "ZA",
      "state_code": "WC",
      "state_id": 939,
      "country_id": 204
    },
    {
      "id": 131030,
      "name": "Beaufort West",
      "name_default": "Beaufort West",
      "native": "Beaufort West",
      "type": "adm2",
      "level": null,
      "parent_id": null,
      "population": 44737,
      "latitude": "-32.35671000",
      "longitude": "22.58295000",
      "timezone": "Africa/Johannesburg",
      "wikiDataId": "Q813395",
      "country_code": "ZA",
      "state_code": "WC",
      "state_id": 939,
      "country_id": 204
    },
    {
      "id": 131034,
      "name": "Bergvliet",
      "name_default": "Bergvliet",
      "native": "Mountain flight",
      "type": "section",
      "level": null,
      "parent_id": null,
      "population": 3902,
      "latitude": "-34.04746000",
      "longitude": "18.45250000",
      "timezone": "Africa/Johannesburg",
      "wikiDataId": "Q2897143",
      "country_code": "ZA",
      "state_code": "WC",
      "state_id": 939,
      "country_id": 204
    },
    {
      "id": 131048,
      "name": "Bredasdorp",
      "name_default": "Bredasdorp",
      "native": "Bredasdorp",
      "type": "adm2",
      "level": null,
      "parent_id": null,
      "population": 18599,
      "latitude": "-34.53215000",
      "longitude": "20.04031000",
      "timezone": "Africa/Johannesburg",
      "wikiDataId": "Q1640898",
      "country_code": "ZA",
      "state_code": "WC",
      "state_id": 939,
      "country_id": 204
    },
    {
      "id": 131056,
      "name": "Kaledon",
      "name_default": "Caledon",
      "native": "Caledon",
      "type": "adm3",
      "level": null,
      "parent_id": null,
      "population": 16752,
      "latitude": "-34.22997000",
      "longitude": "19.42650000",
      "timezone": "Africa/Johannesburg",
      "wikiDataId": "Q777884",
      "country_code": "ZA",
      "state_code": "WC",
      "state_id": 939,
      "country_id": 204
    },
    {
      "id": 131057,
      "name": "Calitzdorp",
      "name_default": "Calitzdorp",
      "native": "Calitzdorp",
      "type": "city",
      "level": null,
      "parent_id": null,
      "population": 5133,
      "latitude": "-33.52755000",
      "longitude": "21.67620000",
      "timezone": "Africa/Johannesburg",
      "wikiDataId": "Q1027048",
      "country_code": "ZA",
      "state_code": "WC",
      "state_id": 939,
      "country_id": 204
    },
    {
      "id": 131059,
      "name": "Kêr ar C'hab",
      "name_default": "Cape Town",
      "native": "Cape Town",
      "type": "adm1",
      "level": null,
      "parent_id": null,
      "population": 4772846,
      "latitude": "-33.92584000",
      "longitude": "18.42322000",
      "timezone": "Africa/Johannesburg",
      "wikiDataId": "Q5465",
      "country_code": "ZA",
      "state_code": "WC",
      "state_id": 939,
      "country_id": 204
    },
    {
      "id": 131060,
      "name": "Kumuniezh-kumunioù Cape Winelands",
      "name_default": "Cape Winelands",
      "native": "Cape Winelands District Municipality",
      "type": "municipality",
      "level": null,
      "parent_id": null,
      "population": 866001,
      "latitude": "-33.32249000",
      "longitude": "19.68998000",
      "timezone": "Africa/Johannesburg",
      "wikiDataId": "Q1974486",
      "country_code": "ZA",
      "state_code": "WC",
      "state_id": 939,
      "country_id": 204
    },
    {
      "id": 131065,
      "name": "Kumun Distrig Kreiz Karoo",
      "name_default": "Central Karoo",
      "native": "Central Karoo District Municipality",
      "type": "municipality",
      "level": null,
      "parent_id": null,
      "population": 74247,
      "latitude": "-32.62812000",
      "longitude": "22.21192000",
      "timezone": "Africa/Johannesburg",
      "wikiDataId": "Q1053888",
      "country_code": "ZA",
      "state_code": "WC",
      "state_id": 939,
      "country_id": 204
    },
    {
      "id": 131067,
      "name": "Ceres",
      "name_default": "Ceres",
      "native": "Ceres",
      "type": "adm3",
      "level": null,
      "parent_id": null,
      "population": 41596,
      "latitude": "-33.36889000",
      "longitude": "19.31095000",
      "timezone": "Africa/Johannesburg",
      "wikiDataId": "Q2038408",
      "country_code": "ZA",
      "state_code": "WC",
      "state_id": 939,
      "country_id": 204
    },
    {
      "id": 131070,
      "name": "Kêr ar C'hab",
      "name_default": "City of Cape Town",
      "native": "City of Cape Town",
      "type": "adm1",
      "level": null,
      "parent_id": null,
      "population": 4005016,
      "latitude": "-33.91667000",
      "longitude": "18.41667000",
      "timezone": "Africa/Johannesburg",
      "wikiDataId": "Q1185115",
      "country_code": "ZA",
      "state_code": "WC",
      "state_id": 939,
      "country_id": 204
    },
    {
      "id": 131073,
      "name": "Clanwilliam",
      "name_default": "Clanwilliam",
      "native": "Clanwilliam",
      "type": "adm3",
      "level": null,
      "parent_id": null,
      "population": 7674,
      "latitude": "-32.18173000",
      "longitude": "18.89217000",
      "timezone": "Africa/Johannesburg",
      "wikiDataId": "Q1025657",
      "country_code": "ZA",
      "state_code": "WC",
      "state_id": 939,
      "country_id": 204
    },
    {
      "id": 131074,
      "name": "Claremont",
      "name_default": "Claremont",
      "native": "Claremont",
      "type": "city",
      "level": null,
      "parent_id": null,
      "population": 14531,
      "latitude": "-33.98056000",
      "longitude": "18.46528000",
      "timezone": "Africa/Johannesburg",
      "wikiDataId": "Q2975541",
      "country_code": "ZA",
      "state_code": "WC",
      "state_id": 939,
      "country_id": 204
    },
    {
      "id": 131077,
      "name": "Constantia",
      "name_default": "Constantia",
      "native": "Constantia",
      "type": "city",
      "level": null,
      "parent_id": null,
      "population": 6922,
      "latitude": "-34.03139000",
      "longitude": "18.41833000",
      "timezone": "Africa/Johannesburg",
      "wikiDataId": "Q1127739",
      "country_code": "ZA",
      "state_code": "WC",
      "state_id": 939,
      "country_id": 204
    },
    {
      "id": 131082,
      "name": "De Rust",
      "name_default": "De Rust",
      "native": "Tranquility",
      "type": "city",
      "level": null,
      "parent_id": null,
      "population": 4272,
      "latitude": "-33.49035000",
      "longitude": "22.53523000",
      "timezone": "Africa/Johannesburg",
      "wikiDataId": "Q1021906",
      "country_code": "ZA",
      "state_code": "WC",
      "state_id": 939,
      "country_id": 204
    },
    {
      "id": 131095,
      "name": "Kumuniezh-kumunioù distrig Eden",
      "name_default": "Eden",
      "native": "Eden District Municipality",
      "type": "municipality",
      "level": null,
      "parent_id": null,
      "population": null,
      "latitude": "-33.82139000",
      "longitude": "22.01263000",
      "timezone": "Africa/Johannesburg",
      "wikiDataId": "Q220249",
      "country_code": "ZA",
      "state_code": "WC",
      "state_id": 939,
      "country_id": 204
    },
    {
      "id": 131115,
      "name": "George",
      "name_default": "George",
      "native": "George",
      "type": "adm2",
      "level": null,
      "parent_id": null,
      "population": 157394,
      "latitude": "-33.96300000",
      "longitude": "22.46173000",
      "timezone": "Africa/Johannesburg",
      "wikiDataId": "Q370456",
      "country_code": "ZA",
      "state_code": "WC",
      "state_id": 939,
      "country_id": 204
    },
    {
      "id": 131120,
      "name": "Grabouw",
      "name_default": "Grabouw",
      "native": "Grabouw",
      "type": "city",
      "level": null,
      "parent_id": null,
      "population": 37490,
      "latitude": "-34.15152000",
      "longitude": "19.01509000",
      "timezone": "Africa/Johannesburg",
      "wikiDataId": "Q1540958",
      "country_code": "ZA",
      "state_code": "WC",
      "state_id": 939,
      "country_id": 204
    },
    {
      "id": 131123,
      "name": "Eñvorennoù Hardy eus Afrika",
      "name_default": "Hardys Memories of Africa",
      "native": "Hardys Memories of Africa",
      "type": "city",
      "level": null,
      "parent_id": null,
      "population": null,
      "latitude": "-33.90539000",
      "longitude": "20.71690000",
      "timezone": "Africa/Johannesburg",
      "wikiDataId": "Q1021891",
      "country_code": "ZA",
      "state_code": "WC",
      "state_id": 939,
      "country_id": 204
    },
    {
      "id": 131129,
      "name": "Hermanus",
      "name_default": "Hermanus",
      "native": "Hermanus",
      "type": "adm3",
      "level": null,
      "parent_id": null,
      "population": 56139,
      "latitude": "-34.41870000",
      "longitude": "19.23446000",
      "timezone": "Africa/Johannesburg",
      "wikiDataId": "Q1613480",
      "country_code": "ZA",
      "state_code": "WC",
      "state_id": 939,
      "country_id": 204
    },
    {
      "id": 131143,
      "name": "Knysna",
      "name_default": "Knysna",
      "native": "Knysna",
      "type": "adm3",
      "level": null,
      "parent_id": null,
      "population": 68659,
      "latitude": "-34.03627000",
      "longitude": "23.04713000",
      "timezone": "Africa/Johannesburg",
      "wikiDataId": "Q251137",
      "country_code": "ZA",
      "state_code": "WC",
      "state_id": 939,
      "country_id": 204
    },
    {
      "id": 131148,
      "name": "Kraaifontein",
      "name_default": "Kraaifontein",
      "native": "Kraaifontein",
      "type": "city",
      "level": null,
      "parent_id": null,
      "population": 57911,
      "latitude": "-33.84808000",
      "longitude": "18.71723000",
      "timezone": "Africa/Johannesburg",
      "wikiDataId": "Q5200520",
      "country_code": "ZA",
      "state_code": "WC",
      "state_id": 939,
      "country_id": 204
    },
    {
      "id": 131156,
      "name": "Ladismith",
      "name_default": "Ladismith",
      "native": "Ladismith",
      "type": "adm3",
      "level": null,
      "parent_id": null,
      "population": 8539,
      "latitude": "-33.49331000",
      "longitude": "21.26755000",
      "timezone": "Africa/Johannesburg",
      "wikiDataId": "Q1800028",
      "country_code": "ZA",
      "state_code": "WC",
      "state_id": 939,
      "country_id": 204
    },
    {
      "id": 131159,
      "name": "Lansdowne",
      "name_default": "Lansdowne",
      "native": "Lansdowne",
      "type": "section",
      "level": null,
      "parent_id": null,
      "population": 17399,
      "latitude": "-33.98735000",
      "longitude": "18.49746000",
      "timezone": "Africa/Johannesburg",
      "wikiDataId": "Q6487354",
      "country_code": "ZA",
      "state_code": "WC",
      "state_id": 939,
      "country_id": 204
    },
    {
      "id": 131169,
      "name": "Malmesbury",
      "name_default": "Malmesbury",
      "native": "Malmesbury",
      "type": "adm3",
      "level": null,
      "parent_id": null,
      "population": 35897,
      "latitude": "-33.46080000",
      "longitude": "18.72714000",
      "timezone": "Africa/Johannesburg",
      "wikiDataId": "Q3113320",
      "country_code": "ZA",
      "state_code": "WC",
      "state_id": 939,
      "country_id": 204
    },
    {
      "id": 131184,
      "name": "Montagu",
      "name_default": "Montagu",
      "native": "Montagu",
      "type": "city",
      "level": null,
      "parent_id": null,
      "population": 18182,
      "latitude": "-33.78664000",
      "longitude": "20.12106000",
      "timezone": "Africa/Johannesburg",
      "wikiDataId": "Q1800611",
      "country_code": "ZA",
      "state_code": "WC",
      "state_id": 939,
      "country_id": 204
    },
    {
      "id": 131186,
      "name": "Moorreesburg",
      "name_default": "Moorreesburg",
      "native": "Moorreesburg",
      "type": "adm2",
      "level": null,
      "parent_id": null,
      "population": 12877,
      "latitude": "-33.15388000",
      "longitude": "18.66031000",
      "timezone": "Africa/Johannesburg",
      "wikiDataId": "Q1003332",
      "country_code": "ZA",
      "state_code": "WC",
      "state_id": 939,
      "country_id": 204
    },
    {
      "id": 131188,
      "name": "Bae Mossel",
      "name_default": "Mossel Bay",
      "native": "Mossel Bay",
      "type": "adm3",
      "level": null,
      "parent_id": null,
      "population": 78940,
      "latitude": "-34.18307000",
      "longitude": "22.14605000",
      "timezone": "Africa/Johannesburg",
      "wikiDataId": "Q995615",
      "country_code": "ZA",
      "state_code": "WC",
      "state_id": 939,
      "country_id": 204
    },
    {
      "id": 131200,
      "name": "Douaroù Nevez",
      "name_default": "Newlands",
      "native": "Newlands",
      "type": "city",
      "level": null,
      "parent_id": null,
      "population": 5343,
      "latitude": "-33.97846000",
      "longitude": "18.44810000",
      "timezone": "Africa/Johannesburg",
      "wikiDataId": "Q636253",
      "country_code": "ZA",
      "state_code": "WC",
      "state_id": 939,
      "country_id": 204
    },
    {
      "id": 131210,
      "name": "Oudtshoorn",
      "name_default": "Oudtshoorn",
      "native": "Oudtshoorn",
      "type": "adm3",
      "level": null,
      "parent_id": null,
      "population": 90822,
      "latitude": "-33.60047000",
      "longitude": "22.19955000",
      "timezone": "Africa/Johannesburg",
      "wikiDataId": "Q951049",
      "country_code": "ZA",
      "state_code": "WC",
      "state_id": 939,
      "country_id": 204
    },
    {
      "id": 131211,
      "name": "Kumuniezh-kumunioù distrig Overberg",
      "name_default": "Overberg",
      "native": "Overberg District Municipality",
      "type": "municipality",
      "level": null,
      "parent_id": null,
      "population": 286786,
      "latitude": "-34.26131000",
      "longitude": "19.93985000",
      "timezone": "Africa/Johannesburg",
      "wikiDataId": "Q1899307",
      "country_code": "ZA",
      "state_code": "WC",
      "state_id": 939,
      "country_id": 204
    },
    {
      "id": 131212,
      "name": "Paarl",
      "name_default": "Paarl",
      "native": "Paarl",
      "type": "adm3",
      "level": null,
      "parent_id": null,
      "population": 236910,
      "latitude": "-33.73378000",
      "longitude": "18.97523000",
      "timezone": "Africa/Johannesburg",
      "wikiDataId": "Q1018144",
      "country_code": "ZA",
      "state_code": "WC",
      "state_id": 939,
      "country_id": 204
    },
    {
      "id": 131219,
      "name": "Piketberg",
      "name_default": "Piketberg",
      "native": "Piketberg",
      "type": "adm3",
      "level": null,
      "parent_id": null,
      "population": 12075,
      "latitude": "-32.90323000",
      "longitude": "18.75704000",
      "timezone": "Africa/Johannesburg",
      "wikiDataId": "Q2006534",
      "country_code": "ZA",
      "state_code": "WC",
      "state_id": 939,
      "country_id": 204
    },
    {
      "id": 131221,
      "name": "Bae Plettenberg",
      "name_default": "Plettenberg Bay",
      "native": "Plettenberg Bay",
      "type": "adm3",
      "level": null,
      "parent_id": null,
      "population": 38126,
      "latitude": "-34.05274000",
      "longitude": "23.37160000",
      "timezone": "Africa/Johannesburg",
      "wikiDataId": "Q922360",
      "country_code": "ZA",
      "state_code": "WC",
      "state_id": 939,
      "country_id": 204
    },
    {
      "id": 131232,
      "name": "Ar priñs Albert",
      "name_default": "Prince Albert",
      "native": "Prince Albert",
      "type": "adm3",
      "level": null,
      "parent_id": null,
      "population": 13136,
      "latitude": "-33.22476000",
      "longitude": "22.02673000",
      "timezone": "Africa/Johannesburg",
      "wikiDataId": "Q1533623",
      "country_code": "ZA",
      "state_code": "WC",
      "state_id": 939,
      "country_id": 204
    },
    {
      "id": 131238,
      "name": "En em dennañ",
      "name_default": "Retreat",
      "native": "Retreat",
      "type": "city",
      "level": null,
      "parent_id": null,
      "population": 25745,
      "latitude": "-34.05515000",
      "longitude": "18.47617000",
      "timezone": "Africa/Johannesburg",
      "wikiDataId": "Q7316910",
      "country_code": "ZA",
      "state_code": "WC",
      "state_id": 939,
      "country_id": 204
    },
    {
      "id": 131242,
      "name": "Riversdale",
      "name_default": "Riversdale",
      "native": "Riversdale",
      "type": "adm3",
      "level": null,
      "parent_id": null,
      "population": 19382,
      "latitude": "-34.09345000",
      "longitude": "21.25725000",
      "timezone": "Africa/Johannesburg",
      "wikiDataId": "Q2120963",
      "country_code": "ZA",
      "state_code": "WC",
      "state_id": 939,
      "country_id": 204
    },
    {
      "id": 131243,
      "name": "Robertson",
      "name_default": "Robertson",
      "native": "Robertson",
      "type": "city",
      "level": null,
      "parent_id": null,
      "population": 33204,
      "latitude": "-33.80342000",
      "longitude": "19.88537000",
      "timezone": "Africa/Johannesburg",
      "wikiDataId": "Q2096823",
      "country_code": "ZA",
      "state_code": "WC",
      "state_id": 939,
      "country_id": 204
    },
    {
      "id": 131244,
      "name": "Rondebosch",
      "name_default": "Rondebosch",
      "native": "Rondebosch",
      "type": "city",
      "level": null,
      "parent_id": null,
      "population": 14591,
      "latitude": "-33.96333000",
      "longitude": "18.47639000",
      "timezone": "Africa/Johannesburg",
      "wikiDataId": "Q3073398",
      "country_code": "ZA",
      "state_code": "WC",
      "state_id": 939,
      "country_id": 204
    },
    {
      "id": 131246,
      "name": "Rosebank",
      "name_default": "Rosebank",
      "native": "Rose bank",
      "type": "city",
      "level": null,
      "parent_id": null,
      "population": 10000,
      "latitude": "-33.95556000",
      "longitude": "18.47417000",
      "timezone": "Africa/Johannesburg",
      "wikiDataId": "Q7368057",
      "country_code": "ZA",
      "state_code": "WC",
      "state_id": 939,
      "country_id": 204
    },
    {
      "id": 131248,
      "name": "Saldanha",
      "name_default": "Saldanha",
      "native": "Saldanha",
      "type": "city",
      "level": null,
      "parent_id": null,
      "population": 68284,
      "latitude": "-33.01167000",
      "longitude": "17.94420000",
      "timezone": "Africa/Johannesburg",
      "wikiDataId": "Q1643816",
      "country_code": "ZA",
      "state_code": "WC",
      "state_id": 939,
      "country_id": 204
    },
    {
      "id": 131264,
      "name": "Stellenbosch",
      "name_default": "Stellenbosch",
      "native": "Stellenbosch",
      "type": "adm3",
      "level": null,
      "parent_id": null,
      "population": 80316,
      "latitude": "-33.93462000",
      "longitude": "18.86676000",
      "timezone": "Africa/Johannesburg",
      "wikiDataId": "Q5460",
      "country_code": "ZA",
      "state_code": "WC",
      "state_id": 939,
      "country_id": 204
    },
    {
      "id": 131268,
      "name": "Traezhenn ar C'huzh-heol",
      "name_default": "Sunset Beach",
      "native": "Sunset Beach",
      "type": "section",
      "level": null,
      "parent_id": null,
      "population": 2000,
      "latitude": "-33.85395000",
      "longitude": "18.49231000",
      "timezone": "Africa/Johannesburg",
      "wikiDataId": "Q32025251",
      "country_code": "ZA",
      "state_code": "WC",
      "state_id": 939,
      "country_id": 204
    },
    {
      "id": 131269,
      "name": "Swellendam",
      "name_default": "Swellendam",
      "native": "Swellendam",
      "type": "adm3",
      "level": null,
      "parent_id": null,
      "population": 17537,
      "latitude": "-34.02262000",
      "longitude": "20.44171000",
      "timezone": "Africa/Johannesburg",
      "wikiDataId": "Q1023257",
      "country_code": "ZA",
      "state_code": "WC",
      "state_id": 939,
      "country_id": 204
    },
    {
      "id": 131294,
      "name": "Vredenburg",
      "name_default": "Vredenburg",
      "native": "Vredenburg",
      "type": "adm3",
      "level": null,
      "parent_id": null,
      "population": 38382,
      "latitude": "-32.90719000",
      "longitude": "17.98997000",
      "timezone": "Africa/Johannesburg",
      "wikiDataId": "Q2620432",
      "country_code": "ZA",
      "state_code": "WC",
      "state_id": 939,
      "country_id": 204
    },
    {
      "id": 131295,
      "name": "Vredendal",
      "name_default": "Vredendal",
      "native": "Peace",
      "type": "adm3",
      "level": null,
      "parent_id": null,
      "population": 21769,
      "latitude": "-31.66833000",
      "longitude": "18.50119000",
      "timezone": "Africa/Johannesburg",
      "wikiDataId": "Q1341350",
      "country_code": "ZA",
      "state_code": "WC",
      "state_id": 939,
      "country_id": 204
    },
    {
      "id": 131302,
      "name": "Wellington",
      "name_default": "Wellington",
      "native": "Wellington",
      "type": "city",
      "level": null,
      "parent_id": null,
      "population": 55543,
      "latitude": "-33.63981000",
      "longitude": "19.01120000",
      "timezone": "Africa/Johannesburg",
      "wikiDataId": "Q1534385",
      "country_code": "ZA",
      "state_code": "WC",
      "state_id": 939,
      "country_id": 204
    },
    {
      "id": 131304,
      "name": "Kumuniezh-kumunioù distrig an aod kornôg",
      "name_default": "West Coast",
      "native": "West Coast District Municipality",
      "type": "municipality",
      "level": null,
      "parent_id": null,
      "population": 436403,
      "latitude": "-32.09506000",
      "longitude": "18.62695000",
      "timezone": "Africa/Johannesburg",
      "wikiDataId": "Q2562901",
      "country_code": "ZA",
      "state_code": "WC",
      "state_id": 939,
      "country_id": 204
    },
    {
      "id": 131313,
      "name": "Worcester",
      "name_default": "Worcester",
      "native": "Worcester",
      "type": "adm2",
      "level": null,
      "parent_id": null,
      "population": 127597,
      "latitude": "-33.64651000",
      "longitude": "19.44852000",
      "timezone": "Africa/Johannesburg",
      "wikiDataId": "Q1025649",
      "country_code": "ZA",
      "state_code": "WC",
      "state_id": 939,
      "country_id": 204
    },
    {
      "id": 131317,
      "name": "Zoar",
      "name_default": "Zoar",
      "native": "Joke",
      "type": "city",
      "level": null,
      "parent_id": null,
      "population": 5582,
      "latitude": "-33.49560000",
      "longitude": "21.44373000",
      "timezone": "Africa/Johannesburg",
      "wikiDataId": "Q218020",
      "country_code": "ZA",
      "state_code": "WC",
      "state_id": 939,
      "country_id": 204
    }
  ]
}
