{
  "locale": "fr",
  "country": {
    "id": 101,
    "code": "IN",
    "iso3": "IND",
    "numeric_code": "356",
    "name": "Inde",
    "name_default": "India",
    "native": "भारत",
    "capital": "New Delhi",
    "phonecode": "91",
    "currency": "INR",
    "currency_name": "Indian rupee",
    "currency_symbol": "₹",
    "tld": ".in",
    "population": 1417492000,
    "gdp": 4187017,
    "region": "Asia",
    "region_id": 3,
    "subregion": "Southern Asia",
    "subregion_id": 14,
    "nationality": "Indian",
    "timezones": [
      {
        "zoneName": "Asia/Kolkata",
        "gmtOffset": 19800,
        "gmtOffsetName": "UTC+05:30",
        "abbreviation": "IST",
        "tzName": "Indian Standard Time"
      }
    ],
    "latitude": "20.00000000",
    "longitude": "77.00000000",
    "emoji": "🇮🇳",
    "emojiU": "U+1F1EE U+1F1F3"
  },
  "state": {
    "id": 4021,
    "code": "DL",
    "iso2": "DL",
    "iso3166_2": "IN-DL",
    "fips_code": "07",
    "name": "Delhi",
    "name_default": "Delhi",
    "native": "दिल्ली",
    "type": "union territory",
    "level": null,
    "parent_id": null,
    "population": null,
    "latitude": "28.63280270",
    "longitude": "77.21977130",
    "timezone": "Asia/Kolkata",
    "wikiDataId": "Q1353",
    "country_code": "IN"
  },
  "cities": [
    {
      "id": 57655,
      "name": "Alipur",
      "name_default": "Alipur",
      "native": "अलीपुर",
      "type": "adm2",
      "level": null,
      "parent_id": null,
      "population": 20736,
      "latitude": "28.79862000",
      "longitude": "77.13314000",
      "timezone": "Asia/Kolkata",
      "wikiDataId": "Q766918",
      "country_code": "IN",
      "state_code": "DL",
      "state_id": 4021,
      "country_id": 101
    },
    {
      "id": 57909,
      "name": "Bawana",
      "name_default": "Bawana",
      "native": "बवाना",
      "type": "city",
      "level": null,
      "parent_id": null,
      "population": 73680,
      "latitude": "28.79820000",
      "longitude": "77.03431000",
      "timezone": "Asia/Kolkata",
      "wikiDataId": "Q760346",
      "country_code": "IN",
      "state_code": "DL",
      "state_id": 4021,
      "country_id": 101
    },
    {
      "id": 58171,
      "name": "Centre de Delhi",
      "name_default": "Central Delhi",
      "native": "मध्य दिल्ली",
      "type": "adm1",
      "level": null,
      "parent_id": null,
      "population": 582320,
      "latitude": "28.64857000",
      "longitude": "77.21895000",
      "timezone": "Asia/Kolkata",
      "wikiDataId": "Q107941",
      "country_code": "IN",
      "state_code": "DL",
      "state_id": 4021,
      "country_id": 101
    },
    {
      "id": 131679,
      "name": "Delhi",
      "name_default": "Delhi",
      "native": "दिल्ली",
      "type": "adm1",
      "level": null,
      "parent_id": null,
      "population": 11034555,
      "latitude": "28.65195000",
      "longitude": "77.23149000",
      "timezone": "Asia/Kolkata",
      "wikiDataId": "Q1353",
      "country_code": "IN",
      "state_code": "DL",
      "state_id": 4021,
      "country_id": 101
    },
    {
      "id": 131687,
      "name": "Déoli",
      "name_default": "Deoli",
      "native": "देवली",
      "type": "city",
      "level": null,
      "parent_id": null,
      "population": 169122,
      "latitude": "28.50254000",
      "longitude": "77.23117000",
      "timezone": "Asia/Kolkata",
      "wikiDataId": "Q2429122",
      "country_code": "IN",
      "state_code": "DL",
      "state_id": 4021,
      "country_id": 101
    },
    {
      "id": 131821,
      "name": "Delhi Est",
      "name_default": "East Delhi",
      "native": "पूर्वी दिल्ली",
      "type": "city",
      "level": null,
      "parent_id": null,
      "population": 1709346,
      "latitude": "28.66242000",
      "longitude": "77.29122000",
      "timezone": "Asia/Kolkata",
      "wikiDataId": "Q107960",
      "country_code": "IN",
      "state_code": "DL",
      "state_id": 4021,
      "country_id": 101
    },
    {
      "id": 132406,
      "name": "Karol Bagh",
      "name_default": "Karol Bagh",
      "native": "करोल बाग",
      "type": "section",
      "level": null,
      "parent_id": null,
      "population": 505241,
      "latitude": "28.65136000",
      "longitude": "77.19072000",
      "timezone": "Asia/Kolkata",
      "wikiDataId": "Q13641055",
      "country_code": "IN",
      "state_code": "DL",
      "state_id": 4021,
      "country_id": 101
    },
    {
      "id": 133126,
      "name": "Najafgarh",
      "name_default": "Najafgarh",
      "native": "नजफगढ़",
      "type": "city",
      "level": null,
      "parent_id": null,
      "population": 1365000,
      "latitude": "28.60922000",
      "longitude": "76.97982000",
      "timezone": "Asia/Kolkata",
      "wikiDataId": "Q2544256",
      "country_code": "IN",
      "state_code": "DL",
      "state_id": 4021,
      "country_id": 101
    },
    {
      "id": 133269,
      "name": "Nangloi Jat",
      "name_default": "Nangloi Jat",
      "native": "नांगलोई जाट",
      "type": "city",
      "level": null,
      "parent_id": null,
      "population": 205596,
      "latitude": "28.67957000",
      "longitude": "77.06799000",
      "timezone": "Asia/Kolkata",
      "wikiDataId": "Q375592",
      "country_code": "IN",
      "state_code": "DL",
      "state_id": 4021,
      "country_id": 101
    },
    {
      "id": 133165,
      "name": "Narela",
      "name_default": "Narela",
      "native": "नरेला",
      "type": "city",
      "level": null,
      "parent_id": null,
      "population": 800000,
      "latitude": "28.85267000",
      "longitude": "77.09288000",
      "timezone": "Asia/Kolkata",
      "wikiDataId": "Q6965751",
      "country_code": "IN",
      "state_code": "DL",
      "state_id": 4021,
      "country_id": 101
    },
    {
      "id": 133210,
      "name": "New Delhi",
      "name_default": "New Delhi",
      "native": "नई दिल्ली",
      "type": "capital",
      "level": null,
      "parent_id": null,
      "population": 249998,
      "latitude": "28.63576000",
      "longitude": "77.22445000",
      "timezone": "Asia/Kolkata",
      "wikiDataId": "Q987",
      "country_code": "IN",
      "state_code": "DL",
      "state_id": 4021,
      "country_id": 101
    },
    {
      "id": 133234,
      "name": "Delhi Nord",
      "name_default": "North Delhi",
      "native": "उत्तरी दिल्ली",
      "type": "adm1",
      "level": null,
      "parent_id": null,
      "population": 887978,
      "latitude": "28.66920000",
      "longitude": "77.22273000",
      "timezone": "Asia/Kolkata",
      "wikiDataId": "Q693367",
      "country_code": "IN",
      "state_code": "DL",
      "state_id": 4021,
      "country_id": 101
    },
    {
      "id": 133236,
      "name": "Nord-Est de Delhi",
      "name_default": "North East Delhi",
      "native": "उत्तर पूर्वी दिल्ली",
      "type": "city",
      "level": null,
      "parent_id": null,
      "population": 2241624,
      "latitude": "28.68690000",
      "longitude": "77.30195000",
      "timezone": "Asia/Kolkata",
      "wikiDataId": "Q429329",
      "country_code": "IN",
      "state_code": "DL",
      "state_id": 4021,
      "country_id": 101
    },
    {
      "id": 133243,
      "name": "Nord-Ouest de Delhi",
      "name_default": "North West Delhi",
      "native": "उत्तर पश्चिम दिल्ली",
      "type": "city",
      "level": null,
      "parent_id": null,
      "population": 3656539,
      "latitude": "28.70113000",
      "longitude": "77.10154000",
      "timezone": "Asia/Kolkata",
      "wikiDataId": "Q766125",
      "country_code": "IN",
      "state_code": "DL",
      "state_id": 4021,
      "country_id": 101
    },
    {
      "id": 133461,
      "name": "Pitampura",
      "name_default": "Pitampura",
      "native": "पीतमपुरा",
      "type": "city",
      "level": null,
      "parent_id": null,
      "population": 2000,
      "latitude": "28.68964000",
      "longitude": "77.13126000",
      "timezone": "Asia/Kolkata",
      "wikiDataId": "Q2228786",
      "country_code": "IN",
      "state_code": "DL",
      "state_id": 4021,
      "country_id": 101
    },
    {
      "id": 133645,
      "name": "Rohini",
      "name_default": "Rohini",
      "native": "रोहिणी",
      "type": "section",
      "level": null,
      "parent_id": null,
      "population": 860000,
      "latitude": "28.74322000",
      "longitude": "77.06778000",
      "timezone": "Asia/Kolkata",
      "wikiDataId": "Q15272986",
      "country_code": "IN",
      "state_code": "DL",
      "state_id": 4021,
      "country_id": 101
    },
    {
      "id": 134007,
      "name": "Sud de Delhi",
      "name_default": "South Delhi",
      "native": "दक्षिण दिल्ली",
      "type": "city",
      "level": null,
      "parent_id": null,
      "population": 2731929,
      "latitude": "28.53009000",
      "longitude": "77.25174000",
      "timezone": "Asia/Kolkata",
      "wikiDataId": "Q2061938",
      "country_code": "IN",
      "state_code": "DL",
      "state_id": 4021,
      "country_id": 101
    },
    {
      "id": 134012,
      "name": "Sud-Ouest de Delhi",
      "name_default": "South West Delhi",
      "native": "दक्षिण पश्चिम दिल्ली",
      "type": "city",
      "level": null,
      "parent_id": null,
      "population": 2292958,
      "latitude": "28.58060000",
      "longitude": "77.06720000",
      "timezone": "Asia/Kolkata",
      "wikiDataId": "Q2379189",
      "country_code": "IN",
      "state_code": "DL",
      "state_id": 4021,
      "country_id": 101
    },
    {
      "id": 134404,
      "name": "Delhi Ouest",
      "name_default": "West Delhi",
      "native": "पश्चिमी दिल्ली",
      "type": "city",
      "level": null,
      "parent_id": null,
      "population": 2543243,
      "latitude": "28.65655000",
      "longitude": "77.10068000",
      "timezone": "Asia/Kolkata",
      "wikiDataId": "Q549807",
      "country_code": "IN",
      "state_code": "DL",
      "state_id": 4021,
      "country_id": 101
    }
  ]
}
