{
  "locale": "ja",
  "country": {
    "id": 180,
    "code": "RE",
    "iso3": "REU",
    "numeric_code": "638",
    "name": "レユニオン",
    "name_default": "Reunion",
    "native": "La Réunion",
    "capital": "Saint-Denis",
    "phonecode": "262",
    "currency": "EUR",
    "currency_name": "Euro",
    "currency_symbol": "€",
    "tld": ".re",
    "population": 896175,
    "gdp": null,
    "region": "Africa",
    "region_id": 1,
    "subregion": "Eastern Africa",
    "subregion_id": 4,
    "nationality": "Reunionese, Reunionnais",
    "timezones": [
      {
        "zoneName": "Indian/Reunion",
        "gmtOffset": 14400,
        "gmtOffsetName": "UTC+04:00",
        "abbreviation": "RET",
        "tzName": "Réunion Time"
      }
    ],
    "latitude": "-21.15000000",
    "longitude": "55.50000000",
    "emoji": "🇷🇪",
    "emojiU": "U+1F1F7 U+1F1EA"
  },
  "state": {
    "id": 5439,
    "code": "04",
    "iso2": "04",
    "iso3166_2": "RE-04",
    "fips_code": "04",
    "name": "サンピエール",
    "name_default": "Saint-Pierre",
    "native": "Saint-Pierre",
    "type": "district",
    "level": null,
    "parent_id": null,
    "population": null,
    "latitude": "-21.23774370",
    "longitude": "55.48997640",
    "timezone": "Indian/Reunion",
    "wikiDataId": "Q702426",
    "country_code": "RE"
  },
  "cities": [
    {
      "id": 155029,
      "name": "シラオス",
      "name_default": "Cilaos",
      "native": "Cilaos",
      "type": "city",
      "level": null,
      "parent_id": null,
      "population": null,
      "latitude": "-21.14026750",
      "longitude": "55.37314150",
      "timezone": "Indian/Reunion",
      "wikiDataId": "Q1014746",
      "country_code": "RE",
      "state_code": "04",
      "state_id": 5439,
      "country_id": 180
    },
    {
      "id": 155030,
      "name": "アントル・ドゥ",
      "name_default": "Entre-Deux",
      "native": "Entre-Deux",
      "type": "city",
      "level": null,
      "parent_id": null,
      "population": null,
      "latitude": "-21.21073870",
      "longitude": "55.41125940",
      "timezone": "Indian/Reunion",
      "wikiDataId": "Q1014800",
      "country_code": "RE",
      "state_code": "04",
      "state_id": 5439,
      "country_id": 180
    },
    {
      "id": 155031,
      "name": "レタン・サレ",
      "name_default": "L'Étang-Salé",
      "native": "L'Étang-Salé",
      "type": "locality",
      "level": null,
      "parent_id": null,
      "population": 29278,
      "latitude": "-21.23474080",
      "longitude": "55.31636860",
      "timezone": "Indian/Reunion",
      "wikiDataId": "Q1014771",
      "country_code": "RE",
      "state_code": "04",
      "state_id": 5439,
      "country_id": 180
    },
    {
      "id": 155037,
      "name": "ル・タンポン",
      "name_default": "Le Tampon",
      "native": "Le Tampon",
      "type": "adm4",
      "level": null,
      "parent_id": null,
      "population": null,
      "latitude": "-21.22500920",
      "longitude": "55.48765410",
      "timezone": "Indian/Reunion",
      "wikiDataId": "Q13648",
      "country_code": "RE",
      "state_code": "04",
      "state_id": 5439,
      "country_id": 180
    },
    {
      "id": 155028,
      "name": "レ・ザヴィロン",
      "name_default": "Les Avirons",
      "native": "Les Avirons",
      "type": "city",
      "level": null,
      "parent_id": null,
      "population": null,
      "latitude": "-21.20186830",
      "longitude": "55.32166090",
      "timezone": "Indian/Reunion",
      "wikiDataId": "Q1014814",
      "country_code": "RE",
      "state_code": "04",
      "state_id": 5439,
      "country_id": 180
    },
    {
      "id": 155032,
      "name": "プティット・イル",
      "name_default": "Petite-Île",
      "native": "Petite-Île",
      "type": "city",
      "level": null,
      "parent_id": null,
      "population": null,
      "latitude": "-21.33296780",
      "longitude": "55.52942050",
      "timezone": "Indian/Reunion",
      "wikiDataId": "Q1326390",
      "country_code": "RE",
      "state_code": "04",
      "state_id": 5439,
      "country_id": 180
    },
    {
      "id": 155033,
      "name": "聖ヨセフ",
      "name_default": "Saint-Joseph",
      "native": "Saint-joseph",
      "type": "city",
      "level": null,
      "parent_id": null,
      "population": null,
      "latitude": "-21.29211860",
      "longitude": "55.56161730",
      "timezone": "Indian/Reunion",
      "wikiDataId": "Q305275",
      "country_code": "RE",
      "state_code": "04",
      "state_id": 5439,
      "country_id": 180
    },
    {
      "id": 155034,
      "name": "サン・ルイ",
      "name_default": "Saint-Louis",
      "native": "Saint-Louis",
      "type": "city",
      "level": null,
      "parent_id": null,
      "population": 11434,
      "latitude": "-21.22548290",
      "longitude": "55.34004400",
      "timezone": "Indian/Reunion",
      "wikiDataId": "Q1617681",
      "country_code": "RE",
      "state_code": "04",
      "state_id": 5439,
      "country_id": 180
    },
    {
      "id": 155035,
      "name": "サンフィリップ",
      "name_default": "Saint-Philippe",
      "native": "Saint-Philippe",
      "type": "city",
      "level": null,
      "parent_id": null,
      "population": null,
      "latitude": "-21.30837500",
      "longitude": "55.66118340",
      "timezone": "Indian/Reunion",
      "wikiDataId": "Q652100",
      "country_code": "RE",
      "state_code": "04",
      "state_id": 5439,
      "country_id": 180
    },
    {
      "id": 155036,
      "name": "サンピエール",
      "name_default": "Saint-Pierre",
      "native": "Saint-Pierre",
      "type": "locality",
      "level": null,
      "parent_id": null,
      "population": null,
      "latitude": "-21.30893030",
      "longitude": "55.33953130",
      "timezone": "Indian/Reunion",
      "wikiDataId": "Q249884",
      "country_code": "RE",
      "state_code": "04",
      "state_id": 5439,
      "country_id": 180
    }
  ]
}
