{
  "locale": "hi",
  "country": {
    "id": 48,
    "code": "CO",
    "iso3": "COL",
    "numeric_code": "170",
    "name": "कोलंबिया",
    "name_default": "Colombia",
    "native": "Colombia",
    "capital": "Bogotá",
    "phonecode": "57",
    "currency": "COP",
    "currency_name": "Colombian peso",
    "currency_symbol": "$",
    "tld": ".co",
    "population": 53057212,
    "gdp": 427766,
    "region": "Americas",
    "region_id": 2,
    "subregion": "South America",
    "subregion_id": 8,
    "nationality": "Colombian",
    "timezones": [
      {
        "zoneName": "America/Bogota",
        "gmtOffset": -18000,
        "gmtOffsetName": "UTC-05:00",
        "abbreviation": "COT",
        "tzName": "Colombia Time"
      }
    ],
    "latitude": "4.00000000",
    "longitude": "-72.00000000",
    "emoji": "🇨🇴",
    "emojiU": "U+1F1E8 U+1F1F4"
  },
  "state": {
    "id": 2904,
    "code": "VAC",
    "iso2": "VAC",
    "iso3166_2": "CO-VAC",
    "fips_code": "29",
    "name": "वैले डेल काउका",
    "name_default": "Valle del Cauca",
    "native": "Valle del Cauca",
    "type": "department",
    "level": null,
    "parent_id": null,
    "population": 4475886,
    "latitude": "3.69840530",
    "longitude": "-76.55019960",
    "timezone": "America/Bogota",
    "wikiDataId": "Q13990",
    "country_code": "CO"
  },
  "cities": [
    {
      "id": 20502,
      "name": "अल्काला",
      "name_default": "Alcalá",
      "native": "Alcalá",
      "type": "adm2",
      "level": null,
      "parent_id": null,
      "population": 9135,
      "latitude": "4.67458000",
      "longitude": "-75.77188000",
      "timezone": "America/Bogota",
      "wikiDataId": "Q1526276",
      "country_code": "CO",
      "state_code": "VAC",
      "state_id": 2904,
      "country_id": 48
    },
    {
      "id": 20519,
      "name": "अंडालूसिया",
      "name_default": "Andalucía",
      "native": "Andalucía",
      "type": "adm2",
      "level": null,
      "parent_id": null,
      "population": 18132,
      "latitude": "4.14035000",
      "longitude": "-76.14739000",
      "timezone": "America/Bogota",
      "wikiDataId": "Q1526216",
      "country_code": "CO",
      "state_code": "VAC",
      "state_id": 2904,
      "country_id": 48
    },
    {
      "id": 20526,
      "name": "अंसेरमानुएवो",
      "name_default": "Ansermanuevo",
      "native": "Ansermanuevo",
      "type": "adm2",
      "level": null,
      "parent_id": null,
      "population": 12332,
      "latitude": "4.79722000",
      "longitude": "-75.99500000",
      "timezone": "America/Bogota",
      "wikiDataId": "Q1441179",
      "country_code": "CO",
      "state_code": "VAC",
      "state_id": 2904,
      "country_id": 48
    },
    {
      "id": 20546,
      "name": "अर्जेलिया",
      "name_default": "Argelia",
      "native": "Argelia",
      "type": "adm2",
      "level": null,
      "parent_id": null,
      "population": 3418,
      "latitude": "4.72904000",
      "longitude": "-76.11637000",
      "timezone": "America/Bogota",
      "wikiDataId": "Q2142901",
      "country_code": "CO",
      "state_code": "VAC",
      "state_id": 2904,
      "country_id": 48
    },
    {
      "id": 20598,
      "name": "बोलिवार",
      "name_default": "Bolívar",
      "native": "Bolívar",
      "type": "adm2",
      "level": null,
      "parent_id": null,
      "population": 44864,
      "latitude": "4.37710000",
      "longitude": "-76.34870000",
      "timezone": "America/Bogota",
      "wikiDataId": "Q1880935",
      "country_code": "CO",
      "state_code": "VAC",
      "state_id": 2904,
      "country_id": 48
    },
    {
      "id": 20605,
      "name": "बुएनावेंतुरा",
      "name_default": "Buenaventura",
      "native": "Buenaventura",
      "type": "adm2",
      "level": null,
      "parent_id": null,
      "population": 240387,
      "latitude": "3.88010000",
      "longitude": "-77.03116000",
      "timezone": "America/Bogota",
      "wikiDataId": "Q996581",
      "country_code": "CO",
      "state_code": "VAC",
      "state_id": 2904,
      "country_id": 48
    },
    {
      "id": 20612,
      "name": "बुगालाग्रैंड",
      "name_default": "Bugalagrande",
      "native": "Bugalagrande",
      "type": "adm2",
      "level": null,
      "parent_id": null,
      "population": 12418,
      "latitude": "4.21207000",
      "longitude": "-76.15564000",
      "timezone": "America/Bogota",
      "wikiDataId": "Q686202",
      "country_code": "CO",
      "state_code": "VAC",
      "state_id": 2904,
      "country_id": 48
    },
    {
      "id": 20622,
      "name": "कैसेडोनिया",
      "name_default": "Caicedonia",
      "native": "Caicedonia",
      "type": "adm2",
      "level": null,
      "parent_id": null,
      "population": 30947,
      "latitude": "4.33240000",
      "longitude": "-75.82665000",
      "timezone": "America/Bogota",
      "wikiDataId": "Q2430520",
      "country_code": "CO",
      "state_code": "VAC",
      "state_id": 2904,
      "country_id": 48
    },
    {
      "id": 20634,
      "name": "कैली",
      "name_default": "Cali",
      "native": "Cali",
      "type": "adm1",
      "level": null,
      "parent_id": null,
      "population": 2471474,
      "latitude": "3.41033000",
      "longitude": "-76.58097000",
      "timezone": "America/Bogota",
      "wikiDataId": "Q51103",
      "country_code": "CO",
      "state_code": "VAC",
      "state_id": 2904,
      "country_id": 48
    },
    {
      "id": 20636,
      "name": "कैलिमा",
      "name_default": "Calima",
      "native": "Calima",
      "type": "adm2",
      "level": null,
      "parent_id": null,
      "population": 16054,
      "latitude": "3.92511000",
      "longitude": "-76.62654000",
      "timezone": "America/Bogota",
      "wikiDataId": "Q1526288",
      "country_code": "CO",
      "state_code": "VAC",
      "state_id": 2904,
      "country_id": 48
    },
    {
      "id": 20644,
      "name": "Candelaria",
      "name_default": "Candelaria",
      "native": "Candelaria",
      "type": "adm2",
      "level": null,
      "parent_id": null,
      "population": 87811,
      "latitude": "3.38367000",
      "longitude": "-76.42466000",
      "timezone": "America/Bogota",
      "wikiDataId": "Q2430763",
      "country_code": "CO",
      "state_code": "VAC",
      "state_id": 2904,
      "country_id": 48
    },
    {
      "id": 20661,
      "name": "कार्टेगो",
      "name_default": "Cartago",
      "native": "Cartago",
      "type": "adm2",
      "level": null,
      "parent_id": null,
      "population": 134972,
      "latitude": "4.74639000",
      "longitude": "-75.91167000",
      "timezone": "America/Bogota",
      "wikiDataId": "Q2004074",
      "country_code": "CO",
      "state_code": "VAC",
      "state_id": 2904,
      "country_id": 48
    },
    {
      "id": 20774,
      "name": "डागुआ",
      "name_default": "Dagua",
      "native": "Dagua",
      "type": "adm2",
      "level": null,
      "parent_id": null,
      "population": 12320,
      "latitude": "3.65685000",
      "longitude": "-76.68859000",
      "timezone": "America/Bogota",
      "wikiDataId": "Q2406018",
      "country_code": "CO",
      "state_code": "VAC",
      "state_id": 2904,
      "country_id": 48
    },
    {
      "id": 20835,
      "name": "एल एगुइला",
      "name_default": "El Águila",
      "native": "El Águila",
      "type": "adm2",
      "level": null,
      "parent_id": null,
      "population": 7393,
      "latitude": "4.91946000",
      "longitude": "-76.05680000",
      "timezone": "America/Bogota",
      "wikiDataId": "Q1578199",
      "country_code": "CO",
      "state_code": "VAC",
      "state_id": 2904,
      "country_id": 48
    },
    {
      "id": 20789,
      "name": "अल काहिरा",
      "name_default": "El Cairo",
      "native": "El Cairo",
      "type": "city",
      "level": null,
      "parent_id": null,
      "population": 9976,
      "latitude": "4.74889000",
      "longitude": "-76.24443000",
      "timezone": "America/Bogota",
      "wikiDataId": "Q1577535",
      "country_code": "CO",
      "state_code": "VAC",
      "state_id": 2904,
      "country_id": 48
    },
    {
      "id": 20800,
      "name": "एल सेरिटो",
      "name_default": "El Cerrito",
      "native": "El Cerrito",
      "type": "adm2",
      "level": null,
      "parent_id": null,
      "population": 57749,
      "latitude": "3.64273000",
      "longitude": "-76.20960000",
      "timezone": "America/Bogota",
      "wikiDataId": "Q1093505",
      "country_code": "CO",
      "state_code": "VAC",
      "state_id": 2904,
      "country_id": 48
    },
    {
      "id": 20806,
      "name": "एल डोवियो",
      "name_default": "El Dovio",
      "native": "El Dovio",
      "type": "adm2",
      "level": null,
      "parent_id": null,
      "population": 9548,
      "latitude": "4.50790000",
      "longitude": "-76.23619000",
      "timezone": "America/Bogota",
      "wikiDataId": "Q606862",
      "country_code": "CO",
      "state_code": "VAC",
      "state_id": 2904,
      "country_id": 48
    },
    {
      "id": 20851,
      "name": "फ्लोरिडा",
      "name_default": "Florida",
      "native": "Florida",
      "type": "adm2",
      "level": null,
      "parent_id": null,
      "population": 56008,
      "latitude": "3.30940000",
      "longitude": "-76.18989000",
      "timezone": "America/Bogota",
      "wikiDataId": "Q1093490",
      "country_code": "CO",
      "state_code": "VAC",
      "state_id": 2904,
      "country_id": 48
    },
    {
      "id": 20884,
      "name": "जिनेबरा",
      "name_default": "Ginebra",
      "native": "Ginebra",
      "type": "adm2",
      "level": null,
      "parent_id": null,
      "population": 21055,
      "latitude": "3.74296000",
      "longitude": "-76.19412000",
      "timezone": "America/Bogota",
      "wikiDataId": "Q1525670",
      "country_code": "CO",
      "state_code": "VAC",
      "state_id": 2904,
      "country_id": 48
    },
    {
      "id": 20897,
      "name": "ग्वाकारी",
      "name_default": "Guacarí",
      "native": "Guacarí",
      "type": "adm2",
      "level": null,
      "parent_id": null,
      "population": 19637,
      "latitude": "3.76383000",
      "longitude": "-76.33292000",
      "timezone": "America/Bogota",
      "wikiDataId": "Q2431973",
      "country_code": "CO",
      "state_code": "VAC",
      "state_id": 2904,
      "country_id": 48
    },
    {
      "id": 20900,
      "name": "ग्वाडलहारा डे बुगा",
      "name_default": "Guadalajara de Buga",
      "native": "Guadalajara de Buga",
      "type": "adm2",
      "level": null,
      "parent_id": null,
      "population": 114316,
      "latitude": "3.90089000",
      "longitude": "-76.29783000",
      "timezone": "America/Bogota",
      "wikiDataId": "Q934753",
      "country_code": "CO",
      "state_code": "VAC",
      "state_id": 2904,
      "country_id": 48
    },
    {
      "id": 20958,
      "name": "जमुंडी",
      "name_default": "Jamundí",
      "native": "Jamundí",
      "type": "adm2",
      "level": null,
      "parent_id": null,
      "population": 44833,
      "latitude": "3.26074000",
      "longitude": "-76.53499000",
      "timezone": "America/Bogota",
      "wikiDataId": "Q1681497",
      "country_code": "CO",
      "state_code": "VAC",
      "state_id": 2904,
      "country_id": 48
    },
    {
      "id": 20979,
      "name": "ला कुम्ब्रे",
      "name_default": "La Cumbre",
      "native": "La Cumbre",
      "type": "city",
      "level": null,
      "parent_id": null,
      "population": 2432,
      "latitude": "3.72250000",
      "longitude": "-76.02083000",
      "timezone": "America/Bogota",
      "wikiDataId": "Q23706364",
      "country_code": "CO",
      "state_code": "VAC",
      "state_id": 2904,
      "country_id": 48
    },
    {
      "id": 21006,
      "name": "ला यूनियन",
      "name_default": "La Unión",
      "native": "La Unión",
      "type": "adm2",
      "level": null,
      "parent_id": null,
      "population": 41013,
      "latitude": "4.53282000",
      "longitude": "-76.10318000",
      "timezone": "America/Bogota",
      "wikiDataId": "Q2022508",
      "country_code": "CO",
      "state_code": "VAC",
      "state_id": 2904,
      "country_id": 48
    },
    {
      "id": 21013,
      "name": "ला विक्टोरिया",
      "name_default": "La Victoria",
      "native": "La Victoria",
      "type": "city",
      "level": null,
      "parent_id": null,
      "population": 11064,
      "latitude": "4.52483000",
      "longitude": "-76.03921000",
      "timezone": "America/Bogota",
      "wikiDataId": "Q1526230",
      "country_code": "CO",
      "state_code": "VAC",
      "state_id": 2904,
      "country_id": 48
    },
    {
      "id": 21144,
      "name": "ओबांडो",
      "name_default": "Obando",
      "native": "Obando",
      "type": "adm2",
      "level": null,
      "parent_id": null,
      "population": 14980,
      "latitude": "4.59590000",
      "longitude": "-75.94879000",
      "timezone": "America/Bogota",
      "wikiDataId": "Q676377",
      "country_code": "CO",
      "state_code": "VAC",
      "state_id": 2904,
      "country_id": 48
    },
    {
      "id": 21173,
      "name": "पामिरा",
      "name_default": "Palmira",
      "native": "Palmira",
      "type": "adm2",
      "level": null,
      "parent_id": null,
      "population": 358895,
      "latitude": "3.53969000",
      "longitude": "-76.22607000",
      "timezone": "America/Bogota",
      "wikiDataId": "Q989858",
      "country_code": "CO",
      "state_code": "VAC",
      "state_id": 2904,
      "country_id": 48
    },
    {
      "id": 21222,
      "name": "प्राडेरा",
      "name_default": "Pradera",
      "native": "Pradera",
      "type": "adm2",
      "level": null,
      "parent_id": null,
      "population": 48843,
      "latitude": "3.42793000",
      "longitude": "-76.17159000",
      "timezone": "America/Bogota",
      "wikiDataId": "Q2433369",
      "country_code": "CO",
      "state_code": "VAC",
      "state_id": 2904,
      "country_id": 48
    },
    {
      "id": 21285,
      "name": "रेस्ट्रेपो",
      "name_default": "Restrepo",
      "native": "Reinterrupo",
      "type": "adm2",
      "level": null,
      "parent_id": null,
      "population": 10178,
      "latitude": "3.82203000",
      "longitude": "-76.52242000",
      "timezone": "America/Bogota",
      "wikiDataId": "Q751122",
      "country_code": "CO",
      "state_code": "VAC",
      "state_id": 2904,
      "country_id": 48
    },
    {
      "id": 21290,
      "name": "रियोफ्रियो",
      "name_default": "Riofrío",
      "native": "Riofrío",
      "type": "adm2",
      "level": null,
      "parent_id": null,
      "population": 9236,
      "latitude": "4.15710000",
      "longitude": "-76.28852000",
      "timezone": "America/Bogota",
      "wikiDataId": "Q23684473",
      "country_code": "CO",
      "state_code": "VAC",
      "state_id": 2904,
      "country_id": 48
    },
    {
      "id": 21298,
      "name": "रोल्डानिलो",
      "name_default": "Roldanillo",
      "native": "Roldanillo",
      "type": "adm2",
      "level": null,
      "parent_id": null,
      "population": 33697,
      "latitude": "4.41256000",
      "longitude": "-76.15457000",
      "timezone": "America/Bogota",
      "wikiDataId": "Q1146669",
      "country_code": "CO",
      "state_code": "VAC",
      "state_id": 2904,
      "country_id": 48
    },
    {
      "id": 21397,
      "name": "सैन पेड्रो",
      "name_default": "San Pedro",
      "native": "San Pedro",
      "type": "city",
      "level": null,
      "parent_id": null,
      "population": 15784,
      "latitude": "3.99936000",
      "longitude": "-76.26123000",
      "timezone": "America/Bogota",
      "wikiDataId": "Q2434300",
      "country_code": "CO",
      "state_code": "VAC",
      "state_id": 2904,
      "country_id": 48
    },
    {
      "id": 21451,
      "name": "सेविला",
      "name_default": "Sevilla",
      "native": "Sevilla",
      "type": "adm2",
      "level": null,
      "parent_id": null,
      "population": 43738,
      "latitude": "4.19345000",
      "longitude": "-75.88829000",
      "timezone": "America/Bogota",
      "wikiDataId": "Q23682643",
      "country_code": "CO",
      "state_code": "VAC",
      "state_id": 2904,
      "country_id": 48
    },
    {
      "id": 21544,
      "name": "टोरो",
      "name_default": "Toro",
      "native": "Visita",
      "type": "adm2",
      "level": null,
      "parent_id": null,
      "population": 15913,
      "latitude": "4.61167000",
      "longitude": "-76.08139000",
      "timezone": "America/Bogota",
      "wikiDataId": "Q1526212",
      "country_code": "CO",
      "state_code": "VAC",
      "state_id": 2904,
      "country_id": 48
    },
    {
      "id": 21549,
      "name": "ट्रूजिलो",
      "name_default": "Trujillo",
      "native": "Trujillo",
      "type": "adm2",
      "level": null,
      "parent_id": null,
      "population": 5874,
      "latitude": "4.23696000",
      "longitude": "-76.34730000",
      "timezone": "America/Bogota",
      "wikiDataId": "Q1525974",
      "country_code": "CO",
      "state_code": "VAC",
      "state_id": 2904,
      "country_id": 48
    },
    {
      "id": 21551,
      "name": "तुलुआ",
      "name_default": "Tuluá",
      "native": "Tuluá",
      "type": "adm2",
      "level": null,
      "parent_id": null,
      "population": 221684,
      "latitude": "4.08466000",
      "longitude": "-76.19536000",
      "timezone": "America/Bogota",
      "wikiDataId": "Q1002577",
      "country_code": "CO",
      "state_code": "VAC",
      "state_id": 2904,
      "country_id": 48
    },
    {
      "id": 21567,
      "name": "उल्लोआ",
      "name_default": "Ulloa",
      "native": "Ulloa",
      "type": "adm2",
      "level": null,
      "parent_id": null,
      "population": 9135,
      "latitude": "4.70745000",
      "longitude": "-75.77781000",
      "timezone": "America/Bogota",
      "wikiDataId": "Q1575644",
      "country_code": "CO",
      "state_code": "VAC",
      "state_id": 2904,
      "country_id": 48
    },
    {
      "id": 21591,
      "name": "वर्सालेस",
      "name_default": "Versalles",
      "native": "Versalles",
      "type": "adm2",
      "level": null,
      "parent_id": null,
      "population": 8270,
      "latitude": "4.66335000",
      "longitude": "-76.24649000",
      "timezone": "America/Bogota",
      "wikiDataId": "Q1575339",
      "country_code": "CO",
      "state_code": "VAC",
      "state_id": 2904,
      "country_id": 48
    },
    {
      "id": 21596,
      "name": "विजेस",
      "name_default": "Vijes",
      "native": "Noticias",
      "type": "adm2",
      "level": null,
      "parent_id": null,
      "population": 9787,
      "latitude": "3.73283000",
      "longitude": "-76.49363000",
      "timezone": "America/Bogota",
      "wikiDataId": "Q1579084",
      "country_code": "CO",
      "state_code": "VAC",
      "state_id": 2904,
      "country_id": 48
    },
    {
      "id": 21627,
      "name": "योटोको",
      "name_default": "Yotoco",
      "native": "Yotoco",
      "type": "adm2",
      "level": null,
      "parent_id": null,
      "population": 8362,
      "latitude": "3.86048000",
      "longitude": "-76.38364000",
      "timezone": "America/Bogota",
      "wikiDataId": "Q543996",
      "country_code": "CO",
      "state_code": "VAC",
      "state_id": 2904,
      "country_id": 48
    },
    {
      "id": 21628,
      "name": "यम्बो",
      "name_default": "Yumbo",
      "native": "Yumbo",
      "type": "adm2",
      "level": null,
      "parent_id": null,
      "population": 71436,
      "latitude": "3.58234000",
      "longitude": "-76.49146000",
      "timezone": "America/Bogota",
      "wikiDataId": "Q735378",
      "country_code": "CO",
      "state_code": "VAC",
      "state_id": 2904,
      "country_id": 48
    },
    {
      "id": 21633,
      "name": "ज़र्ज़ाल",
      "name_default": "Zarzal",
      "native": "Zarzal",
      "type": "adm2",
      "level": null,
      "parent_id": null,
      "population": 28761,
      "latitude": "4.39462000",
      "longitude": "-76.07150000",
      "timezone": "America/Bogota",
      "wikiDataId": "Q2434788",
      "country_code": "CO",
      "state_code": "VAC",
      "state_id": 2904,
      "country_id": 48
    }
  ]
}
