{
  "locale": "zh-CN",
  "country": {
    "id": 173,
    "code": "PE",
    "iso3": "PER",
    "numeric_code": "604",
    "name": "秘鲁",
    "name_default": "Peru",
    "native": "Perú",
    "capital": "Lima",
    "phonecode": "51",
    "currency": "PEN",
    "currency_name": "Peruvian sol",
    "currency_symbol": "S/.",
    "tld": ".pe",
    "population": 34350244,
    "gdp": 303293,
    "region": "Americas",
    "region_id": 2,
    "subregion": "South America",
    "subregion_id": 8,
    "nationality": "Peruvian",
    "timezones": [
      {
        "zoneName": "America/Lima",
        "gmtOffset": -18000,
        "gmtOffsetName": "UTC-05:00",
        "abbreviation": "PET",
        "tzName": "Peru Time"
      }
    ],
    "latitude": "-10.00000000",
    "longitude": "-76.00000000",
    "emoji": "🇵🇪",
    "emojiU": "U+1F1F5 U+1F1EA"
  },
  "state": {
    "id": 3685,
    "code": "AMA",
    "iso2": "AMA",
    "iso3166_2": "PE-AMA",
    "fips_code": "01",
    "name": "亚马逊",
    "name_default": "Amazonas",
    "native": "Amazonas",
    "type": "region",
    "level": null,
    "parent_id": null,
    "population": null,
    "latitude": "-5.00000000",
    "longitude": "-78.00000000",
    "timezone": "America/Lima",
    "wikiDataId": "Q201162",
    "country_code": "PE"
  },
  "cities": [
    {
      "id": 80572,
      "name": "巴瓜大",
      "name_default": "Bagua Grande",
      "native": "Bagua Grande",
      "type": "adm3",
      "level": null,
      "parent_id": null,
      "population": 20382,
      "latitude": "-5.75611000",
      "longitude": "-78.44111000",
      "timezone": "America/Lima",
      "wikiDataId": "Q793765",
      "country_code": "PE",
      "state_code": "AMA",
      "state_id": 3685,
      "country_id": 173
    },
    {
      "id": 80582,
      "name": "卡哈鲁罗",
      "name_default": "Cajaruro",
      "native": "Vale",
      "type": "adm3",
      "level": null,
      "parent_id": null,
      "population": 7281,
      "latitude": "-5.73639000",
      "longitude": "-78.42556000",
      "timezone": "America/Lima",
      "wikiDataId": "Q205119",
      "country_code": "PE",
      "state_code": "AMA",
      "state_id": 3685,
      "country_id": 173
    },
    {
      "id": 80602,
      "name": "查查波亚斯",
      "name_default": "Chachapoyas",
      "native": "Chachapoyas",
      "type": "adm1",
      "level": null,
      "parent_id": null,
      "population": 32026,
      "latitude": "-6.23169000",
      "longitude": "-77.86903000",
      "timezone": "America/Lima",
      "wikiDataId": "Q757133",
      "country_code": "PE",
      "state_code": "AMA",
      "state_id": 3685,
      "country_id": 173
    },
    {
      "id": 80632,
      "name": "秃鹰",
      "name_default": "Condorcanqui",
      "native": "Condorcanqui",
      "type": "city",
      "level": null,
      "parent_id": null,
      "population": 42470,
      "latitude": "-4.16515000",
      "longitude": "-78.03840000",
      "timezone": "America/Lima",
      "wikiDataId": "Q1288434",
      "country_code": "PE",
      "state_code": "AMA",
      "state_id": 3685,
      "country_id": 173
    },
    {
      "id": 80689,
      "name": "拉佩卡",
      "name_default": "La Peca",
      "native": "La Peca",
      "type": "adm3",
      "level": null,
      "parent_id": null,
      "population": 27045,
      "latitude": "-5.61111000",
      "longitude": "-78.43500000",
      "timezone": "America/Lima",
      "wikiDataId": "Q1759360",
      "country_code": "PE",
      "state_code": "AMA",
      "state_id": 3685,
      "country_id": 173
    },
    {
      "id": 80781,
      "name": "巴瓜省",
      "name_default": "Provincia de Bagua",
      "native": "Provincia de Bagua",
      "type": "adm3",
      "level": null,
      "parent_id": null,
      "population": 74100,
      "latitude": "-5.09006000",
      "longitude": "-78.39972000",
      "timezone": "America/Lima",
      "wikiDataId": "Q1366082",
      "country_code": "PE",
      "state_code": "AMA",
      "state_id": 3685,
      "country_id": 173
    },
    {
      "id": 80784,
      "name": "邦加拉省",
      "name_default": "Provincia de Bongará",
      "native": "Provincia de Bongará",
      "type": "city",
      "level": null,
      "parent_id": null,
      "population": 25637,
      "latitude": "-5.68341000",
      "longitude": "-77.87308000",
      "timezone": "America/Lima",
      "wikiDataId": "Q1342814",
      "country_code": "PE",
      "state_code": "AMA",
      "state_id": 3685,
      "country_id": 173
    },
    {
      "id": 80803,
      "name": "查查波亚斯省",
      "name_default": "Provincia de Chachapoyas",
      "native": "Provincia de Chachapoyas",
      "type": "adm3",
      "level": null,
      "parent_id": null,
      "population": 55506,
      "latitude": "-6.27480000",
      "longitude": "-77.81067000",
      "timezone": "America/Lima",
      "wikiDataId": "Q997406",
      "country_code": "PE",
      "state_code": "AMA",
      "state_id": 3685,
      "country_id": 173
    },
    {
      "id": 80857,
      "name": "卢亚省",
      "name_default": "Provincia de Luya",
      "native": "Provincia de Luya",
      "type": "adm3",
      "level": null,
      "parent_id": null,
      "population": 44436,
      "latitude": "-6.41667000",
      "longitude": "-78.00000000",
      "timezone": "America/Lima",
      "wikiDataId": "Q268277",
      "country_code": "PE",
      "state_code": "AMA",
      "state_id": 3685,
      "country_id": 173
    },
    {
      "id": 80885,
      "name": "门多萨罗德里格斯省",
      "name_default": "Provincia de Rodríguez de Mendoza",
      "native": "Provincia de Rodríguez de Mendoza",
      "type": "adm3",
      "level": null,
      "parent_id": null,
      "population": 29998,
      "latitude": "-6.33333000",
      "longitude": "-77.41667000",
      "timezone": "America/Lima",
      "wikiDataId": "Q1366038",
      "country_code": "PE",
      "state_code": "AMA",
      "state_id": 3685,
      "country_id": 173
    },
    {
      "id": 81006,
      "name": "乌特库班巴",
      "name_default": "Utcubamba",
      "native": "Utcubamba",
      "type": "adm3",
      "level": null,
      "parent_id": null,
      "population": 107237,
      "latitude": "-5.77031000",
      "longitude": "-78.32850000",
      "timezone": "America/Lima",
      "wikiDataId": "Q941183",
      "country_code": "PE",
      "state_code": "AMA",
      "state_id": 3685,
      "country_id": 173
    }
  ]
}
