{
  "locale": "zh-CN",
  "country": {
    "id": 218,
    "code": "TZ",
    "iso3": "TZA",
    "numeric_code": "834",
    "name": "坦桑尼亚",
    "name_default": "Tanzania",
    "native": "Tanzania",
    "capital": "Dodoma",
    "phonecode": "255",
    "currency": "TZS",
    "currency_name": "Tanzanian shilling",
    "currency_symbol": "TSh",
    "tld": ".tz",
    "population": 68153004,
    "gdp": 85977,
    "region": "Africa",
    "region_id": 1,
    "subregion": "Eastern Africa",
    "subregion_id": 4,
    "nationality": "Tanzanian",
    "timezones": [
      {
        "zoneName": "Africa/Dar_es_Salaam",
        "gmtOffset": 10800,
        "gmtOffsetName": "UTC+03:00",
        "abbreviation": "EAT",
        "tzName": "East Africa Time"
      }
    ],
    "latitude": "-6.00000000",
    "longitude": "35.00000000",
    "emoji": "🇹🇿",
    "emojiU": "U+1F1F9 U+1F1FF"
  },
  "state": {
    "id": 1476,
    "code": "17",
    "iso2": "17",
    "iso3166_2": "TZ-17",
    "fips_code": "11",
    "name": "姆特瓦拉",
    "name_default": "Mtwara",
    "native": "Mtwara",
    "type": "region",
    "level": null,
    "parent_id": null,
    "population": 140793,
    "latitude": "-10.28381460",
    "longitude": "40.17891360",
    "timezone": "Africa/Dar_es_Salaam",
    "wikiDataId": "Q499465",
    "country_code": "TZ"
  },
  "cities": [
    {
      "id": 109062,
      "name": "奇翁古特瓦",
      "name_default": "Chiungutwa",
      "native": "Chiungutwa",
      "type": "city",
      "level": null,
      "parent_id": null,
      "population": 12764,
      "latitude": "-10.88333000",
      "longitude": "38.98333000",
      "timezone": "Africa/Dar_es_Salaam",
      "wikiDataId": "Q993159",
      "country_code": "TZ",
      "state_code": "17",
      "state_id": 1476,
      "country_id": 218
    },
    {
      "id": 109129,
      "name": "北玉",
      "name_default": "Kitama",
      "native": "Kitama",
      "type": "city",
      "level": null,
      "parent_id": null,
      "population": 16232,
      "latitude": "-10.71667000",
      "longitude": "39.73333000",
      "timezone": "Africa/Dar_es_Salaam",
      "wikiDataId": "Q11929863",
      "country_code": "TZ",
      "state_code": "17",
      "state_id": 1476,
      "country_id": 218
    },
    {
      "id": 109130,
      "name": "基坦加里",
      "name_default": "Kitangari",
      "native": "Mfalme",
      "type": "city",
      "level": null,
      "parent_id": null,
      "population": 10956,
      "latitude": "-10.65000000",
      "longitude": "39.33333000",
      "timezone": "Africa/Dar_es_Salaam",
      "wikiDataId": "Q11929863",
      "country_code": "TZ",
      "state_code": "17",
      "state_id": 1476,
      "country_id": 218
    },
    {
      "id": 109145,
      "name": "卢欣古",
      "name_default": "Luchingu",
      "native": "Luchilums",
      "type": "city",
      "level": null,
      "parent_id": null,
      "population": 25145,
      "latitude": "-10.90000000",
      "longitude": "39.33333000",
      "timezone": "Africa/Dar_es_Salaam",
      "wikiDataId": "Q6673922",
      "country_code": "TZ",
      "state_code": "17",
      "state_id": 1476,
      "country_id": 218
    },
    {
      "id": 109147,
      "name": "卢库莱迪",
      "name_default": "Lukuledi",
      "native": "Lunguledi",
      "type": "city",
      "level": null,
      "parent_id": null,
      "population": 29699,
      "latitude": "-10.56667000",
      "longitude": "38.80000000",
      "timezone": "Africa/Dar_es_Salaam",
      "wikiDataId": "Q1877120",
      "country_code": "TZ",
      "state_code": "17",
      "state_id": 1476,
      "country_id": 218
    },
    {
      "id": 109148,
      "name": "卢林迪",
      "name_default": "Lulindi",
      "native": "Lulindi",
      "type": "city",
      "level": null,
      "parent_id": null,
      "population": 7807,
      "latitude": "-10.81667000",
      "longitude": "39.13333000",
      "timezone": "Africa/Dar_es_Salaam",
      "wikiDataId": "Q1877120",
      "country_code": "TZ",
      "state_code": "17",
      "state_id": 1476,
      "country_id": 218
    },
    {
      "id": 109153,
      "name": "马迪姆巴",
      "name_default": "Madimba",
      "native": "Madimba",
      "type": "city",
      "level": null,
      "parent_id": null,
      "population": 12507,
      "latitude": "-10.40000000",
      "longitude": "40.33333000",
      "timezone": "Africa/Dar_es_Salaam",
      "wikiDataId": "Q35722319",
      "country_code": "TZ",
      "state_code": "17",
      "state_id": 1476,
      "country_id": 218
    },
    {
      "id": 109162,
      "name": "马胡塔",
      "name_default": "Mahuta",
      "native": "Mahuta",
      "type": "city",
      "level": null,
      "parent_id": null,
      "population": 13548,
      "latitude": "-10.86667000",
      "longitude": "39.45000000",
      "timezone": "Africa/Dar_es_Salaam",
      "wikiDataId": "Q13123849",
      "country_code": "TZ",
      "state_code": "17",
      "state_id": 1476,
      "country_id": 218
    },
    {
      "id": 109176,
      "name": "马萨西",
      "name_default": "Masasi",
      "native": "Masasi",
      "type": "city",
      "level": null,
      "parent_id": null,
      "population": 89700,
      "latitude": "-10.71667000",
      "longitude": "38.80000000",
      "timezone": "Africa/Dar_es_Salaam",
      "wikiDataId": "Q6272925",
      "country_code": "TZ",
      "state_code": "17",
      "state_id": 1476,
      "country_id": 218
    },
    {
      "id": 109177,
      "name": "马古鲁",
      "name_default": "Masuguru",
      "native": "Masuguru",
      "type": "city",
      "level": null,
      "parent_id": null,
      "population": 7946,
      "latitude": "-11.36667000",
      "longitude": "38.41667000",
      "timezone": "Africa/Dar_es_Salaam",
      "wikiDataId": "Q6272925",
      "country_code": "TZ",
      "state_code": "17",
      "state_id": 1476,
      "country_id": 218
    },
    {
      "id": 109220,
      "name": "姆特瓦拉",
      "name_default": "Mtwara",
      "native": "Mtwara",
      "type": "adm1",
      "level": null,
      "parent_id": null,
      "population": 140793,
      "latitude": "-10.26667000",
      "longitude": "40.18333000",
      "timezone": "Africa/Dar_es_Salaam",
      "wikiDataId": "Q646684",
      "country_code": "TZ",
      "state_code": "17",
      "state_id": 1476,
      "country_id": 218
    },
    {
      "id": 109237,
      "name": "纳马伦加",
      "name_default": "Namalenga",
      "native": "Prosing imeundwa",
      "type": "city",
      "level": null,
      "parent_id": null,
      "population": 11204,
      "latitude": "-10.95000000",
      "longitude": "39.10000000",
      "timezone": "Africa/Dar_es_Salaam",
      "wikiDataId": "Q13124414",
      "country_code": "TZ",
      "state_code": "17",
      "state_id": 1476,
      "country_id": 218
    },
    {
      "id": 109240,
      "name": "纳米库帕",
      "name_default": "Namikupa",
      "native": "Namikupa",
      "type": "city",
      "level": null,
      "parent_id": null,
      "population": 11733,
      "latitude": "-10.83333000",
      "longitude": "39.60000000",
      "timezone": "Africa/Dar_es_Salaam",
      "wikiDataId": "Q6961283",
      "country_code": "TZ",
      "state_code": "17",
      "state_id": 1476,
      "country_id": 218
    },
    {
      "id": 109241,
      "name": "南甘加",
      "name_default": "Nanganga",
      "native": "Nanganga",
      "type": "city",
      "level": null,
      "parent_id": null,
      "population": 17468,
      "latitude": "-10.38333000",
      "longitude": "39.15000000",
      "timezone": "Africa/Dar_es_Salaam",
      "wikiDataId": "Q49357302",
      "country_code": "TZ",
      "state_code": "17",
      "state_id": 1476,
      "country_id": 218
    },
    {
      "id": 109242,
      "name": "南贡巴",
      "name_default": "Nangomba",
      "native": "Na jumla",
      "type": "city",
      "level": null,
      "parent_id": null,
      "population": 23028,
      "latitude": "-10.90000000",
      "longitude": "38.50000000",
      "timezone": "Africa/Dar_es_Salaam",
      "wikiDataId": "Q49357302",
      "country_code": "TZ",
      "state_code": "17",
      "state_id": 1476,
      "country_id": 218
    },
    {
      "id": 109244,
      "name": "南海扬加",
      "name_default": "Nanhyanga",
      "native": "Nannah",
      "type": "city",
      "level": null,
      "parent_id": null,
      "population": 13519,
      "latitude": "-10.80000000",
      "longitude": "39.55000000",
      "timezone": "Africa/Dar_es_Salaam",
      "wikiDataId": "Q20622164",
      "country_code": "TZ",
      "state_code": "17",
      "state_id": 1476,
      "country_id": 218
    },
    {
      "id": 109246,
      "name": "南亚姆巴",
      "name_default": "Nanyamba",
      "native": "Nanyamba",
      "type": "city",
      "level": null,
      "parent_id": null,
      "population": 19555,
      "latitude": "-10.68333000",
      "longitude": "39.83333000",
      "timezone": "Africa/Dar_es_Salaam",
      "wikiDataId": "Q20622213",
      "country_code": "TZ",
      "state_code": "17",
      "state_id": 1476,
      "country_id": 218
    },
    {
      "id": 109249,
      "name": "纽瓦拉·基西马尼",
      "name_default": "Newala Kisimani",
      "native": "Newala Kisimani",
      "type": "city",
      "level": null,
      "parent_id": null,
      "population": 38099,
      "latitude": "-10.95000000",
      "longitude": "39.28333000",
      "timezone": "Africa/Dar_es_Salaam",
      "wikiDataId": "Q49357481",
      "country_code": "TZ",
      "state_code": "17",
      "state_id": 1476,
      "country_id": 218
    },
    {
      "id": 109288,
      "name": "坦达欣巴",
      "name_default": "Tandahimba",
      "native": "Tandahimba",
      "type": "city",
      "level": null,
      "parent_id": null,
      "population": 20000,
      "latitude": "-10.75000000",
      "longitude": "39.63333000",
      "timezone": "Africa/Dar_es_Salaam",
      "wikiDataId": "Q643112",
      "country_code": "TZ",
      "state_code": "17",
      "state_id": 1476,
      "country_id": 218
    }
  ]
}
