{
  "locale": "hi",
  "country": {
    "id": 198,
    "code": "SL",
    "iso3": "SLE",
    "numeric_code": "694",
    "name": "सेरा लिओन",
    "name_default": "Sierra Leone",
    "native": "Sierra Leone",
    "capital": "Freetown",
    "phonecode": "232",
    "currency": "SLL",
    "currency_name": "Sierra Leonean leone",
    "currency_symbol": "Le",
    "tld": ".sl",
    "population": 9077691,
    "gdp": 8386,
    "region": "Africa",
    "region_id": 1,
    "subregion": "Western Africa",
    "subregion_id": 3,
    "nationality": "Sierra Leonean",
    "timezones": [
      {
        "zoneName": "Africa/Freetown",
        "gmtOffset": 0,
        "gmtOffsetName": "UTC±00",
        "abbreviation": "GMT",
        "tzName": "Greenwich Mean Time"
      }
    ],
    "latitude": "8.50000000",
    "longitude": "-11.50000000",
    "emoji": "🇸🇱",
    "emojiU": "U+1F1F8 U+1F1F1"
  },
  "state": {
    "id": 914,
    "code": "E",
    "iso2": "E",
    "iso3166_2": "SL-E",
    "fips_code": "01",
    "name": "पूर्वी",
    "name_default": "Eastern",
    "native": "Eastern",
    "type": "province",
    "level": null,
    "parent_id": null,
    "population": null,
    "latitude": "8.20509710",
    "longitude": "-10.84373830",
    "timezone": "Africa/Freetown",
    "wikiDataId": "Q1050497",
    "country_code": "SL"
  },
  "cities": [
    {
      "id": 104606,
      "name": "बर्मा",
      "name_default": "Barma",
      "native": "Bare",
      "type": "city",
      "level": null,
      "parent_id": null,
      "population": 7529,
      "latitude": "8.34959000",
      "longitude": "-11.33059000",
      "timezone": "Africa/Freetown",
      "wikiDataId": "Q31911183",
      "country_code": "SL",
      "state_code": "E",
      "state_id": 914,
      "country_id": 198
    },
    {
      "id": 104609,
      "name": "ब्लामा",
      "name_default": "Blama",
      "native": "Blamma",
      "type": "city",
      "level": null,
      "parent_id": null,
      "population": 8146,
      "latitude": "7.87481000",
      "longitude": "-11.34548000",
      "timezone": "Africa/Freetown",
      "wikiDataId": "Q31916963",
      "country_code": "SL",
      "state_code": "E",
      "state_id": 914,
      "country_id": 198
    },
    {
      "id": 104612,
      "name": "बोजिबू",
      "name_default": "Boajibu",
      "native": "Boajibu",
      "type": "city",
      "level": null,
      "parent_id": null,
      "population": 7384,
      "latitude": "8.18763000",
      "longitude": "-11.34026000",
      "timezone": "Africa/Freetown",
      "wikiDataId": "Q4931229",
      "country_code": "SL",
      "state_code": "E",
      "state_id": 914,
      "country_id": 198
    },
    {
      "id": 104617,
      "name": "बुएदु",
      "name_default": "Buedu",
      "native": "This",
      "type": "city",
      "level": null,
      "parent_id": null,
      "population": 5412,
      "latitude": "8.27960000",
      "longitude": "-10.37135000",
      "timezone": "Africa/Freetown",
      "wikiDataId": "Q34783819",
      "country_code": "SL",
      "state_code": "E",
      "state_id": 914,
      "country_id": 198
    },
    {
      "id": 104620,
      "name": "बुनुम्बु",
      "name_default": "Bunumbu",
      "native": "Hundreds",
      "type": "city",
      "level": null,
      "parent_id": null,
      "population": 7355,
      "latitude": "8.17421000",
      "longitude": "-10.86432000",
      "timezone": "Africa/Freetown",
      "wikiDataId": "Q34784512",
      "country_code": "SL",
      "state_code": "E",
      "state_id": 914,
      "country_id": 198
    },
    {
      "id": 104621,
      "name": "दारु",
      "name_default": "Daru",
      "native": "Daru",
      "type": "city",
      "level": null,
      "parent_id": null,
      "population": 5958,
      "latitude": "7.98976000",
      "longitude": "-10.84223000",
      "timezone": "Africa/Freetown",
      "wikiDataId": "Q34784512",
      "country_code": "SL",
      "state_code": "E",
      "state_id": 914,
      "country_id": 198
    },
    {
      "id": 104627,
      "name": "गीहुन",
      "name_default": "Giehun",
      "native": "Giehun",
      "type": "city",
      "level": null,
      "parent_id": null,
      "population": 3350,
      "latitude": "7.88405000",
      "longitude": "-11.04908000",
      "timezone": "Africa/Freetown",
      "wikiDataId": "Q3012892",
      "country_code": "SL",
      "state_code": "E",
      "state_id": 914,
      "country_id": 198
    },
    {
      "id": 104628,
      "name": "गोराहुन",
      "name_default": "Gorahun",
      "native": "Gorahun",
      "type": "city",
      "level": null,
      "parent_id": null,
      "population": 4089,
      "latitude": "7.46439000",
      "longitude": "-11.23952000",
      "timezone": "Africa/Freetown",
      "wikiDataId": "Q3012892",
      "country_code": "SL",
      "state_code": "E",
      "state_id": 914,
      "country_id": 198
    },
    {
      "id": 104629,
      "name": "हंगा",
      "name_default": "Hangha",
      "native": "Immediately",
      "type": "city",
      "level": null,
      "parent_id": null,
      "population": 5007,
      "latitude": "7.93974000",
      "longitude": "-11.14132000",
      "timezone": "Africa/Freetown",
      "wikiDataId": "Q3012892",
      "country_code": "SL",
      "state_code": "E",
      "state_id": 914,
      "country_id": 198
    },
    {
      "id": 104631,
      "name": "जोजोइमा",
      "name_default": "Jojoima",
      "native": "Jojoima",
      "type": "city",
      "level": null,
      "parent_id": null,
      "population": 3136,
      "latitude": "7.87815000",
      "longitude": "-10.78976000",
      "timezone": "Africa/Freetown",
      "wikiDataId": "Q3012892",
      "country_code": "SL",
      "state_code": "E",
      "state_id": 914,
      "country_id": 198
    },
    {
      "id": 104633,
      "name": "कैलाहुन",
      "name_default": "Kailahun",
      "native": "Kilahun",
      "type": "city",
      "level": null,
      "parent_id": null,
      "population": 14085,
      "latitude": "8.27890000",
      "longitude": "-10.57300000",
      "timezone": "Africa/Freetown",
      "wikiDataId": "Q1721432",
      "country_code": "SL",
      "state_code": "E",
      "state_id": 914,
      "country_id": 198
    },
    {
      "id": 104634,
      "name": "कैलाहुन जिला",
      "name_default": "Kailahun District",
      "native": "Cahaleun District",
      "type": "district",
      "level": null,
      "parent_id": null,
      "population": 409520,
      "latitude": "8.10768000",
      "longitude": "-10.75146000",
      "timezone": "Africa/Freetown",
      "wikiDataId": "Q1721443",
      "country_code": "SL",
      "state_code": "E",
      "state_id": 914,
      "country_id": 198
    },
    {
      "id": 104638,
      "name": "कयिमा",
      "name_default": "Kayima",
      "native": "Kayima",
      "type": "city",
      "level": null,
      "parent_id": null,
      "population": 1881,
      "latitude": "8.88790000",
      "longitude": "-11.15932000",
      "timezone": "Africa/Freetown",
      "wikiDataId": "Q1722889",
      "country_code": "SL",
      "state_code": "E",
      "state_id": 914,
      "country_id": 198
    },
    {
      "id": 104639,
      "name": "केनेमा",
      "name_default": "Kenema",
      "native": "Stoam",
      "type": "adm1",
      "level": null,
      "parent_id": null,
      "population": 143137,
      "latitude": "7.87687000",
      "longitude": "-11.19025000",
      "timezone": "Africa/Freetown",
      "wikiDataId": "Q634698",
      "country_code": "SL",
      "state_code": "E",
      "state_id": 914,
      "country_id": 198
    },
    {
      "id": 104640,
      "name": "केनेमा जिला",
      "name_default": "Kenema District",
      "native": "Kenema District",
      "type": "district",
      "level": null,
      "parent_id": null,
      "population": 143137,
      "latitude": "7.95171000",
      "longitude": "-11.19004000",
      "timezone": "Africa/Freetown",
      "wikiDataId": "Q1738741",
      "country_code": "SL",
      "state_code": "E",
      "state_id": 914,
      "country_id": 198
    },
    {
      "id": 104642,
      "name": "कोइदु",
      "name_default": "Koidu",
      "native": "Dawn",
      "type": "city",
      "level": null,
      "parent_id": null,
      "population": 124662,
      "latitude": "8.64387000",
      "longitude": "-10.97140000",
      "timezone": "Africa/Freetown",
      "wikiDataId": "Q1002580",
      "country_code": "SL",
      "state_code": "E",
      "state_id": 914,
      "country_id": 198
    },
    {
      "id": 104645,
      "name": "कोनो जिला",
      "name_default": "Kono",
      "native": "Kono District",
      "type": "district",
      "level": null,
      "parent_id": null,
      "population": 505767,
      "latitude": "8.70687000",
      "longitude": "-10.93368000",
      "timezone": "Africa/Freetown",
      "wikiDataId": "Q1781849",
      "country_code": "SL",
      "state_code": "E",
      "state_id": 914,
      "country_id": 198
    },
    {
      "id": 104647,
      "name": "कोइमा",
      "name_default": "Koyima",
      "native": "Tait",
      "type": "city",
      "level": null,
      "parent_id": null,
      "population": 2705,
      "latitude": "8.70552000",
      "longitude": "-11.02241000",
      "timezone": "Africa/Freetown",
      "wikiDataId": "Q1781849",
      "country_code": "SL",
      "state_code": "E",
      "state_id": 914,
      "country_id": 198
    },
    {
      "id": 104658,
      "name": "मनोवा",
      "name_default": "Manowa",
      "native": "Daughter",
      "type": "city",
      "level": null,
      "parent_id": null,
      "population": 4214,
      "latitude": "8.17392000",
      "longitude": "-10.74834000",
      "timezone": "Africa/Freetown",
      "wikiDataId": "Q42678",
      "country_code": "SL",
      "state_code": "E",
      "state_id": 914,
      "country_id": 198
    },
    {
      "id": 104662,
      "name": "मोबाई",
      "name_default": "Mobai",
      "native": "Mobai",
      "type": "city",
      "level": null,
      "parent_id": null,
      "population": 3441,
      "latitude": "7.99343000",
      "longitude": "-10.75355000",
      "timezone": "Africa/Freetown",
      "wikiDataId": "Q42678",
      "country_code": "SL",
      "state_code": "E",
      "state_id": 914,
      "country_id": 198
    },
    {
      "id": 104664,
      "name": "मोटेमा",
      "name_default": "Motema",
      "native": "Motema",
      "type": "city",
      "level": null,
      "parent_id": null,
      "population": 5474,
      "latitude": "8.61427000",
      "longitude": "-11.01252000",
      "timezone": "Africa/Freetown",
      "wikiDataId": "Q42678",
      "country_code": "SL",
      "state_code": "E",
      "state_id": 914,
      "country_id": 198
    },
    {
      "id": 104668,
      "name": "पंगुमा",
      "name_default": "Panguma",
      "native": "farming",
      "type": "city",
      "level": null,
      "parent_id": null,
      "population": 7965,
      "latitude": "8.18507000",
      "longitude": "-11.13290000",
      "timezone": "Africa/Freetown",
      "wikiDataId": "Q4843232",
      "country_code": "SL",
      "state_code": "E",
      "state_id": 914,
      "country_id": 198
    },
    {
      "id": 104669,
      "name": "पेंडेम्बु",
      "name_default": "Pendembu",
      "native": "Pemudu",
      "type": "city",
      "level": null,
      "parent_id": null,
      "population": 8780,
      "latitude": "8.09807000",
      "longitude": "-10.69429000",
      "timezone": "Africa/Freetown",
      "wikiDataId": "Q2913209",
      "country_code": "SL",
      "state_code": "E",
      "state_id": 914,
      "country_id": 198
    },
    {
      "id": 104677,
      "name": "सेगब्वेमा",
      "name_default": "Segbwema",
      "native": "Segbwema",
      "type": "city",
      "level": null,
      "parent_id": null,
      "population": 16532,
      "latitude": "7.99471000",
      "longitude": "-10.95020000",
      "timezone": "Africa/Freetown",
      "wikiDataId": "Q2946720",
      "country_code": "SL",
      "state_code": "E",
      "state_id": 914,
      "country_id": 198
    },
    {
      "id": 104680,
      "name": "सिम्बाकोरो",
      "name_default": "Simbakoro",
      "native": "Cutorokorokoronoro",
      "type": "city",
      "level": null,
      "parent_id": null,
      "population": 2514,
      "latitude": "8.61243000",
      "longitude": "-11.00755000",
      "timezone": "Africa/Freetown",
      "wikiDataId": "Q2946720",
      "country_code": "SL",
      "state_code": "E",
      "state_id": 914,
      "country_id": 198
    },
    {
      "id": 104682,
      "name": "तेफ़ेया",
      "name_default": "Tefeya",
      "native": "Teşeya",
      "type": "city",
      "level": null,
      "parent_id": null,
      "population": 3544,
      "latitude": "8.70395000",
      "longitude": "-11.21260000",
      "timezone": "Africa/Freetown",
      "wikiDataId": "Q49368461",
      "country_code": "SL",
      "state_code": "E",
      "state_id": 914,
      "country_id": 198
    },
    {
      "id": 104684,
      "name": "तोम्बोडु",
      "name_default": "Tombodu",
      "native": "Tombodu",
      "type": "city",
      "level": null,
      "parent_id": null,
      "population": 5985,
      "latitude": "8.13526000",
      "longitude": "-10.61960000",
      "timezone": "Africa/Freetown",
      "wikiDataId": "Q7818691",
      "country_code": "SL",
      "state_code": "E",
      "state_id": 914,
      "country_id": 198
    },
    {
      "id": 104685,
      "name": "तोम्बू",
      "name_default": "Tombu",
      "native": "Shot",
      "type": "city",
      "level": null,
      "parent_id": null,
      "population": 4005,
      "latitude": "8.53991000",
      "longitude": "-10.73132000",
      "timezone": "Africa/Freetown",
      "wikiDataId": "Q7818691",
      "country_code": "SL",
      "state_code": "E",
      "state_id": 914,
      "country_id": 198
    },
    {
      "id": 104689,
      "name": "विमा",
      "name_default": "Wima",
      "native": "Vertical",
      "type": "city",
      "level": null,
      "parent_id": null,
      "population": 3691,
      "latitude": "8.30052000",
      "longitude": "-11.20455000",
      "timezone": "Africa/Freetown",
      "wikiDataId": "Q623241",
      "country_code": "SL",
      "state_code": "E",
      "state_id": 914,
      "country_id": 198
    },
    {
      "id": 104690,
      "name": "येंगेमा",
      "name_default": "Yengema",
      "native": "Add",
      "type": "city",
      "level": null,
      "parent_id": null,
      "population": 13358,
      "latitude": "8.71441000",
      "longitude": "-11.17057000",
      "timezone": "Africa/Freetown",
      "wikiDataId": "Q1000327",
      "country_code": "SL",
      "state_code": "E",
      "state_id": 914,
      "country_id": 198
    }
  ]
}
