{
  "locale": "it",
  "country": {
    "id": 149,
    "code": "MA",
    "iso3": "MAR",
    "numeric_code": "504",
    "name": "Marocco",
    "name_default": "Morocco",
    "native": "المغرب",
    "capital": "Rabat",
    "phonecode": "212",
    "currency": "MAD",
    "currency_name": "Moroccan dirham",
    "currency_symbol": "DH",
    "tld": ".ma",
    "population": 36828330,
    "gdp": 165835,
    "region": "Africa",
    "region_id": 1,
    "subregion": "Northern Africa",
    "subregion_id": 1,
    "nationality": "Moroccan",
    "timezones": [
      {
        "zoneName": "Africa/Casablanca",
        "gmtOffset": 3600,
        "gmtOffsetName": "UTC+01:00",
        "abbreviation": "WEST",
        "tzName": "Western European Summer Time"
      },
      {
        "zoneName": "Africa/El_Aaiun",
        "gmtOffset": 3600,
        "gmtOffsetName": "UTC+01:00",
        "abbreviation": "WEST",
        "tzName": "Western Sahara Time"
      }
    ],
    "latitude": "32.00000000",
    "longitude": "-5.00000000",
    "emoji": "🇲🇦",
    "emojiU": "U+1F1F2 U+1F1E6"
  },
  "state": {
    "id": 3290,
    "code": "08",
    "iso2": "08",
    "iso3166_2": "MA-08",
    "fips_code": "08",
    "name": "Drâa-Tafilalet",
    "name_default": "Drâa-Tafilalet",
    "native": "درعة تافيلالت",
    "type": "region",
    "level": "1",
    "parent_id": null,
    "population": 1635008,
    "latitude": "31.18354320",
    "longitude": "-5.13954350",
    "timezone": "Africa/Casablanca",
    "wikiDataId": "Q19950954",
    "country_code": "MA"
  },
  "cities": [
    {
      "id": 67049,
      "name": "Agdz",
      "name_default": "Agdz",
      "native": "أكدز",
      "type": "adm3",
      "level": null,
      "parent_id": null,
      "population": 11189,
      "latitude": "30.69356000",
      "longitude": "-6.44628000",
      "timezone": "Africa/Casablanca",
      "wikiDataId": "Q2717415",
      "country_code": "MA",
      "state_code": "08",
      "state_id": 3290,
      "country_id": 149
    },
    {
      "id": 67060,
      "name": "Alnif",
      "name_default": "Alnif",
      "native": "النيف",
      "type": "adm3",
      "level": null,
      "parent_id": null,
      "population": 5162,
      "latitude": "31.11411000",
      "longitude": "-5.17154000",
      "timezone": "Africa/Casablanca",
      "wikiDataId": "Q984312",
      "country_code": "MA",
      "state_code": "08",
      "state_id": 3290,
      "country_id": 149
    },
    {
      "id": 67061,
      "name": "Aoufous",
      "name_default": "Aoufous",
      "native": "عوفوس",
      "type": "adm3",
      "level": null,
      "parent_id": null,
      "population": 1295,
      "latitude": "31.68000000",
      "longitude": "-4.17000000",
      "timezone": "Africa/Casablanca",
      "wikiDataId": "Q2857997",
      "country_code": "MA",
      "state_code": "08",
      "state_id": 3290,
      "country_id": 149
    },
    {
      "id": 67067,
      "name": "Arfoud",
      "name_default": "Arfoud",
      "native": "أرفود",
      "type": "city",
      "level": null,
      "parent_id": null,
      "population": 31971,
      "latitude": "31.43530000",
      "longitude": "-4.23258000",
      "timezone": "Africa/Casablanca",
      "wikiDataId": "Q648987",
      "country_code": "MA",
      "state_code": "08",
      "state_id": 3290,
      "country_id": 149
    },
    {
      "id": 67114,
      "name": "Errachidia",
      "name_default": "Errachidia",
      "native": "الرشيدية",
      "type": "city",
      "level": null,
      "parent_id": null,
      "population": 97687,
      "latitude": "31.75000000",
      "longitude": "-4.50000000",
      "timezone": "Africa/Casablanca",
      "wikiDataId": "Q2024447",
      "country_code": "MA",
      "state_code": "08",
      "state_id": 3290,
      "country_id": 149
    },
    {
      "id": 67133,
      "name": "Imilchil",
      "name_default": "Imilchil",
      "native": "إميلشيل",
      "type": "adm3",
      "level": null,
      "parent_id": null,
      "population": 0,
      "latitude": "32.15309000",
      "longitude": "-5.62453000",
      "timezone": "Africa/Casablanca",
      "wikiDataId": "Q2676569",
      "country_code": "MA",
      "state_code": "08",
      "state_id": 3290,
      "country_id": 149
    },
    {
      "id": 67140,
      "name": "Jebel Tiskaouine",
      "name_default": "Jebel Tiskaouine",
      "native": "جبل تسكاوين",
      "type": "city",
      "level": null,
      "parent_id": null,
      "population": 1197,
      "latitude": "31.02722000",
      "longitude": "-5.11643000",
      "timezone": "Africa/Casablanca",
      "wikiDataId": "Q3156016",
      "country_code": "MA",
      "state_code": "08",
      "state_id": 3290,
      "country_id": 149
    },
    {
      "id": 67142,
      "name": "Jorf",
      "name_default": "Jorf",
      "native": "جورف",
      "type": "adm3",
      "level": null,
      "parent_id": null,
      "population": 11865,
      "latitude": "31.49442000",
      "longitude": "-4.40598000",
      "timezone": "Africa/Casablanca",
      "wikiDataId": "Q1276800",
      "country_code": "MA",
      "state_code": "08",
      "state_id": 3290,
      "country_id": 149
    },
    {
      "id": 67145,
      "name": "Kelaat Mgouna",
      "name_default": "Kelaat Mgouna",
      "native": "قلعة مكونة",
      "type": "city",
      "level": null,
      "parent_id": null,
      "population": 18515,
      "latitude": "31.24573000",
      "longitude": "-6.13260000",
      "timezone": "Africa/Casablanca",
      "wikiDataId": "Q1018286",
      "country_code": "MA",
      "state_code": "08",
      "state_id": 3290,
      "country_id": 149
    },
    {
      "id": 67165,
      "name": "Mhamid",
      "name_default": "Mhamid",
      "native": "محاميد",
      "type": "city",
      "level": null,
      "parent_id": null,
      "population": 10000,
      "latitude": "29.82000000",
      "longitude": "-5.72000000",
      "timezone": "Africa/Casablanca",
      "wikiDataId": "Q178663",
      "country_code": "MA",
      "state_code": "08",
      "state_id": 3290,
      "country_id": 149
    },
    {
      "id": 67168,
      "name": "Midelt",
      "name_default": "Midelt",
      "native": "ميدلت",
      "type": "adm3",
      "level": null,
      "parent_id": null,
      "population": 62648,
      "latitude": "32.68055000",
      "longitude": "-4.73691000",
      "timezone": "Africa/Casablanca",
      "wikiDataId": "Q2501809",
      "country_code": "MA",
      "state_code": "08",
      "state_id": 3290,
      "country_id": 149
    },
    {
      "id": 67177,
      "name": "Ouarzazate",
      "name_default": "Ouarzazat",
      "native": "ورزازات",
      "type": "adm2",
      "level": null,
      "parent_id": null,
      "population": 77603,
      "latitude": "30.91894000",
      "longitude": "-6.89341000",
      "timezone": "Africa/Casablanca",
      "wikiDataId": "Q505208",
      "country_code": "MA",
      "state_code": "08",
      "state_id": 3290,
      "country_id": 149
    },
    {
      "id": 67178,
      "name": "Ouarzazate",
      "name_default": "Ouarzazate",
      "native": "ورزازات",
      "type": "adm2",
      "level": null,
      "parent_id": null,
      "population": 79218,
      "latitude": "30.94130000",
      "longitude": "-6.90285000",
      "timezone": "Africa/Casablanca",
      "wikiDataId": "Q1629229",
      "country_code": "MA",
      "state_code": "08",
      "state_id": 3290,
      "country_id": 149
    },
    {
      "id": 67196,
      "name": "Reçani",
      "name_default": "Reçani",
      "native": "ريشاني",
      "type": "city",
      "level": null,
      "parent_id": null,
      "population": 20469,
      "latitude": "31.28318000",
      "longitude": "-4.26565000",
      "timezone": "Africa/Casablanca",
      "wikiDataId": "Q2154823",
      "country_code": "MA",
      "state_code": "08",
      "state_id": 3290,
      "country_id": 149
    },
    {
      "id": 67246,
      "name": "Taznakht",
      "name_default": "Taznakht",
      "native": "تازناخت",
      "type": "adm3",
      "level": null,
      "parent_id": null,
      "population": 7950,
      "latitude": "30.57836000",
      "longitude": "-7.20341000",
      "timezone": "Africa/Casablanca",
      "wikiDataId": "Q13420293",
      "country_code": "MA",
      "state_code": "08",
      "state_id": 3290,
      "country_id": 149
    },
    {
      "id": 67247,
      "name": "Telouet",
      "name_default": "Telouet",
      "native": "تيلويت",
      "type": "adm3",
      "level": null,
      "parent_id": null,
      "population": 0,
      "latitude": "31.28925000",
      "longitude": "-7.23789000",
      "timezone": "Africa/Casablanca",
      "wikiDataId": "Q1010760",
      "country_code": "MA",
      "state_code": "08",
      "state_id": 3290,
      "country_id": 149
    },
    {
      "id": 67255,
      "name": "Tingher",
      "name_default": "Tinghir",
      "native": "تنغير",
      "type": "adm2",
      "level": null,
      "parent_id": null,
      "population": 44239,
      "latitude": "31.51472000",
      "longitude": "-5.53278000",
      "timezone": "Africa/Casablanca",
      "wikiDataId": "Q335141",
      "country_code": "MA",
      "state_code": "08",
      "state_id": 3290,
      "country_id": 149
    },
    {
      "id": 67256,
      "name": "Provincia di Tinghir",
      "name_default": "Tinghir Province",
      "native": "إقليم تنغير",
      "type": "province",
      "level": null,
      "parent_id": null,
      "population": 45911,
      "latitude": "31.51965000",
      "longitude": "-5.52999000",
      "timezone": "Africa/Casablanca",
      "wikiDataId": "Q335141",
      "country_code": "MA",
      "state_code": "08",
      "state_id": 3290,
      "country_id": 149
    },
    {
      "id": 67264,
      "name": "Zagora",
      "name_default": "Zagora",
      "native": "زاكورة",
      "type": "adm3",
      "level": null,
      "parent_id": null,
      "population": 42294,
      "latitude": "30.34839000",
      "longitude": "-5.83649000",
      "timezone": "Africa/Casablanca",
      "wikiDataId": "Q2265471",
      "country_code": "MA",
      "state_code": "08",
      "state_id": 3290,
      "country_id": 149
    }
  ]
}
