{
  "locale": "ja",
  "country": {
    "id": 55,
    "code": "HR",
    "iso3": "HRV",
    "numeric_code": "191",
    "name": "クロアチア",
    "name_default": "Croatia",
    "native": "Hrvatska",
    "capital": "Zagreb",
    "phonecode": "385",
    "currency": "EUR",
    "currency_name": "Euro",
    "currency_symbol": "€",
    "tld": ".hr",
    "population": 3866233,
    "gdp": 98951,
    "region": "Europe",
    "region_id": 4,
    "subregion": "Southern Europe",
    "subregion_id": 16,
    "nationality": "Croatian",
    "timezones": [
      {
        "zoneName": "Europe/Zagreb",
        "gmtOffset": 3600,
        "gmtOffsetName": "UTC+01:00",
        "abbreviation": "CET",
        "tzName": "Central European Time"
      }
    ],
    "latitude": "45.16666666",
    "longitude": "15.50000000",
    "emoji": "🇭🇷",
    "emojiU": "U+1F1ED U+1F1F7"
  },
  "state": {
    "id": 731,
    "code": "09",
    "iso2": "09",
    "iso3166_2": "HR-09",
    "fips_code": "08",
    "name": "リカ・セニ",
    "name_default": "Lika-Senj",
    "native": "Lika-Senj",
    "type": "county",
    "level": null,
    "parent_id": null,
    "population": 42469,
    "latitude": "44.66818000",
    "longitude": "15.33246960",
    "timezone": "Europe/Zagreb",
    "wikiDataId": "Q58081",
    "country_code": "HR"
  },
  "cities": [
    {
      "id": 54422,
      "name": "ブリンジェ",
      "name_default": "Brinje",
      "native": "Brinje",
      "type": "adm2",
      "level": null,
      "parent_id": null,
      "population": 1250,
      "latitude": "45.00250000",
      "longitude": "15.13389000",
      "timezone": "Europe/Zagreb",
      "wikiDataId": "Q283566",
      "country_code": "HR",
      "state_code": "09",
      "state_id": 731,
      "country_id": 55
    },
    {
      "id": 54501,
      "name": "ゴスピッチ",
      "name_default": "Gospić",
      "native": "Gospić",
      "type": "adm1",
      "level": null,
      "parent_id": null,
      "population": 6362,
      "latitude": "44.54611000",
      "longitude": "15.37472000",
      "timezone": "Europe/Zagreb",
      "wikiDataId": "Q319276",
      "country_code": "HR",
      "state_code": "09",
      "state_id": 731,
      "country_id": 55
    },
    {
      "id": 54633,
      "name": "カルロバグ",
      "name_default": "Karlobag",
      "native": "Karlobag",
      "type": "adm2",
      "level": null,
      "parent_id": null,
      "population": 368,
      "latitude": "44.52750000",
      "longitude": "15.07389000",
      "timezone": "Europe/Zagreb",
      "wikiDataId": "Q775393",
      "country_code": "HR",
      "state_code": "09",
      "state_id": 731,
      "country_id": 55
    },
    {
      "id": 54690,
      "name": "リチキ・オシク",
      "name_default": "Lički Osik",
      "native": "Lički Osik",
      "type": "city",
      "level": null,
      "parent_id": null,
      "population": 1438,
      "latitude": "44.60389000",
      "longitude": "15.42472000",
      "timezone": "Europe/Zagreb",
      "wikiDataId": "Q3443459",
      "country_code": "HR",
      "state_code": "09",
      "state_id": 731,
      "country_id": 55
    },
    {
      "id": 54758,
      "name": "ノヴァリャ",
      "name_default": "Novalja",
      "native": "Novalja",
      "type": "adm2",
      "level": null,
      "parent_id": null,
      "population": 2415,
      "latitude": "44.55778000",
      "longitude": "14.88667000",
      "timezone": "Europe/Zagreb",
      "wikiDataId": "Q396613",
      "country_code": "HR",
      "state_code": "09",
      "state_id": 731,
      "country_id": 55
    },
    {
      "id": 54796,
      "name": "オトチャッツ",
      "name_default": "Otočac",
      "native": "Otočac",
      "type": "adm2",
      "level": null,
      "parent_id": null,
      "population": 3852,
      "latitude": "44.86944000",
      "longitude": "15.23750000",
      "timezone": "Europe/Zagreb",
      "wikiDataId": "Q399109",
      "country_code": "HR",
      "state_code": "09",
      "state_id": 731,
      "country_id": 55
    },
    {
      "id": 54802,
      "name": "ペルシッチ",
      "name_default": "Perušić",
      "native": "Perušić",
      "type": "adm2",
      "level": null,
      "parent_id": null,
      "population": 752,
      "latitude": "44.64944000",
      "longitude": "15.38333000",
      "timezone": "Europe/Zagreb",
      "wikiDataId": "Q1008121",
      "country_code": "HR",
      "state_code": "09",
      "state_id": 731,
      "country_id": 55
    },
    {
      "id": 54812,
      "name": "プリトヴィッツェ湖群",
      "name_default": "Plitvička Jezera",
      "native": "Plitvička Jezera",
      "type": "city",
      "level": null,
      "parent_id": null,
      "population": null,
      "latitude": "44.88053000",
      "longitude": "15.62123000",
      "timezone": "Europe/Zagreb",
      "wikiDataId": "Q397633",
      "country_code": "HR",
      "state_code": "09",
      "state_id": 731,
      "country_id": 55
    },
    {
      "id": 54824,
      "name": "ポポヴァチャ",
      "name_default": "Popovača",
      "native": "Popovača",
      "type": "adm2",
      "level": null,
      "parent_id": null,
      "population": 10255,
      "latitude": "44.63917000",
      "longitude": "15.17917000",
      "timezone": "Europe/Zagreb",
      "wikiDataId": "Q664872",
      "country_code": "HR",
      "state_code": "09",
      "state_id": 731,
      "country_id": 55
    },
    {
      "id": 54884,
      "name": "セニ",
      "name_default": "Senj",
      "native": "Senj",
      "type": "adm2",
      "level": null,
      "parent_id": null,
      "population": 4164,
      "latitude": "44.98944000",
      "longitude": "14.90583000",
      "timezone": "Europe/Zagreb",
      "wikiDataId": "Q259466",
      "country_code": "HR",
      "state_code": "09",
      "state_id": 731,
      "country_id": 55
    }
  ]
}
