{
  "locale": "hi",
  "country": {
    "id": 207,
    "code": "ES",
    "iso3": "ESP",
    "numeric_code": "724",
    "name": "स्पेन",
    "name_default": "Spain",
    "native": "España",
    "capital": "Madrid",
    "phonecode": "34",
    "currency": "EUR",
    "currency_name": "Euro",
    "currency_symbol": "€",
    "tld": ".es",
    "population": 49315949,
    "gdp": 1799511,
    "region": "Europe",
    "region_id": 4,
    "subregion": "Southern Europe",
    "subregion_id": 16,
    "nationality": "Spanish",
    "timezones": [
      {
        "zoneName": "Africa/Ceuta",
        "gmtOffset": 3600,
        "gmtOffsetName": "UTC+01:00",
        "abbreviation": "CET",
        "tzName": "Central European Time"
      },
      {
        "zoneName": "Atlantic/Canary",
        "gmtOffset": 0,
        "gmtOffsetName": "UTC±00",
        "abbreviation": "WET",
        "tzName": "Western European Time"
      },
      {
        "zoneName": "Europe/Madrid",
        "gmtOffset": 3600,
        "gmtOffsetName": "UTC+01:00",
        "abbreviation": "CET",
        "tzName": "Central European Time"
      }
    ],
    "latitude": "40.00000000",
    "longitude": "-4.00000000",
    "emoji": "🇪🇸",
    "emojiU": "U+1F1EA U+1F1F8"
  },
  "state": {
    "id": 1146,
    "code": "BU",
    "iso2": "BU",
    "iso3166_2": "ES-BU",
    "fips_code": "",
    "name": "बर्गोस",
    "name_default": "Burgos",
    "native": "Burgos",
    "type": "province",
    "level": "1",
    "parent_id": "5329",
    "population": null,
    "latitude": "42.32471420",
    "longitude": "-3.67653890",
    "timezone": "Europe/Madrid",
    "wikiDataId": "Q55271",
    "country_code": "ES"
  },
  "cities": [
    {
      "id": 31902,
      "name": "अबाजस",
      "name_default": "Abajas",
      "native": "Abajas",
      "type": "adm3",
      "level": null,
      "parent_id": null,
      "population": 37,
      "latitude": "42.62310000",
      "longitude": "-3.58086000",
      "timezone": "Europe/Madrid",
      "wikiDataId": "Q304757",
      "country_code": "ES",
      "state_code": "BU",
      "state_id": 1146,
      "country_id": 207
    },
    {
      "id": 31937,
      "name": "अद्राडा डे हाज़ा",
      "name_default": "Adrada de Haza",
      "native": "El auxiliar",
      "type": "adm3",
      "level": null,
      "parent_id": null,
      "population": 205,
      "latitude": "41.59454000",
      "longitude": "-3.82327000",
      "timezone": "Europe/Madrid",
      "wikiDataId": "Q576408",
      "country_code": "ES",
      "state_code": "BU",
      "state_id": 1146,
      "country_id": 207
    },
    {
      "id": 152289,
      "name": "अगुआस कैंडिडास",
      "name_default": "Aguas Cándidas",
      "native": "Aguas Cándidas",
      "type": "city",
      "level": null,
      "parent_id": null,
      "population": 59,
      "latitude": "42.71617380",
      "longitude": "-3.50318810",
      "timezone": "Europe/Madrid",
      "wikiDataId": "Q1448064",
      "country_code": "ES",
      "state_code": "BU",
      "state_id": 1146,
      "country_id": 207
    },
    {
      "id": 31959,
      "name": "अगुइलर डी बुरेबा",
      "name_default": "Aguilar de Bureba",
      "native": "Aguilar de Bureba",
      "type": "adm3",
      "level": null,
      "parent_id": null,
      "population": 71,
      "latitude": "42.58974000",
      "longitude": "-3.32913000",
      "timezone": "Europe/Madrid",
      "wikiDataId": "Q1447903",
      "country_code": "ES",
      "state_code": "BU",
      "state_id": 1146,
      "country_id": 207
    },
    {
      "id": 32045,
      "name": "एल्बिलोस",
      "name_default": "Albillos",
      "native": "Albillos",
      "type": "adm3",
      "level": null,
      "parent_id": null,
      "population": 215,
      "latitude": "42.27680000",
      "longitude": "-3.78908000",
      "timezone": "Europe/Madrid",
      "wikiDataId": "Q1614704",
      "country_code": "ES",
      "state_code": "BU",
      "state_id": 1146,
      "country_id": 207
    },
    {
      "id": 32100,
      "name": "अल्कोसेरो डी मोला",
      "name_default": "Alcocero de Mola",
      "native": "Alcocero de Mola",
      "type": "adm3",
      "level": null,
      "parent_id": null,
      "population": 53,
      "latitude": "42.47222000",
      "longitude": "-3.35790000",
      "timezone": "Europe/Madrid",
      "wikiDataId": "Q1614771",
      "country_code": "ES",
      "state_code": "BU",
      "state_id": 1146,
      "country_id": 207
    },
    {
      "id": 152290,
      "name": "अल्फोज़ डी ब्रिसिया",
      "name_default": "Alfoz de Bricia",
      "native": "Alfoz de Bricia",
      "type": "adm3",
      "level": null,
      "parent_id": null,
      "population": 68,
      "latitude": "42.88805570",
      "longitude": "-3.81465260",
      "timezone": "Europe/Madrid",
      "wikiDataId": "Q523803",
      "country_code": "ES",
      "state_code": "BU",
      "state_id": 1146,
      "country_id": 207
    },
    {
      "id": 152367,
      "name": "अल्फोज़ डी क्विंटानाडुएना",
      "name_default": "Alfoz de Quintanadueñas",
      "native": "Alfoz de Quintanadueñas",
      "type": "city",
      "level": null,
      "parent_id": null,
      "population": 1110,
      "latitude": "42.38480300",
      "longitude": "-3.73506450",
      "timezone": "Europe/Madrid",
      "wikiDataId": "Q1447986",
      "country_code": "ES",
      "state_code": "BU",
      "state_id": 1146,
      "country_id": 207
    },
    {
      "id": 152291,
      "name": "अल्फोज़ डी सांता गादेआ",
      "name_default": "Alfoz de Santa Gadea",
      "native": "Alfoz de Santa Gadea",
      "type": "adm3",
      "level": null,
      "parent_id": null,
      "population": 101,
      "latitude": "42.95619480",
      "longitude": "-3.95159310",
      "timezone": "Europe/Madrid",
      "wikiDataId": "Q1614676",
      "country_code": "ES",
      "state_code": "BU",
      "state_id": 1146,
      "country_id": 207
    },
    {
      "id": 32337,
      "name": "अल्टेबल",
      "name_default": "Altable",
      "native": "Altable",
      "type": "adm3",
      "level": null,
      "parent_id": null,
      "population": 60,
      "latitude": "42.60276000",
      "longitude": "-3.07719000",
      "timezone": "Europe/Madrid",
      "wikiDataId": "Q1447939",
      "country_code": "ES",
      "state_code": "BU",
      "state_id": 1146,
      "country_id": 207
    },
    {
      "id": 152292,
      "name": "अल्टोस लॉस",
      "name_default": "Altos Los",
      "native": "Altos Los",
      "type": "city",
      "level": null,
      "parent_id": null,
      "population": null,
      "latitude": "42.80784100",
      "longitude": "-3.63333870",
      "timezone": "Europe/Madrid",
      "wikiDataId": "Q120173386",
      "country_code": "ES",
      "state_code": "BU",
      "state_id": 1146,
      "country_id": 207
    },
    {
      "id": 32353,
      "name": "अमेयुगो",
      "name_default": "Ameyugo",
      "native": "Amenugugo",
      "type": "adm3",
      "level": null,
      "parent_id": null,
      "population": 107,
      "latitude": "42.65617000",
      "longitude": "-3.06170000",
      "timezone": "Europe/Madrid",
      "wikiDataId": "Q1614781",
      "country_code": "ES",
      "state_code": "BU",
      "state_id": 1146,
      "country_id": 207
    },
    {
      "id": 32383,
      "name": "एंगुइक्स",
      "name_default": "Anguix",
      "native": "Anguix",
      "type": "adm3",
      "level": null,
      "parent_id": null,
      "population": 158,
      "latitude": "41.75331000",
      "longitude": "-3.93125000",
      "timezone": "Europe/Madrid",
      "wikiDataId": "Q1447822",
      "country_code": "ES",
      "state_code": "BU",
      "state_id": 1146,
      "country_id": 207
    },
    {
      "id": 32407,
      "name": "अरंडा डे डुएरो",
      "name_default": "Aranda de Duero",
      "native": "Aranda de Duero",
      "type": "adm3",
      "level": null,
      "parent_id": null,
      "population": 33675,
      "latitude": "41.67041000",
      "longitude": "-3.68920000",
      "timezone": "Europe/Madrid",
      "wikiDataId": "Q495380",
      "country_code": "ES",
      "state_code": "BU",
      "state_id": 1146,
      "country_id": 207
    },
    {
      "id": 32409,
      "name": "अरंडिला",
      "name_default": "Arandilla",
      "native": "Arandilla",
      "type": "adm3",
      "level": null,
      "parent_id": null,
      "population": 188,
      "latitude": "41.73778000",
      "longitude": "-3.42914000",
      "timezone": "Europe/Madrid",
      "wikiDataId": "Q1614757",
      "country_code": "ES",
      "state_code": "BU",
      "state_id": 1146,
      "country_id": 207
    },
    {
      "id": 32417,
      "name": "अराउज़ो डी मिएल",
      "name_default": "Arauzo de Miel",
      "native": "Arauzo de Miel",
      "type": "adm3",
      "level": null,
      "parent_id": null,
      "population": 354,
      "latitude": "41.85878000",
      "longitude": "-3.38773000",
      "timezone": "Europe/Madrid",
      "wikiDataId": "Q1447839",
      "country_code": "ES",
      "state_code": "BU",
      "state_id": 1146,
      "country_id": 207
    },
    {
      "id": 32418,
      "name": "अराउज़ो डे साल्से",
      "name_default": "Arauzo de Salce",
      "native": "Arauzo de salce",
      "type": "adm3",
      "level": null,
      "parent_id": null,
      "population": 76,
      "latitude": "41.81919000",
      "longitude": "-3.41191000",
      "timezone": "Europe/Madrid",
      "wikiDataId": "Q1447859",
      "country_code": "ES",
      "state_code": "BU",
      "state_id": 1146,
      "country_id": 207
    },
    {
      "id": 32419,
      "name": "अराउज़ो डे टोरे",
      "name_default": "Arauzo de Torre",
      "native": "Arauzo de Torre",
      "type": "adm3",
      "level": null,
      "parent_id": null,
      "population": 106,
      "latitude": "41.79818000",
      "longitude": "-3.42314000",
      "timezone": "Europe/Madrid",
      "wikiDataId": "Q1614650",
      "country_code": "ES",
      "state_code": "BU",
      "state_id": 1146,
      "country_id": 207
    },
    {
      "id": 32435,
      "name": "आर्कोस",
      "name_default": "Arcos",
      "native": "Arcos",
      "type": "adm3",
      "level": null,
      "parent_id": null,
      "population": 0,
      "latitude": "42.26664000",
      "longitude": "-3.75458000",
      "timezone": "Europe/Madrid",
      "wikiDataId": "Q1777841",
      "country_code": "ES",
      "state_code": "BU",
      "state_id": 1146,
      "country_id": 207
    },
    {
      "id": 152293,
      "name": "एरेनिलास डी रियोपिसुएर्गा",
      "name_default": "Arenillas de Riopisuerga",
      "native": "Arenillas de Riopisuerga",
      "type": "city",
      "level": null,
      "parent_id": null,
      "population": 169,
      "latitude": "42.34577040",
      "longitude": "-4.22308360",
      "timezone": "Europe/Madrid",
      "wikiDataId": "Q1614720",
      "country_code": "ES",
      "state_code": "BU",
      "state_id": 1146,
      "country_id": 207
    },
    {
      "id": 32479,
      "name": "अरिजा",
      "name_default": "Arija",
      "native": "Aria",
      "type": "adm3",
      "level": null,
      "parent_id": null,
      "population": 198,
      "latitude": "42.99350000",
      "longitude": "-3.94497000",
      "timezone": "Europe/Madrid",
      "wikiDataId": "Q1623158",
      "country_code": "ES",
      "state_code": "BU",
      "state_id": 1146,
      "country_id": 207
    },
    {
      "id": 32484,
      "name": "Arlanzon",
      "name_default": "Arlanzón",
      "native": "Arlanzón",
      "type": "adm3",
      "level": null,
      "parent_id": null,
      "population": 427,
      "latitude": "42.32267000",
      "longitude": "-3.45784000",
      "timezone": "Europe/Madrid",
      "wikiDataId": "Q1614748",
      "country_code": "ES",
      "state_code": "BU",
      "state_id": 1146,
      "country_id": 207
    },
    {
      "id": 32503,
      "name": "Arraya de Oca",
      "name_default": "Arraya de Oca",
      "native": "Arraya de Oca",
      "type": "adm3",
      "level": null,
      "parent_id": null,
      "population": 53,
      "latitude": "42.41488000",
      "longitude": "-3.39781000",
      "timezone": "Europe/Madrid",
      "wikiDataId": "Q384380",
      "country_code": "ES",
      "state_code": "BU",
      "state_id": 1146,
      "country_id": 207
    },
    {
      "id": 32548,
      "name": "अटापुएर्का",
      "name_default": "Atapuerca",
      "native": "Atapuerca",
      "type": "adm3",
      "level": null,
      "parent_id": null,
      "population": 182,
      "latitude": "42.37757000",
      "longitude": "-3.50790000",
      "timezone": "Europe/Madrid",
      "wikiDataId": "Q753459",
      "country_code": "ES",
      "state_code": "BU",
      "state_id": 1146,
      "country_id": 207
    },
    {
      "id": 152294,
      "name": "ऑसिनेस लॉस",
      "name_default": "Ausines Los",
      "native": "Auriculares los",
      "type": "city",
      "level": null,
      "parent_id": null,
      "population": null,
      "latitude": "42.22741930",
      "longitude": "-3.59835580",
      "timezone": "Europe/Madrid",
      "wikiDataId": "Q1643808",
      "country_code": "ES",
      "state_code": "BU",
      "state_id": 1146,
      "country_id": 207
    },
    {
      "id": 32567,
      "name": "एवेल्लानोसा डे मुनो",
      "name_default": "Avellanosa de Muñó",
      "native": "Avellanosa de Muñó",
      "type": "adm3",
      "level": null,
      "parent_id": null,
      "population": 142,
      "latitude": "41.98349000",
      "longitude": "-3.82553000",
      "timezone": "Europe/Madrid",
      "wikiDataId": "Q610874",
      "country_code": "ES",
      "state_code": "BU",
      "state_id": 1146,
      "country_id": 207
    },
    {
      "id": 32612,
      "name": "बहाबोन डी एस्गुएवा",
      "name_default": "Bahabón de Esgueva",
      "native": "Bahabón de Esgueva",
      "type": "adm3",
      "level": null,
      "parent_id": null,
      "population": 120,
      "latitude": "41.86162000",
      "longitude": "-3.72980000",
      "timezone": "Europe/Madrid",
      "wikiDataId": "Q1447967",
      "country_code": "ES",
      "state_code": "BU",
      "state_id": 1146,
      "country_id": 207
    },
    {
      "id": 152295,
      "name": "बाल्बेसेस लॉस",
      "name_default": "Balbases Los",
      "native": "Balbases Los",
      "type": "city",
      "level": null,
      "parent_id": null,
      "population": null,
      "latitude": "42.21432660",
      "longitude": "-4.06507390",
      "timezone": "Europe/Madrid",
      "wikiDataId": "Q120172436",
      "country_code": "ES",
      "state_code": "BU",
      "state_id": 1146,
      "country_id": 207
    },
    {
      "id": 32708,
      "name": "बानोस डे वाल्डेराडोस",
      "name_default": "Baños de Valdearados",
      "native": "Baños de Valdearados",
      "type": "adm3",
      "level": null,
      "parent_id": null,
      "population": 413,
      "latitude": "41.77010000",
      "longitude": "-3.55589000",
      "timezone": "Europe/Madrid",
      "wikiDataId": "Q929461",
      "country_code": "ES",
      "state_code": "BU",
      "state_id": 1146,
      "country_id": 207
    },
    {
      "id": 32711,
      "name": "बानुएलोस डी बुरेबा",
      "name_default": "Bañuelos de Bureba",
      "native": "Bañuelos de Bureba",
      "type": "adm3",
      "level": null,
      "parent_id": null,
      "population": 41,
      "latitude": "42.50258000",
      "longitude": "-3.27957000",
      "timezone": "Europe/Madrid",
      "wikiDataId": "Q285235",
      "country_code": "ES",
      "state_code": "BU",
      "state_id": 1146,
      "country_id": 207
    },
    {
      "id": 32641,
      "name": "बारबाडिलो डी हेरेरोस",
      "name_default": "Barbadillo de Herreros",
      "native": "Barbadillo de Herreros",
      "type": "adm3",
      "level": null,
      "parent_id": null,
      "population": 151,
      "latitude": "42.14974000",
      "longitude": "-3.17702000",
      "timezone": "Europe/Madrid",
      "wikiDataId": "Q1614687",
      "country_code": "ES",
      "state_code": "BU",
      "state_id": 1146,
      "country_id": 207
    },
    {
      "id": 32642,
      "name": "बारबाडिलो डेल मर्काडो",
      "name_default": "Barbadillo del Mercado",
      "native": "Barbadillo del Mercado",
      "type": "adm3",
      "level": null,
      "parent_id": null,
      "population": 133,
      "latitude": "42.03858000",
      "longitude": "-3.35669000",
      "timezone": "Europe/Madrid",
      "wikiDataId": "Q1614740",
      "country_code": "ES",
      "state_code": "BU",
      "state_id": 1146,
      "country_id": 207
    },
    {
      "id": 32643,
      "name": "बारबाडिलो डेल पेज़",
      "name_default": "Barbadillo del Pez",
      "native": "Barbadillo del Pez",
      "type": "adm3",
      "level": null,
      "parent_id": null,
      "population": 99,
      "latitude": "42.11879000",
      "longitude": "-3.22803000",
      "timezone": "Europe/Madrid",
      "wikiDataId": "Q1447953",
      "country_code": "ES",
      "state_code": "BU",
      "state_id": 1146,
      "country_id": 207
    },
    {
      "id": 32676,
      "name": "बैरियो डी मुनो",
      "name_default": "Barrio de Muñó",
      "native": "Barrio de Muñó",
      "type": "adm3",
      "level": null,
      "parent_id": null,
      "population": 32,
      "latitude": "42.17584000",
      "longitude": "-4.00715000",
      "timezone": "Europe/Madrid",
      "wikiDataId": "Q628122",
      "country_code": "ES",
      "state_code": "BU",
      "state_id": 1146,
      "country_id": 207
    },
    {
      "id": 152296,
      "name": "Barrios de Bureba Los",
      "name_default": "Barrios de Bureba Los",
      "native": "Barrios de Bureba Los",
      "type": "adm3",
      "level": null,
      "parent_id": null,
      "population": null,
      "latitude": "42.64595840",
      "longitude": "-3.39118030",
      "timezone": "Europe/Madrid",
      "wikiDataId": "Q1643815",
      "country_code": "ES",
      "state_code": "BU",
      "state_id": 1146,
      "country_id": 207
    },
    {
      "id": 32679,
      "name": "बैरियोस डी कोलिना",
      "name_default": "Barrios de Colina",
      "native": "Barrios de Colina",
      "type": "adm3",
      "level": null,
      "parent_id": null,
      "population": 75,
      "latitude": "42.39595000",
      "longitude": "-3.46001000",
      "timezone": "Europe/Madrid",
      "wikiDataId": "Q1448007",
      "country_code": "ES",
      "state_code": "BU",
      "state_id": 1146,
      "country_id": 207
    },
    {
      "id": 32689,
      "name": "बासकोनसिलोस डेल टोज़ो",
      "name_default": "Basconcillos del Tozo",
      "native": "Basconcillos del Tozo",
      "type": "adm3",
      "level": null,
      "parent_id": null,
      "population": 294,
      "latitude": "42.70236000",
      "longitude": "-3.98937000",
      "timezone": "Europe/Madrid",
      "wikiDataId": "Q648723",
      "country_code": "ES",
      "state_code": "BU",
      "state_id": 1146,
      "country_id": 207
    },
    {
      "id": 32690,
      "name": "बास्कुनाना",
      "name_default": "Bascuñana",
      "native": "Bascuñana",
      "type": "adm3",
      "level": null,
      "parent_id": null,
      "population": 61,
      "latitude": "42.42548000",
      "longitude": "-3.08231000",
      "timezone": "Europe/Madrid",
      "wikiDataId": "Q648723",
      "country_code": "ES",
      "state_code": "BU",
      "state_id": 1146,
      "country_id": 207
    },
    {
      "id": 32736,
      "name": "बेलबिम्ब्रे",
      "name_default": "Belbimbre",
      "native": "Belbimbre",
      "type": "adm3",
      "level": null,
      "parent_id": null,
      "population": 80,
      "latitude": "42.16873000",
      "longitude": "-4.01280000",
      "timezone": "Europe/Madrid",
      "wikiDataId": "Q1448083",
      "country_code": "ES",
      "state_code": "BU",
      "state_id": 1146,
      "country_id": 207
    },
    {
      "id": 32752,
      "name": "बेलोराडो",
      "name_default": "Belorado",
      "native": "Belondo",
      "type": "adm3",
      "level": null,
      "parent_id": null,
      "population": 1836,
      "latitude": "42.42048000",
      "longitude": "-3.19133000",
      "timezone": "Europe/Madrid",
      "wikiDataId": "Q536682",
      "country_code": "ES",
      "state_code": "BU",
      "state_id": 1146,
      "country_id": 207
    },
    {
      "id": 32835,
      "name": "बर्बेराना",
      "name_default": "Berberana",
      "native": "Berbera",
      "type": "adm3",
      "level": null,
      "parent_id": null,
      "population": 80,
      "latitude": "42.91784000",
      "longitude": "-3.06063000",
      "timezone": "Europe/Madrid",
      "wikiDataId": "Q1448025",
      "country_code": "ES",
      "state_code": "BU",
      "state_id": 1146,
      "country_id": 207
    },
    {
      "id": 32857,
      "name": "बर्लांगास डी रोआ",
      "name_default": "Berlangas de Roa",
      "native": "Alegrarse",
      "type": "adm3",
      "level": null,
      "parent_id": null,
      "population": 203,
      "latitude": "41.68913000",
      "longitude": "-3.87284000",
      "timezone": "Europe/Madrid",
      "wikiDataId": "Q1448047",
      "country_code": "ES",
      "state_code": "BU",
      "state_id": 1146,
      "country_id": 207
    },
    {
      "id": 32874,
      "name": "बर्ज़ोसा डी बुरेबा",
      "name_default": "Berzosa de Bureba",
      "native": "Berzosa de Bureba",
      "type": "adm3",
      "level": null,
      "parent_id": null,
      "population": 46,
      "latitude": "42.62678000",
      "longitude": "-3.26652000",
      "timezone": "Europe/Madrid",
      "wikiDataId": "Q1614663",
      "country_code": "ES",
      "state_code": "BU",
      "state_id": 1146,
      "country_id": 207
    },
    {
      "id": 152297,
      "name": "बोज़ू",
      "name_default": "Bozoó",
      "native": "Eres el",
      "type": "adm3",
      "level": null,
      "parent_id": null,
      "population": 46,
      "latitude": "42.72690330",
      "longitude": "-3.08673870",
      "timezone": "Europe/Madrid",
      "wikiDataId": "Q1614764",
      "country_code": "ES",
      "state_code": "BU",
      "state_id": 1146,
      "country_id": 207
    },
    {
      "id": 32970,
      "name": "ब्राज़ाकोर्टा",
      "name_default": "Brazacorta",
      "native": "Braacacuria",
      "type": "adm3",
      "level": null,
      "parent_id": null,
      "population": 87,
      "latitude": "41.71737000",
      "longitude": "-3.36711000",
      "timezone": "Europe/Madrid",
      "wikiDataId": "Q1447883",
      "country_code": "ES",
      "state_code": "BU",
      "state_id": 1146,
      "country_id": 207
    },
    {
      "id": 32989,
      "name": "ब्रिविएस्का",
      "name_default": "Briviesca",
      "native": "Briviesca",
      "type": "adm3",
      "level": null,
      "parent_id": null,
      "population": 6547,
      "latitude": "42.54993000",
      "longitude": "-3.32315000",
      "timezone": "Europe/Madrid",
      "wikiDataId": "Q24010575",
      "country_code": "ES",
      "state_code": "BU",
      "state_id": 1146,
      "country_id": 207
    },
    {
      "id": 33011,
      "name": "बगेडो",
      "name_default": "Bugedo",
      "native": "Bugedo",
      "type": "adm3",
      "level": null,
      "parent_id": null,
      "population": 150,
      "latitude": "42.64912000",
      "longitude": "-3.01786000",
      "timezone": "Europe/Madrid",
      "wikiDataId": "Q386872",
      "country_code": "ES",
      "state_code": "BU",
      "state_id": 1146,
      "country_id": 207
    },
    {
      "id": 33019,
      "name": "बुनिएल",
      "name_default": "Buniel",
      "native": "Buniel",
      "type": "adm3",
      "level": null,
      "parent_id": null,
      "population": 269,
      "latitude": "42.31197000",
      "longitude": "-3.82230000",
      "timezone": "Europe/Madrid",
      "wikiDataId": "Q1614638",
      "country_code": "ES",
      "state_code": "BU",
      "state_id": 1146,
      "country_id": 207
    },
    {
      "id": 33026,
      "name": "बर्गोस",
      "name_default": "Burgos",
      "native": "Burgos",
      "type": "adm2",
      "level": null,
      "parent_id": null,
      "population": 176551,
      "latitude": "42.34106000",
      "longitude": "-3.70184000",
      "timezone": "Europe/Madrid",
      "wikiDataId": "Q24010572",
      "country_code": "ES",
      "state_code": "BU",
      "state_id": 1146,
      "country_id": 207
    },
    {
      "id": 33044,
      "name": "बुस्तो दे बुरेबा",
      "name_default": "Busto de Bureba",
      "native": "Busto de Bureba",
      "type": "adm3",
      "level": null,
      "parent_id": null,
      "population": 213,
      "latitude": "42.65910000",
      "longitude": "-3.26512000",
      "timezone": "Europe/Madrid",
      "wikiDataId": "Q1623172",
      "country_code": "ES",
      "state_code": "BU",
      "state_id": 1146,
      "country_id": 207
    },
    {
      "id": 33076,
      "name": "कैबनेस डी एस्गुएवा",
      "name_default": "Cabañes de Esgueva",
      "native": "Cabañes de Esgueva",
      "type": "adm3",
      "level": null,
      "parent_id": null,
      "population": 236,
      "latitude": "41.83023000",
      "longitude": "-3.78824000",
      "timezone": "Europe/Madrid",
      "wikiDataId": "Q1633997",
      "country_code": "ES",
      "state_code": "BU",
      "state_id": 1146,
      "country_id": 207
    },
    {
      "id": 33095,
      "name": "Cabezón de la Sierra",
      "name_default": "Cabezón de la Sierra",
      "native": "Cabezón de la Sierra",
      "type": "adm3",
      "level": null,
      "parent_id": null,
      "population": 64,
      "latitude": "41.93434000",
      "longitude": "-3.24153000",
      "timezone": "Europe/Madrid",
      "wikiDataId": "Q1633987",
      "country_code": "ES",
      "state_code": "BU",
      "state_id": 1146,
      "country_id": 207
    },
    {
      "id": 33142,
      "name": "कैलेरुएगा",
      "name_default": "Caleruega",
      "native": "Caleruega",
      "type": "adm3",
      "level": null,
      "parent_id": null,
      "population": 487,
      "latitude": "41.82548000",
      "longitude": "-3.48593000",
      "timezone": "Europe/Madrid",
      "wikiDataId": "Q848172",
      "country_code": "ES",
      "state_code": "BU",
      "state_id": 1146,
      "country_id": 207
    },
    {
      "id": 33188,
      "name": "कैम्पिलो डी अरंडा",
      "name_default": "Campillo de Aranda",
      "native": "Campillo de Aranda",
      "type": "adm3",
      "level": null,
      "parent_id": null,
      "population": 172,
      "latitude": "41.61015000",
      "longitude": "-3.73017000",
      "timezone": "Europe/Madrid",
      "wikiDataId": "Q1637075",
      "country_code": "ES",
      "state_code": "BU",
      "state_id": 1146,
      "country_id": 207
    },
    {
      "id": 33205,
      "name": "कैम्पोलारा",
      "name_default": "Campolara",
      "native": "Campolara",
      "type": "adm3",
      "level": null,
      "parent_id": null,
      "population": 96,
      "latitude": "42.11953000",
      "longitude": "-3.42740000",
      "timezone": "Europe/Madrid",
      "wikiDataId": "Q1633479",
      "country_code": "ES",
      "state_code": "BU",
      "state_id": 1146,
      "country_id": 207
    },
    {
      "id": 33238,
      "name": "कैनिकोसा डे ला सिएरा",
      "name_default": "Canicosa de la Sierra",
      "native": "Canicosa de la Sierra",
      "type": "adm3",
      "level": null,
      "parent_id": null,
      "population": 565,
      "latitude": "41.93673000",
      "longitude": "-3.04089000",
      "timezone": "Europe/Madrid",
      "wikiDataId": "Q1633527",
      "country_code": "ES",
      "state_code": "BU",
      "state_id": 1146,
      "country_id": 207
    },
    {
      "id": 33248,
      "name": "कैंटाब्राना",
      "name_default": "Cantabrana",
      "native": "Cantabrana",
      "type": "adm3",
      "level": null,
      "parent_id": null,
      "population": 37,
      "latitude": "42.73422000",
      "longitude": "-3.46704000",
      "timezone": "Europe/Madrid",
      "wikiDataId": "Q568730",
      "country_code": "ES",
      "state_code": "BU",
      "state_id": 1146,
      "country_id": 207
    },
    {
      "id": 33278,
      "name": "कराज़ो",
      "name_default": "Carazo",
      "native": "Carazo",
      "type": "adm3",
      "level": null,
      "parent_id": null,
      "population": 39,
      "latitude": "41.96832000",
      "longitude": "-3.35310000",
      "timezone": "Europe/Madrid",
      "wikiDataId": "Q23986652",
      "country_code": "ES",
      "state_code": "BU",
      "state_id": 1146,
      "country_id": 207
    },
    {
      "id": 33293,
      "name": "कार्सेडो डी बुरेबा",
      "name_default": "Carcedo de Bureba",
      "native": "Carcedo de Bureba",
      "type": "adm3",
      "level": null,
      "parent_id": null,
      "population": 37,
      "latitude": "42.57818000",
      "longitude": "-3.49831000",
      "timezone": "Europe/Madrid",
      "wikiDataId": "Q1637088",
      "country_code": "ES",
      "state_code": "BU",
      "state_id": 1146,
      "country_id": 207
    },
    {
      "id": 33294,
      "name": "कार्सेडो डी बर्गोस",
      "name_default": "Carcedo de Burgos",
      "native": "Carcedo de Burgos",
      "type": "adm3",
      "level": null,
      "parent_id": null,
      "population": 252,
      "latitude": "42.28696000",
      "longitude": "-3.62274000",
      "timezone": "Europe/Madrid",
      "wikiDataId": "Q543897",
      "country_code": "ES",
      "state_code": "BU",
      "state_id": 1146,
      "country_id": 207
    },
    {
      "id": 33299,
      "name": "कार्डेनाडिजो",
      "name_default": "Cardeñadijo",
      "native": "Cardeñadijo",
      "type": "adm3",
      "level": null,
      "parent_id": null,
      "population": 685,
      "latitude": "42.30217000",
      "longitude": "-3.66779000",
      "timezone": "Europe/Madrid",
      "wikiDataId": "Q1634005",
      "country_code": "ES",
      "state_code": "BU",
      "state_id": 1146,
      "country_id": 207
    },
    {
      "id": 33300,
      "name": "कार्डेनाजिमेनो",
      "name_default": "Cardeñajimeno",
      "native": "Cardeñajimeno",
      "type": "adm3",
      "level": null,
      "parent_id": null,
      "population": 650,
      "latitude": "42.33038000",
      "longitude": "-3.62103000",
      "timezone": "Europe/Madrid",
      "wikiDataId": "Q1607122",
      "country_code": "ES",
      "state_code": "BU",
      "state_id": 1146,
      "country_id": 207
    },
    {
      "id": 152299,
      "name": "कार्डेन्यूएला रिओपिको",
      "name_default": "Cardeñuela Riopico",
      "native": "Cardeñuela Riopico",
      "type": "adm3",
      "level": null,
      "parent_id": null,
      "population": 111,
      "latitude": "42.35904050",
      "longitude": "-3.55912860",
      "timezone": "Europe/Madrid",
      "wikiDataId": "Q946310",
      "country_code": "ES",
      "state_code": "BU",
      "state_id": 1146,
      "country_id": 207
    },
    {
      "id": 33326,
      "name": "कैरियास",
      "name_default": "Carrias",
      "native": "Carrias",
      "type": "adm3",
      "level": null,
      "parent_id": null,
      "population": 40,
      "latitude": "42.48141000",
      "longitude": "-3.28319000",
      "timezone": "Europe/Madrid",
      "wikiDataId": "Q1633492",
      "country_code": "ES",
      "state_code": "BU",
      "state_id": 1146,
      "country_id": 207
    },
    {
      "id": 33384,
      "name": "कास्काजारेस डी बुरेबा",
      "name_default": "Cascajares de Bureba",
      "native": "Cascajares de Bureba",
      "type": "adm3",
      "level": null,
      "parent_id": null,
      "population": 53,
      "latitude": "42.67884000",
      "longitude": "-3.23768000",
      "timezone": "Europe/Madrid",
      "wikiDataId": "Q1645356",
      "country_code": "ES",
      "state_code": "BU",
      "state_id": 1146,
      "country_id": 207
    },
    {
      "id": 33385,
      "name": "सिएरा के झरने",
      "name_default": "Cascajares de la Sierra",
      "native": "Cascajares de la Sierra",
      "type": "adm3",
      "level": null,
      "parent_id": null,
      "population": 27,
      "latitude": "42.06177000",
      "longitude": "-3.39936000",
      "timezone": "Europe/Madrid",
      "wikiDataId": "Q1626948",
      "country_code": "ES",
      "state_code": "BU",
      "state_id": 1146,
      "country_id": 207
    },
    {
      "id": 33414,
      "name": "कास्टेलानोस डी कास्त्रो",
      "name_default": "Castellanos de Castro",
      "native": "Castellanos de Castro",
      "type": "adm3",
      "level": null,
      "parent_id": null,
      "population": 64,
      "latitude": "42.32806000",
      "longitude": "-4.03417000",
      "timezone": "Europe/Madrid",
      "wikiDataId": "Q1626927",
      "country_code": "ES",
      "state_code": "BU",
      "state_id": 1146,
      "country_id": 207
    },
    {
      "id": 33444,
      "name": "कास्टिल डे पेओनेस",
      "name_default": "Castil de Peones",
      "native": "Castil de Peones",
      "type": "adm3",
      "level": null,
      "parent_id": null,
      "population": 28,
      "latitude": "42.48347000",
      "longitude": "-3.38461000",
      "timezone": "Europe/Madrid",
      "wikiDataId": "Q1607140",
      "country_code": "ES",
      "state_code": "BU",
      "state_id": 1146,
      "country_id": 207
    },
    {
      "id": 33448,
      "name": "कास्टिल्डेलगाडो",
      "name_default": "Castildelgado",
      "native": "Castildelgado",
      "type": "adm3",
      "level": null,
      "parent_id": null,
      "population": 65,
      "latitude": "42.43756000",
      "longitude": "-3.08389000",
      "timezone": "Europe/Madrid",
      "wikiDataId": "Q946296",
      "country_code": "ES",
      "state_code": "BU",
      "state_id": 1146,
      "country_id": 207
    },
    {
      "id": 33481,
      "name": "कैस्ट्रिलो डे ला रीना",
      "name_default": "Castrillo de la Reina",
      "native": "Castrillo de la Reina",
      "type": "adm3",
      "level": null,
      "parent_id": null,
      "population": 248,
      "latitude": "41.98714000",
      "longitude": "-3.23560000",
      "timezone": "Europe/Madrid",
      "wikiDataId": "Q1645109",
      "country_code": "ES",
      "state_code": "BU",
      "state_id": 1146,
      "country_id": 207
    },
    {
      "id": 33483,
      "name": "कैस्ट्रिलो डे ला वेगा",
      "name_default": "Castrillo de la Vega",
      "native": "Castrillo de la Vega",
      "type": "adm3",
      "level": null,
      "parent_id": null,
      "population": 620,
      "latitude": "41.65166000",
      "longitude": "-3.78089000",
      "timezone": "Europe/Madrid",
      "wikiDataId": "Q1628340",
      "country_code": "ES",
      "state_code": "BU",
      "state_id": 1146,
      "country_id": 207
    },
    {
      "id": 152300,
      "name": "कैस्ट्रिलो डी रियोपिसुएर्गा",
      "name_default": "Castrillo de Riopisuerga",
      "native": "Castrillo de Riopisuerga",
      "type": "city",
      "level": null,
      "parent_id": null,
      "population": 58,
      "latitude": "42.51496440",
      "longitude": "-4.25241210",
      "timezone": "Europe/Madrid",
      "wikiDataId": "Q1634015",
      "country_code": "ES",
      "state_code": "BU",
      "state_id": 1146,
      "country_id": 207
    },
    {
      "id": 33484,
      "name": "कैस्ट्रिलो डेल वैल",
      "name_default": "Castrillo del Val",
      "native": "Castrillo del Val",
      "type": "adm3",
      "level": null,
      "parent_id": null,
      "population": 513,
      "latitude": "42.31401000",
      "longitude": "-3.58501000",
      "timezone": "Europe/Madrid",
      "wikiDataId": "Q24010548",
      "country_code": "ES",
      "state_code": "BU",
      "state_id": 1146,
      "country_id": 207
    },
    {
      "id": 152301,
      "name": "कैस्ट्रिलो माटाजुडिओस",
      "name_default": "Castrillo Matajudíos",
      "native": "Castrillo Matajudíos",
      "type": "adm3",
      "level": null,
      "parent_id": null,
      "population": null,
      "latitude": "42.30768160",
      "longitude": "-4.17249430",
      "timezone": "Europe/Madrid",
      "wikiDataId": "Q976534",
      "country_code": "ES",
      "state_code": "BU",
      "state_id": 1146,
      "country_id": 207
    },
    {
      "id": 152302,
      "name": "कास्त्रोजेरिज",
      "name_default": "Castrojeriz",
      "native": "Castrojeriz",
      "type": "adm2",
      "level": null,
      "parent_id": null,
      "population": 780,
      "latitude": "42.33239110",
      "longitude": "-3.70599810",
      "timezone": "Europe/Madrid",
      "wikiDataId": "Q255845",
      "country_code": "ES",
      "state_code": "BU",
      "state_id": 1146,
      "country_id": 207
    },
    {
      "id": 152298,
      "name": "कैविया",
      "name_default": "Cavia",
      "native": "Conejillo de Indias",
      "type": "adm3",
      "level": null,
      "parent_id": null,
      "population": 252,
      "latitude": "42.28355190",
      "longitude": "-3.84535590",
      "timezone": "Europe/Madrid",
      "wikiDataId": "Q286088",
      "country_code": "ES",
      "state_code": "BU",
      "state_id": 1146,
      "country_id": 207
    },
    {
      "id": 33520,
      "name": "कायुएला",
      "name_default": "Cayuela",
      "native": "Cayuela",
      "type": "adm3",
      "level": null,
      "parent_id": null,
      "population": 127,
      "latitude": "42.27223000",
      "longitude": "-3.81895000",
      "timezone": "Europe/Madrid",
      "wikiDataId": "Q1645374",
      "country_code": "ES",
      "state_code": "BU",
      "state_id": 1146,
      "country_id": 207
    },
    {
      "id": 33550,
      "name": "सेब्रेकोस",
      "name_default": "Cebrecos",
      "native": "Cebrecos",
      "type": "adm3",
      "level": null,
      "parent_id": null,
      "population": 58,
      "latitude": "41.98408000",
      "longitude": "-3.59661000",
      "timezone": "Europe/Madrid",
      "wikiDataId": "Q1637104",
      "country_code": "ES",
      "state_code": "BU",
      "state_id": 1146,
      "country_id": 207
    },
    {
      "id": 33562,
      "name": "सेलाडा डेल कैमिनो",
      "name_default": "Celada del Camino",
      "native": "Celada del Camino",
      "type": "adm3",
      "level": null,
      "parent_id": null,
      "population": 90,
      "latitude": "42.26359000",
      "longitude": "-3.93362000",
      "timezone": "Europe/Madrid",
      "wikiDataId": "Q975881",
      "country_code": "ES",
      "state_code": "BU",
      "state_id": 1146,
      "country_id": 207
    },
    {
      "id": 152303,
      "name": "सेरेज़ो डी रियो तिरोन",
      "name_default": "Cerezo de Río Tirón",
      "native": "Cerezo de Río Tirón",
      "type": "adm3",
      "level": null,
      "parent_id": null,
      "population": 0,
      "latitude": "42.49128150",
      "longitude": "-3.13539030",
      "timezone": "Europe/Madrid",
      "wikiDataId": "Q1114855",
      "country_code": "ES",
      "state_code": "BU",
      "state_id": 1146,
      "country_id": 207
    },
    {
      "id": 33592,
      "name": "सेराटोन डे जुआरोस",
      "name_default": "Cerratón de Juarros",
      "native": "Cerratón de Juarros",
      "type": "adm3",
      "level": null,
      "parent_id": null,
      "population": 45,
      "latitude": "42.42227000",
      "longitude": "-3.37347000",
      "timezone": "Europe/Madrid",
      "wikiDataId": "Q1644231",
      "country_code": "ES",
      "state_code": "BU",
      "state_id": 1146,
      "country_id": 207
    },
    {
      "id": 33655,
      "name": "सियाडोन्चा",
      "name_default": "Ciadoncha",
      "native": "Ciadoncha",
      "type": "adm3",
      "level": null,
      "parent_id": null,
      "population": 93,
      "latitude": "42.15814000",
      "longitude": "-3.93235000",
      "timezone": "Europe/Madrid",
      "wikiDataId": "Q1631235",
      "country_code": "ES",
      "state_code": "BU",
      "state_id": 1146,
      "country_id": 207
    },
    {
      "id": 152304,
      "name": "सिल्लापेरलाटा",
      "name_default": "Cillaperlata",
      "native": "Círculo",
      "type": "adm3",
      "level": null,
      "parent_id": null,
      "population": 30,
      "latitude": "42.78243210",
      "longitude": "-3.35715490",
      "timezone": "Europe/Madrid",
      "wikiDataId": "Q1633230",
      "country_code": "ES",
      "state_code": "BU",
      "state_id": 1146,
      "country_id": 207
    },
    {
      "id": 33669,
      "name": "सिलेरुएलो डी अबाजो",
      "name_default": "Cilleruelo de Abajo",
      "native": "Cilleruelo de Abajo",
      "type": "adm3",
      "level": null,
      "parent_id": null,
      "population": 283,
      "latitude": "41.88405000",
      "longitude": "-3.79723000",
      "timezone": "Europe/Madrid",
      "wikiDataId": "Q1643676",
      "country_code": "ES",
      "state_code": "BU",
      "state_id": 1146,
      "country_id": 207
    },
    {
      "id": 33670,
      "name": "सिल्लेरुएलो डी अरीबा",
      "name_default": "Cilleruelo de Arriba",
      "native": "Cillerelo de Ariba",
      "type": "adm3",
      "level": null,
      "parent_id": null,
      "population": 68,
      "latitude": "41.90487000",
      "longitude": "-3.66102000",
      "timezone": "Europe/Madrid",
      "wikiDataId": "Q1633280",
      "country_code": "ES",
      "state_code": "BU",
      "state_id": 1146,
      "country_id": 207
    },
    {
      "id": 33687,
      "name": "सिरुएलोस डी सेर्वेरा",
      "name_default": "Ciruelos de Cervera",
      "native": "Ciruelos de Cervera",
      "type": "adm3",
      "level": null,
      "parent_id": null,
      "population": 139,
      "latitude": "41.90562000",
      "longitude": "-3.53015000",
      "timezone": "Europe/Madrid",
      "wikiDataId": "Q1643918",
      "country_code": "ES",
      "state_code": "BU",
      "state_id": 1146,
      "country_id": 207
    },
    {
      "id": 33722,
      "name": "कोगोलोस",
      "name_default": "Cogollos",
      "native": "Cogollos",
      "type": "adm3",
      "level": null,
      "parent_id": null,
      "population": 397,
      "latitude": "42.19982000",
      "longitude": "-3.70005000",
      "timezone": "Europe/Madrid",
      "wikiDataId": "Q1644225",
      "country_code": "ES",
      "state_code": "BU",
      "state_id": 1146,
      "country_id": 207
    },
    {
      "id": 152305,
      "name": "Condado de Treviño",
      "name_default": "Condado de Treviño",
      "native": "Condado de Treviño",
      "type": "adm3",
      "level": null,
      "parent_id": null,
      "population": 1490,
      "latitude": "42.73413790",
      "longitude": "-2.74660410",
      "timezone": "Europe/Madrid",
      "wikiDataId": "Q946251",
      "country_code": "ES",
      "state_code": "BU",
      "state_id": 1146,
      "country_id": 207
    },
    {
      "id": 33770,
      "name": "कॉन्ट्रेरस",
      "name_default": "Contreras",
      "native": "Contrasas",
      "type": "adm3",
      "level": null,
      "parent_id": null,
      "population": 87,
      "latitude": "42.02004000",
      "longitude": "-3.41084000",
      "timezone": "Europe/Madrid",
      "wikiDataId": "Q1641087",
      "country_code": "ES",
      "state_code": "BU",
      "state_id": 1146,
      "country_id": 207
    },
    {
      "id": 33814,
      "name": "कोरुना डेल कोंडे",
      "name_default": "Coruña del Conde",
      "native": "Coruña del Conde",
      "type": "adm3",
      "level": null,
      "parent_id": null,
      "population": 158,
      "latitude": "41.76566000",
      "longitude": "-3.39059000",
      "timezone": "Europe/Madrid",
      "wikiDataId": "Q1613822",
      "country_code": "ES",
      "state_code": "BU",
      "state_id": 1146,
      "country_id": 207
    },
    {
      "id": 33827,
      "name": "कोवारुबियस",
      "name_default": "Covarrubias",
      "native": "Covarrubias",
      "type": "adm3",
      "level": null,
      "parent_id": null,
      "population": 505,
      "latitude": "42.05927000",
      "longitude": "-3.51956000",
      "timezone": "Europe/Madrid",
      "wikiDataId": "Q24001741",
      "country_code": "ES",
      "state_code": "BU",
      "state_id": 1146,
      "country_id": 207
    },
    {
      "id": 33855,
      "name": "क्यूबिल्लो डेल कैम्पो",
      "name_default": "Cubillo del Campo",
      "native": "Cubillo del Campo",
      "type": "adm3",
      "level": null,
      "parent_id": null,
      "population": 74,
      "latitude": "42.16854000",
      "longitude": "-3.61025000",
      "timezone": "Europe/Madrid",
      "wikiDataId": "Q1765331",
      "country_code": "ES",
      "state_code": "BU",
      "state_id": 1146,
      "country_id": 207
    },
    {
      "id": 33860,
      "name": "क्यूबो डी बुरेबा",
      "name_default": "Cubo de Bureba",
      "native": "Cubo de Bureba",
      "type": "adm3",
      "level": null,
      "parent_id": null,
      "population": 102,
      "latitude": "42.64011000",
      "longitude": "-3.20626000",
      "timezone": "Europe/Madrid",
      "wikiDataId": "Q1656771",
      "country_code": "ES",
      "state_code": "BU",
      "state_id": 1146,
      "country_id": 207
    },
    {
      "id": 33873,
      "name": "क्यूवास डे सैन क्लेमेंटे",
      "name_default": "Cuevas de San Clemente",
      "native": "Cuevas de San Clemente",
      "type": "adm3",
      "level": null,
      "parent_id": null,
      "population": 45,
      "latitude": "42.13009000",
      "longitude": "-3.56840000",
      "timezone": "Europe/Madrid",
      "wikiDataId": "Q1633302",
      "country_code": "ES",
      "state_code": "BU",
      "state_id": 1146,
      "country_id": 207
    },
    {
      "id": 34056,
      "name": "एनसीओ",
      "name_default": "Encío",
      "native": "Enfy",
      "type": "adm3",
      "level": null,
      "parent_id": null,
      "population": 41,
      "latitude": "42.67115000",
      "longitude": "-3.08680000",
      "timezone": "Europe/Madrid",
      "wikiDataId": "Q1607299",
      "country_code": "ES",
      "state_code": "BU",
      "state_id": 1146,
      "country_id": 207
    },
    {
      "id": 34119,
      "name": "एस्पिनोसा डे सेर्वेरा",
      "name_default": "Espinosa de Cervera",
      "native": "Espinosa de Cervera",
      "type": "adm3",
      "level": null,
      "parent_id": null,
      "population": 85,
      "latitude": "41.89683000",
      "longitude": "-3.46858000",
      "timezone": "Europe/Madrid",
      "wikiDataId": "Q1650262",
      "country_code": "ES",
      "state_code": "BU",
      "state_id": 1146,
      "country_id": 207
    },
    {
      "id": 34122,
      "name": "एस्पिनोसा डे लॉस मोंटेरोस",
      "name_default": "Espinosa de los Monteros",
      "native": "Espinosa de los Monteros",
      "type": "city",
      "level": null,
      "parent_id": null,
      "population": 1648,
      "latitude": "43.07754000",
      "longitude": "-3.55365000",
      "timezone": "Europe/Madrid",
      "wikiDataId": "Q24010525",
      "country_code": "ES",
      "state_code": "BU",
      "state_id": 1146,
      "country_id": 207
    },
    {
      "id": 34123,
      "name": "एस्पिनोसा डेल कैमिनो",
      "name_default": "Espinosa del Camino",
      "native": "Espinosa del Camino",
      "type": "adm3",
      "level": null,
      "parent_id": null,
      "population": 42,
      "latitude": "42.40590000",
      "longitude": "-3.28019000",
      "timezone": "Europe/Madrid",
      "wikiDataId": "Q946759",
      "country_code": "ES",
      "state_code": "BU",
      "state_id": 1146,
      "country_id": 207
    },
    {
      "id": 34150,
      "name": "एस्टेपर",
      "name_default": "Estépar",
      "native": "Estépar",
      "type": "adm3",
      "level": null,
      "parent_id": null,
      "population": 635,
      "latitude": "42.27731000",
      "longitude": "-3.89946000",
      "timezone": "Europe/Madrid",
      "wikiDataId": "Q24010523",
      "country_code": "ES",
      "state_code": "BU",
      "state_id": 1146,
      "country_id": 207
    },
    {
      "id": 34216,
      "name": "फोंटियोसो",
      "name_default": "Fontioso",
      "native": "Fontioso",
      "type": "adm3",
      "level": null,
      "parent_id": null,
      "population": 54,
      "latitude": "41.94273000",
      "longitude": "-3.73872000",
      "timezone": "Europe/Madrid",
      "wikiDataId": "Q1633244",
      "country_code": "ES",
      "state_code": "BU",
      "state_id": 1146,
      "country_id": 207
    },
    {
      "id": 34239,
      "name": "फ्रैंडोविनेज़",
      "name_default": "Frandovínez",
      "native": "Frandovínez",
      "type": "adm3",
      "level": null,
      "parent_id": null,
      "population": 96,
      "latitude": "42.31032000",
      "longitude": "-3.83783000",
      "timezone": "Europe/Madrid",
      "wikiDataId": "Q1751523",
      "country_code": "ES",
      "state_code": "BU",
      "state_id": 1146,
      "country_id": 207
    },
    {
      "id": 34247,
      "name": "Fresneda de la Sierra Tirón",
      "name_default": "Fresneda de la Sierra Tirón",
      "native": "Fresneda de la Sierra Tirón",
      "type": "adm3",
      "level": null,
      "parent_id": null,
      "population": 97,
      "latitude": "42.31535000",
      "longitude": "-3.13596000",
      "timezone": "Europe/Madrid",
      "wikiDataId": "Q541178",
      "country_code": "ES",
      "state_code": "BU",
      "state_id": 1146,
      "country_id": 207
    },
    {
      "id": 34252,
      "name": "फ्रेस्नेया",
      "name_default": "Fresneña",
      "native": "Fresneña",
      "type": "adm3",
      "level": null,
      "parent_id": null,
      "population": 106,
      "latitude": "42.41366000",
      "longitude": "-3.13453000",
      "timezone": "Europe/Madrid",
      "wikiDataId": "Q1765200",
      "country_code": "ES",
      "state_code": "BU",
      "state_id": 1146,
      "country_id": 207
    },
    {
      "id": 34253,
      "name": "Fresnillo de las Dueñas",
      "name_default": "Fresnillo de las Dueñas",
      "native": "Fresnillo de las Dueñas",
      "type": "adm3",
      "level": null,
      "parent_id": null,
      "population": 375,
      "latitude": "41.64700000",
      "longitude": "-3.64558000",
      "timezone": "Europe/Madrid",
      "wikiDataId": "Q1643897",
      "country_code": "ES",
      "state_code": "BU",
      "state_id": 1146,
      "country_id": 207
    },
    {
      "id": 152307,
      "name": "फ्रेस्नो डी रियो तिरोन",
      "name_default": "Fresno de Río Tirón",
      "native": "Fresno de Río Tirón",
      "type": "adm3",
      "level": null,
      "parent_id": null,
      "population": 161,
      "latitude": "42.45991740",
      "longitude": "-3.17482810",
      "timezone": "Europe/Madrid",
      "wikiDataId": "Q1751509",
      "country_code": "ES",
      "state_code": "BU",
      "state_id": 1146,
      "country_id": 207
    },
    {
      "id": 34257,
      "name": "फ्रेस्नो डे रोडिला",
      "name_default": "Fresno de Rodilla",
      "native": "Fresno de Rodilla",
      "type": "adm3",
      "level": null,
      "parent_id": null,
      "population": 49,
      "latitude": "42.42054000",
      "longitude": "-3.48507000",
      "timezone": "Europe/Madrid",
      "wikiDataId": "Q1643560",
      "country_code": "ES",
      "state_code": "BU",
      "state_id": 1146,
      "country_id": 207
    },
    {
      "id": 34271,
      "name": "फ्रिअस",
      "name_default": "Frías",
      "native": "Frías",
      "type": "adm3",
      "level": null,
      "parent_id": null,
      "population": 354,
      "latitude": "42.76225000",
      "longitude": "-3.29394000",
      "timezone": "Europe/Madrid",
      "wikiDataId": "Q1639221",
      "country_code": "ES",
      "state_code": "BU",
      "state_id": 1146,
      "country_id": 207
    },
    {
      "id": 34311,
      "name": "फ़ुएंतेबुरेबा",
      "name_default": "Fuentebureba",
      "native": "Fuentebureba",
      "type": "adm3",
      "level": null,
      "parent_id": null,
      "population": 72,
      "latitude": "42.63400000",
      "longitude": "-3.23510000",
      "timezone": "Europe/Madrid",
      "wikiDataId": "Q1643709",
      "country_code": "ES",
      "state_code": "BU",
      "state_id": 1146,
      "country_id": 207
    },
    {
      "id": 34314,
      "name": "फ़ुएंटेसेन",
      "name_default": "Fuentecén",
      "native": "Fuentecén",
      "type": "adm3",
      "level": null,
      "parent_id": null,
      "population": 294,
      "latitude": "41.62852000",
      "longitude": "-3.86867000",
      "timezone": "Europe/Madrid",
      "wikiDataId": "Q1643883",
      "country_code": "ES",
      "state_code": "BU",
      "state_id": 1146,
      "country_id": 207
    },
    {
      "id": 34319,
      "name": "फ़ुएंटेलसेस्पेड",
      "name_default": "Fuentelcésped",
      "native": "Fuentelcésped",
      "type": "adm3",
      "level": null,
      "parent_id": null,
      "population": 205,
      "latitude": "41.59162000",
      "longitude": "-3.64064000",
      "timezone": "Europe/Madrid",
      "wikiDataId": "Q1631194",
      "country_code": "ES",
      "state_code": "BU",
      "state_id": 1146,
      "country_id": 207
    },
    {
      "id": 34323,
      "name": "फ़ुएंटेलिसेंडो",
      "name_default": "Fuentelisendo",
      "native": "Fuentelisendo",
      "type": "adm3",
      "level": null,
      "parent_id": null,
      "population": 101,
      "latitude": "41.62274000",
      "longitude": "-3.90129000",
      "timezone": "Europe/Madrid",
      "wikiDataId": "Q1614765",
      "country_code": "ES",
      "state_code": "BU",
      "state_id": 1146,
      "country_id": 207
    },
    {
      "id": 34327,
      "name": "फ़ुएंटेमोलिनोस",
      "name_default": "Fuentemolinos",
      "native": "Fuentemolinos",
      "type": "adm3",
      "level": null,
      "parent_id": null,
      "population": 91,
      "latitude": "41.60477000",
      "longitude": "-3.85005000",
      "timezone": "Europe/Madrid",
      "wikiDataId": "Q1633314",
      "country_code": "ES",
      "state_code": "BU",
      "state_id": 1146,
      "country_id": 207
    },
    {
      "id": 34328,
      "name": "फ़ुएंटेनेब्रो",
      "name_default": "Fuentenebro",
      "native": "Fuentenebro",
      "type": "adm3",
      "level": null,
      "parent_id": null,
      "population": 138,
      "latitude": "41.52873000",
      "longitude": "-3.75449000",
      "timezone": "Europe/Madrid",
      "wikiDataId": "Q1643049",
      "country_code": "ES",
      "state_code": "BU",
      "state_id": 1146,
      "country_id": 207
    },
    {
      "id": 34357,
      "name": "फ़ुएंटेस्पिना",
      "name_default": "Fuentespina",
      "native": "Fuentespina",
      "type": "adm3",
      "level": null,
      "parent_id": null,
      "population": 816,
      "latitude": "41.63079000",
      "longitude": "-3.68475000",
      "timezone": "Europe/Madrid",
      "wikiDataId": "Q1633201",
      "country_code": "ES",
      "state_code": "BU",
      "state_id": 1146,
      "country_id": 207
    },
    {
      "id": 34376,
      "name": "गैलबरोस",
      "name_default": "Galbarros",
      "native": "Galbarros",
      "type": "adm3",
      "level": null,
      "parent_id": null,
      "population": 27,
      "latitude": "42.52729000",
      "longitude": "-3.43827000",
      "timezone": "Europe/Madrid",
      "wikiDataId": "Q951812",
      "country_code": "ES",
      "state_code": "BU",
      "state_id": 1146,
      "country_id": 207
    },
    {
      "id": 34511,
      "name": "ग्रिजाल्बा",
      "name_default": "Grijalba",
      "native": "Gryalba",
      "type": "adm3",
      "level": null,
      "parent_id": null,
      "population": 118,
      "latitude": "42.43002000",
      "longitude": "-4.11896000",
      "timezone": "Europe/Madrid",
      "wikiDataId": "Q1650272",
      "country_code": "ES",
      "state_code": "BU",
      "state_id": 1146,
      "country_id": 207
    },
    {
      "id": 34513,
      "name": "ग्रिसालेना",
      "name_default": "Grisaleña",
      "native": "Grisaleña",
      "type": "adm3",
      "level": null,
      "parent_id": null,
      "population": 53,
      "latitude": "42.59122000",
      "longitude": "-3.26416000",
      "timezone": "Europe/Madrid",
      "wikiDataId": "Q1609765",
      "country_code": "ES",
      "state_code": "BU",
      "state_id": 1146,
      "country_id": 207
    },
    {
      "id": 152309,
      "name": "गुमील डे इज़ान",
      "name_default": "Gumiel de Izán",
      "native": "Gumiel de Izán",
      "type": "city",
      "level": null,
      "parent_id": null,
      "population": 582,
      "latitude": "41.77065840",
      "longitude": "-3.68704620",
      "timezone": "Europe/Madrid",
      "wikiDataId": "Q1628693",
      "country_code": "ES",
      "state_code": "BU",
      "state_id": 1146,
      "country_id": 207
    },
    {
      "id": 152310,
      "name": "गुमीएल डे मर्काडो",
      "name_default": "Gumiel de Mercado",
      "native": "Gumiel de Mercado",
      "type": "adm3",
      "level": null,
      "parent_id": null,
      "population": 385,
      "latitude": "41.75549950",
      "longitude": "-3.80245340",
      "timezone": "Europe/Madrid",
      "wikiDataId": "Q1607227",
      "country_code": "ES",
      "state_code": "BU",
      "state_id": 1146,
      "country_id": 207
    },
    {
      "id": 34571,
      "name": "हसिनास",
      "name_default": "Hacinas",
      "native": "Hacinas",
      "type": "adm3",
      "level": null,
      "parent_id": null,
      "population": 147,
      "latitude": "41.98514000",
      "longitude": "-3.28709000",
      "timezone": "Europe/Madrid",
      "wikiDataId": "Q1643548",
      "country_code": "ES",
      "state_code": "BU",
      "state_id": 1146,
      "country_id": 207
    },
    {
      "id": 34574,
      "name": "हाज़ा",
      "name_default": "Haza",
      "native": "Hogar",
      "type": "adm3",
      "level": null,
      "parent_id": null,
      "population": 34,
      "latitude": "41.61667000",
      "longitude": "-3.81667000",
      "timezone": "Europe/Madrid",
      "wikiDataId": "Q1986422",
      "country_code": "ES",
      "state_code": "BU",
      "state_id": 1146,
      "country_id": 207
    },
    {
      "id": 34641,
      "name": "होंटानास",
      "name_default": "Hontanas",
      "native": "Hontán",
      "type": "adm3",
      "level": null,
      "parent_id": null,
      "population": 70,
      "latitude": "42.31312000",
      "longitude": "-4.04529000",
      "timezone": "Europe/Madrid",
      "wikiDataId": "Q959026",
      "country_code": "ES",
      "state_code": "BU",
      "state_id": 1146,
      "country_id": 207
    },
    {
      "id": 34643,
      "name": "होंटांगास",
      "name_default": "Hontangas",
      "native": "Hontang",
      "type": "adm3",
      "level": null,
      "parent_id": null,
      "population": 129,
      "latitude": "41.58216000",
      "longitude": "-3.79550000",
      "timezone": "Europe/Madrid",
      "wikiDataId": "Q1633401",
      "country_code": "ES",
      "state_code": "BU",
      "state_id": 1146,
      "country_id": 207
    },
    {
      "id": 34648,
      "name": "होन्टोरिया डे ला कैंटेरा",
      "name_default": "Hontoria de la Cantera",
      "native": "Hontoria de la Cantera",
      "type": "adm3",
      "level": null,
      "parent_id": null,
      "population": 174,
      "latitude": "42.18879000",
      "longitude": "-3.64251000",
      "timezone": "Europe/Madrid",
      "wikiDataId": "Q1751514",
      "country_code": "ES",
      "state_code": "BU",
      "state_id": 1146,
      "country_id": 207
    },
    {
      "id": 34647,
      "name": "होन्टोरिया डे वाल्डेराडोस",
      "name_default": "Hontoria de Valdearados",
      "native": "Hontoria de Valdearados",
      "type": "adm3",
      "level": null,
      "parent_id": null,
      "population": 256,
      "latitude": "41.74488000",
      "longitude": "-3.51983000",
      "timezone": "Europe/Madrid",
      "wikiDataId": "Q1643872",
      "country_code": "ES",
      "state_code": "BU",
      "state_id": 1146,
      "country_id": 207
    },
    {
      "id": 34649,
      "name": "होन्टोरिया डेल पिनार",
      "name_default": "Hontoria del Pinar",
      "native": "Hontoria del Pinar",
      "type": "adm3",
      "level": null,
      "parent_id": null,
      "population": 786,
      "latitude": "41.84838000",
      "longitude": "-3.16245000",
      "timezone": "Europe/Madrid",
      "wikiDataId": "Q970273",
      "country_code": "ES",
      "state_code": "BU",
      "state_id": 1146,
      "country_id": 207
    },
    {
      "id": 34663,
      "name": "हॉर्निलोस डेल कैमिनो",
      "name_default": "Hornillos del Camino",
      "native": "Hornillos del Camino",
      "type": "adm3",
      "level": null,
      "parent_id": null,
      "population": 70,
      "latitude": "42.33863000",
      "longitude": "-3.92560000",
      "timezone": "Europe/Madrid",
      "wikiDataId": "Q958987",
      "country_code": "ES",
      "state_code": "BU",
      "state_id": 1146,
      "country_id": 207
    },
    {
      "id": 34668,
      "name": "हॉर्टिगुएला",
      "name_default": "Hortigüela",
      "native": "Hortiguala",
      "type": "adm3",
      "level": null,
      "parent_id": null,
      "population": 107,
      "latitude": "42.06842000",
      "longitude": "-3.42578000",
      "timezone": "Europe/Madrid",
      "wikiDataId": "Q1643581",
      "country_code": "ES",
      "state_code": "BU",
      "state_id": 1146,
      "country_id": 207
    },
    {
      "id": 34673,
      "name": "होयालेस डे रोआ",
      "name_default": "Hoyales de Roa",
      "native": "Hoyales de Roa",
      "type": "adm3",
      "level": null,
      "parent_id": null,
      "population": 269,
      "latitude": "41.65893000",
      "longitude": "-3.86202000",
      "timezone": "Europe/Madrid",
      "wikiDataId": "Q1633415",
      "country_code": "ES",
      "state_code": "BU",
      "state_id": 1146,
      "country_id": 207
    },
    {
      "id": 34715,
      "name": "हुएर्मेस",
      "name_default": "Huérmeces",
      "native": "Huérmeces",
      "type": "adm3",
      "level": null,
      "parent_id": null,
      "population": 153,
      "latitude": "42.52250000",
      "longitude": "-3.77072000",
      "timezone": "Europe/Madrid",
      "wikiDataId": "Q1765304",
      "country_code": "ES",
      "state_code": "BU",
      "state_id": 1146,
      "country_id": 207
    },
    {
      "id": 34687,
      "name": "हुएर्ता डे अरीबा",
      "name_default": "Huerta de Arriba",
      "native": "Huerta de Arriba",
      "type": "adm3",
      "level": null,
      "parent_id": null,
      "population": 171,
      "latitude": "42.11672000",
      "longitude": "-3.08211000",
      "timezone": "Europe/Madrid",
      "wikiDataId": "Q1765226",
      "country_code": "ES",
      "state_code": "BU",
      "state_id": 1146,
      "country_id": 207
    },
    {
      "id": 152313,
      "name": "हुएर्ता डे रे",
      "name_default": "Huerta de Rey",
      "native": "Huerta de Rey",
      "type": "city",
      "level": null,
      "parent_id": null,
      "population": 1222,
      "latitude": "41.83939150",
      "longitude": "-3.34707780",
      "timezone": "Europe/Madrid",
      "wikiDataId": "Q1645211",
      "country_code": "ES",
      "state_code": "BU",
      "state_id": 1146,
      "country_id": 207
    },
    {
      "id": 34699,
      "name": "हुमादा",
      "name_default": "Humada",
      "native": "Humada",
      "type": "adm3",
      "level": null,
      "parent_id": null,
      "population": 173,
      "latitude": "42.66667000",
      "longitude": "-4.08333000",
      "timezone": "Europe/Madrid",
      "wikiDataId": "Q1656658",
      "country_code": "ES",
      "state_code": "BU",
      "state_id": 1146,
      "country_id": 207
    },
    {
      "id": 34703,
      "name": "हूरोन्स",
      "name_default": "Hurones",
      "native": "Hurones",
      "type": "adm3",
      "level": null,
      "parent_id": null,
      "population": 71,
      "latitude": "42.40571000",
      "longitude": "-3.61588000",
      "timezone": "Europe/Madrid",
      "wikiDataId": "Q943500",
      "country_code": "ES",
      "state_code": "BU",
      "state_id": 1146,
      "country_id": 207
    },
    {
      "id": 34726,
      "name": "इबियस डी जुआरोस",
      "name_default": "Ibeas de Juarros",
      "native": "Ibeas de Juarros",
      "type": "adm3",
      "level": null,
      "parent_id": null,
      "population": 1459,
      "latitude": "42.33088000",
      "longitude": "-3.53519000",
      "timezone": "Europe/Madrid",
      "wikiDataId": "Q1607309",
      "country_code": "ES",
      "state_code": "BU",
      "state_id": 1146,
      "country_id": 207
    },
    {
      "id": 34730,
      "name": "इब्रिलोस",
      "name_default": "Ibrillos",
      "native": "Ibrillos",
      "type": "adm3",
      "level": null,
      "parent_id": null,
      "population": 89,
      "latitude": "42.45431000",
      "longitude": "-3.08238000",
      "timezone": "Europe/Madrid",
      "wikiDataId": "Q1643736",
      "country_code": "ES",
      "state_code": "BU",
      "state_id": 1146,
      "country_id": 207
    },
    {
      "id": 34736,
      "name": "इग्लेसियररुबिया",
      "name_default": "Iglesiarrubia",
      "native": "Iglesiarrubia",
      "type": "adm3",
      "level": null,
      "parent_id": null,
      "population": 60,
      "latitude": "41.97383000",
      "longitude": "-3.84701000",
      "timezone": "Europe/Madrid",
      "wikiDataId": "Q1628329",
      "country_code": "ES",
      "state_code": "BU",
      "state_id": 1146,
      "country_id": 207
    },
    {
      "id": 34737,
      "name": "इग्लेसियस",
      "name_default": "Iglesias",
      "native": "Iglesias",
      "type": "adm3",
      "level": null,
      "parent_id": null,
      "population": 141,
      "latitude": "42.29807000",
      "longitude": "-3.98932000",
      "timezone": "Europe/Madrid",
      "wikiDataId": "Q1076391",
      "country_code": "ES",
      "state_code": "BU",
      "state_id": 1146,
      "country_id": 207
    },
    {
      "id": 34764,
      "name": "आई एस ए आर",
      "name_default": "Isar",
      "native": "Transmitir",
      "type": "adm3",
      "level": null,
      "parent_id": null,
      "population": 382,
      "latitude": "42.36140000",
      "longitude": "-3.93040000",
      "timezone": "Europe/Madrid",
      "wikiDataId": "Q2001258",
      "country_code": "ES",
      "state_code": "BU",
      "state_id": 1146,
      "country_id": 207
    },
    {
      "id": 34771,
      "name": "इटेरो डेल कैस्टिलो",
      "name_default": "Itero del Castillo",
      "native": "Itero del Castillo",
      "type": "adm3",
      "level": null,
      "parent_id": null,
      "population": 104,
      "latitude": "42.28988000",
      "longitude": "-4.24441000",
      "timezone": "Europe/Madrid",
      "wikiDataId": "Q664582",
      "country_code": "ES",
      "state_code": "BU",
      "state_id": 1146,
      "country_id": 207
    },
    {
      "id": 34800,
      "name": "जारामिलो डे ला फ़ुएंते",
      "name_default": "Jaramillo de la Fuente",
      "native": "Jaramillo de la Fuente",
      "type": "adm3",
      "level": null,
      "parent_id": null,
      "population": 47,
      "latitude": "42.11472000",
      "longitude": "-3.31239000",
      "timezone": "Europe/Madrid",
      "wikiDataId": "Q1637080",
      "country_code": "ES",
      "state_code": "BU",
      "state_id": 1146,
      "country_id": 207
    },
    {
      "id": 34799,
      "name": "जारामिलो क्वेमाडो",
      "name_default": "Jaramillo Quemado",
      "native": "Jaramillo Quemado",
      "type": "adm3",
      "level": null,
      "parent_id": null,
      "population": 15,
      "latitude": "42.08568000",
      "longitude": "-3.35868000",
      "timezone": "Europe/Madrid",
      "wikiDataId": "Q1637069",
      "country_code": "ES",
      "state_code": "BU",
      "state_id": 1146,
      "country_id": 207
    },
    {
      "id": 152314,
      "name": "जुंटा डे ट्रास्लालोमा",
      "name_default": "Junta de Traslaloma",
      "native": "Junta de Traslaloma",
      "type": "adm3",
      "level": null,
      "parent_id": null,
      "population": 122,
      "latitude": "43.04071360",
      "longitude": "-3.38985100",
      "timezone": "Europe/Madrid",
      "wikiDataId": "Q748647",
      "country_code": "ES",
      "state_code": "BU",
      "state_id": 1146,
      "country_id": 207
    },
    {
      "id": 152315,
      "name": "जुंटा डे विलाल्बा डे लोसा",
      "name_default": "Junta de Villalba de Losa",
      "native": "Junta de Villalba de Losa",
      "type": "city",
      "level": null,
      "parent_id": null,
      "population": 77,
      "latitude": "42.93537820",
      "longitude": "-3.08794320",
      "timezone": "Europe/Madrid",
      "wikiDataId": "Q1643574",
      "country_code": "ES",
      "state_code": "BU",
      "state_id": 1146,
      "country_id": 207
    },
    {
      "id": 152316,
      "name": "Jurisdicción de Lara",
      "name_default": "Jurisdicción de Lara",
      "native": "Jurisdicción de Lara",
      "type": "adm3",
      "level": null,
      "parent_id": null,
      "population": 41,
      "latitude": "42.13519300",
      "longitude": "-3.44983460",
      "timezone": "Europe/Madrid",
      "wikiDataId": "Q1607149",
      "country_code": "ES",
      "state_code": "BU",
      "state_id": 1146,
      "country_id": 207
    },
    {
      "id": 152317,
      "name": "Jurisdicción de San Zadornil",
      "name_default": "Jurisdicción de San Zadornil",
      "native": "Jurisdicción de San Zadornil",
      "type": "city",
      "level": null,
      "parent_id": null,
      "population": 66,
      "latitude": "42.84152200",
      "longitude": "-3.15854160",
      "timezone": "Europe/Madrid",
      "wikiDataId": "Q1633291",
      "country_code": "ES",
      "state_code": "BU",
      "state_id": 1146,
      "country_id": 207
    },
    {
      "id": 152306,
      "name": "La Cueva de Roa",
      "name_default": "La Cueva de Roa",
      "native": "La Cueva de Roa",
      "type": "adm3",
      "level": null,
      "parent_id": null,
      "population": 90,
      "latitude": "41.66779890",
      "longitude": "-3.94002980",
      "timezone": "Europe/Madrid",
      "wikiDataId": "Q120171991",
      "country_code": "ES",
      "state_code": "BU",
      "state_id": 1146,
      "country_id": 207
    },
    {
      "id": 152308,
      "name": "गैलेगा ला",
      "name_default": "La Gallega",
      "native": "La Gallega",
      "type": "adm3",
      "level": null,
      "parent_id": null,
      "population": 39,
      "latitude": "41.89882540",
      "longitude": "-3.26402050",
      "timezone": "Europe/Madrid",
      "wikiDataId": "Q1637095",
      "country_code": "ES",
      "state_code": "BU",
      "state_id": 1146,
      "country_id": 207
    },
    {
      "id": 152312,
      "name": "होरा ला",
      "name_default": "La Horra",
      "native": "La Eso es",
      "type": "adm3",
      "level": null,
      "parent_id": null,
      "population": 299,
      "latitude": "41.74520710",
      "longitude": "-3.87571190",
      "timezone": "Europe/Madrid",
      "wikiDataId": "Q120172511",
      "country_code": "ES",
      "state_code": "BU",
      "state_id": 1146,
      "country_id": 207
    },
    {
      "id": 152330,
      "name": "La Puebla de Arganzón",
      "name_default": "La Puebla de Arganzón",
      "native": "La Puebla de Arganzón",
      "type": "city",
      "level": null,
      "parent_id": null,
      "population": 558,
      "latitude": "42.77547620",
      "longitude": "-2.82281240",
      "timezone": "Europe/Madrid",
      "wikiDataId": "Q1634743",
      "country_code": "ES",
      "state_code": "BU",
      "state_id": 1146,
      "country_id": 207
    },
    {
      "id": 152334,
      "name": "La Revilla y Ahedo",
      "name_default": "La Revilla y Ahedo",
      "native": "La Revilla y Ahedo",
      "type": "adm3",
      "level": null,
      "parent_id": null,
      "population": 101,
      "latitude": "42.00488420",
      "longitude": "-3.34392910",
      "timezone": "Europe/Madrid",
      "wikiDataId": "Q1643541",
      "country_code": "ES",
      "state_code": "BU",
      "state_id": 1146,
      "country_id": 207
    },
    {
      "id": 152339,
      "name": "सेक्वेरा डे हाज़ा ला",
      "name_default": "La Sequera de Haza",
      "native": "La Sequía de Haza",
      "type": "adm3",
      "level": null,
      "parent_id": null,
      "population": 27,
      "latitude": "41.56263040",
      "longitude": "-3.81751310",
      "timezone": "Europe/Madrid",
      "wikiDataId": "Q120172510",
      "country_code": "ES",
      "state_code": "BU",
      "state_id": 1146,
      "country_id": 207
    },
    {
      "id": 152354,
      "name": "La Vid de Bureba",
      "name_default": "La Vid de Bureba",
      "native": "La Vid de Bureba",
      "type": "adm3",
      "level": null,
      "parent_id": null,
      "population": 81,
      "latitude": "42.63056210",
      "longitude": "-3.30081260",
      "timezone": "Europe/Madrid",
      "wikiDataId": "Q120172651",
      "country_code": "ES",
      "state_code": "BU",
      "state_id": 1146,
      "country_id": 207
    },
    {
      "id": 152353,
      "name": "La Vid y Barrios",
      "name_default": "La Vid y Barrios",
      "native": "La Vid y Barrios",
      "type": "adm3",
      "level": null,
      "parent_id": null,
      "population": 245,
      "latitude": "41.61818340",
      "longitude": "-3.49023910",
      "timezone": "Europe/Madrid",
      "wikiDataId": "Q120172641",
      "country_code": "ES",
      "state_code": "BU",
      "state_id": 1146,
      "country_id": 207
    },
    {
      "id": 152311,
      "name": "होर्माज़ास लास",
      "name_default": "Las Hormazas",
      "native": "Las Hormazas",
      "type": "city",
      "level": null,
      "parent_id": null,
      "population": 99,
      "latitude": "42.51432710",
      "longitude": "-3.89608110",
      "timezone": "Europe/Madrid",
      "wikiDataId": "Q120173144",
      "country_code": "ES",
      "state_code": "BU",
      "state_id": 1146,
      "country_id": 207
    },
    {
      "id": 152331,
      "name": "क्विंटानिलास लास",
      "name_default": "Las Quintanillas",
      "native": "Las Quintanillas",
      "type": "adm3",
      "level": null,
      "parent_id": null,
      "population": 390,
      "latitude": "42.37191530",
      "longitude": "-3.84580920",
      "timezone": "Europe/Madrid",
      "wikiDataId": "Q1751519",
      "country_code": "ES",
      "state_code": "BU",
      "state_id": 1146,
      "country_id": 207
    },
    {
      "id": 35032,
      "name": "लेर्मा",
      "name_default": "Lerma",
      "native": "Lerma",
      "type": "adm3",
      "level": null,
      "parent_id": null,
      "population": 2570,
      "latitude": "42.02609000",
      "longitude": "-3.75978000",
      "timezone": "Europe/Madrid",
      "wikiDataId": "Q1614795",
      "country_code": "ES",
      "state_code": "BU",
      "state_id": 1146,
      "country_id": 207
    },
    {
      "id": 35068,
      "name": "लानो डी बुरेबा",
      "name_default": "Llano de Bureba",
      "native": "Llano de Bureba",
      "type": "adm3",
      "level": null,
      "parent_id": null,
      "population": 81,
      "latitude": "42.62435000",
      "longitude": "-3.45890000",
      "timezone": "Europe/Madrid",
      "wikiDataId": "Q1113409",
      "country_code": "ES",
      "state_code": "BU",
      "state_id": 1146,
      "country_id": 207
    },
    {
      "id": 35191,
      "name": "मैड्रिगल डेल मोंटे",
      "name_default": "Madrigal del Monte",
      "native": "Madrigal del Monte",
      "type": "adm3",
      "level": null,
      "parent_id": null,
      "population": 220,
      "latitude": "42.14464000",
      "longitude": "-3.67571000",
      "timezone": "Europe/Madrid",
      "wikiDataId": "Q1643684",
      "country_code": "ES",
      "state_code": "BU",
      "state_id": 1146,
      "country_id": 207
    },
    {
      "id": 35193,
      "name": "मैड्रिगालेजो डेल मोंटे",
      "name_default": "Madrigalejo del Monte",
      "native": "Madrigalejo del Monte",
      "type": "adm3",
      "level": null,
      "parent_id": null,
      "population": 176,
      "latitude": "42.12442000",
      "longitude": "-3.72509000",
      "timezone": "Europe/Madrid",
      "wikiDataId": "Q1643642",
      "country_code": "ES",
      "state_code": "BU",
      "state_id": 1146,
      "country_id": 207
    },
    {
      "id": 35206,
      "name": "महमूद",
      "name_default": "Mahamud",
      "native": "En Mahamud",
      "type": "adm3",
      "level": null,
      "parent_id": null,
      "population": 155,
      "latitude": "42.11981000",
      "longitude": "-3.94060000",
      "timezone": "Europe/Madrid",
      "wikiDataId": "Q1643651",
      "country_code": "ES",
      "state_code": "BU",
      "state_id": 1146,
      "country_id": 207
    },
    {
      "id": 35236,
      "name": "Mambrilla de Castrejón",
      "name_default": "Mambrilla de Castrejón",
      "native": "Mambrilla de Castrejón",
      "type": "adm3",
      "level": null,
      "parent_id": null,
      "population": 133,
      "latitude": "41.66634000",
      "longitude": "-3.98448000",
      "timezone": "Europe/Madrid",
      "wikiDataId": "Q1630618",
      "country_code": "ES",
      "state_code": "BU",
      "state_id": 1146,
      "country_id": 207
    },
    {
      "id": 35237,
      "name": "लारा के मकान",
      "name_default": "Mambrillas de Lara",
      "native": "Mambrillas de Lara",
      "type": "adm3",
      "level": null,
      "parent_id": null,
      "population": 56,
      "latitude": "42.09446000",
      "longitude": "-3.46195000",
      "timezone": "Europe/Madrid",
      "wikiDataId": "Q1644733",
      "country_code": "ES",
      "state_code": "BU",
      "state_id": 1146,
      "country_id": 207
    },
    {
      "id": 35238,
      "name": "मैमोलर",
      "name_default": "Mamolar",
      "native": "MOMOS",
      "type": "adm3",
      "level": null,
      "parent_id": null,
      "population": 62,
      "latitude": "41.92762000",
      "longitude": "-3.36228000",
      "timezone": "Europe/Madrid",
      "wikiDataId": "Q1630597",
      "country_code": "ES",
      "state_code": "BU",
      "state_id": 1146,
      "country_id": 207
    },
    {
      "id": 35245,
      "name": "मैनसिल्स",
      "name_default": "Manciles",
      "native": "Manciles",
      "type": "adm3",
      "level": null,
      "parent_id": null,
      "population": 32,
      "latitude": "42.45728000",
      "longitude": "-3.94461000",
      "timezone": "Europe/Madrid",
      "wikiDataId": "Q1643701",
      "country_code": "ES",
      "state_code": "BU",
      "state_id": 1146,
      "country_id": 207
    },
    {
      "id": 35360,
      "name": "माज़ुएला",
      "name_default": "Mazuela",
      "native": "Onden",
      "type": "adm3",
      "level": null,
      "parent_id": null,
      "population": 75,
      "latitude": "42.20767000",
      "longitude": "-3.91920000",
      "timezone": "Europe/Madrid",
      "wikiDataId": "Q1630729",
      "country_code": "ES",
      "state_code": "BU",
      "state_id": 1146,
      "country_id": 207
    },
    {
      "id": 35365,
      "name": "मेसेरेरेस",
      "name_default": "Mecerreyes",
      "native": "Mecerreyes",
      "type": "adm3",
      "level": null,
      "parent_id": null,
      "population": 278,
      "latitude": "42.09536000",
      "longitude": "-3.57393000",
      "timezone": "Europe/Madrid",
      "wikiDataId": "Q962962",
      "country_code": "ES",
      "state_code": "BU",
      "state_id": 1146,
      "country_id": 207
    },
    {
      "id": 35370,
      "name": "मदीना डे पोमार",
      "name_default": "Medina de Pomar",
      "native": "Medina de Pomar",
      "type": "adm3",
      "level": null,
      "parent_id": null,
      "population": 5979,
      "latitude": "42.92938000",
      "longitude": "-3.48804000",
      "timezone": "Europe/Madrid",
      "wikiDataId": "Q1614754",
      "country_code": "ES",
      "state_code": "BU",
      "state_id": 1146,
      "country_id": 207
    },
    {
      "id": 35387,
      "name": "मेलगर डी फर्नामेंटल",
      "name_default": "Melgar de Fernamental",
      "native": "Melgar de Fernamental",
      "type": "adm3",
      "level": null,
      "parent_id": null,
      "population": 1932,
      "latitude": "42.40445000",
      "longitude": "-4.24484000",
      "timezone": "Europe/Madrid",
      "wikiDataId": "Q1984852",
      "country_code": "ES",
      "state_code": "BU",
      "state_id": 1146,
      "country_id": 207
    },
    {
      "id": 152318,
      "name": "मेरिंडाड डे कुएस्टा-उर्रिया",
      "name_default": "Merindad de Cuesta-Urria",
      "native": "Merindad de Cuesta-Urria",
      "type": "adm3",
      "level": null,
      "parent_id": null,
      "population": 270,
      "latitude": "42.84564270",
      "longitude": "-3.45393670",
      "timezone": "Europe/Madrid",
      "wikiDataId": "Q1643813",
      "country_code": "ES",
      "state_code": "BU",
      "state_id": 1146,
      "country_id": 207
    },
    {
      "id": 152319,
      "name": "मेरिंडाड डी मोंटिजा",
      "name_default": "Merindad de Montija",
      "native": "Merindad de Montija",
      "type": "adm3",
      "level": null,
      "parent_id": null,
      "population": 736,
      "latitude": "43.10257350",
      "longitude": "-3.48013490",
      "timezone": "Europe/Madrid",
      "wikiDataId": "Q1631248",
      "country_code": "ES",
      "state_code": "BU",
      "state_id": 1146,
      "country_id": 207
    },
    {
      "id": 152366,
      "name": "मेरिंडाड डी रियो उबिएर्ना",
      "name_default": "Merindad de Río Ubierna",
      "native": "Merindad de Río Ubierna",
      "type": "adm3",
      "level": null,
      "parent_id": null,
      "population": 1415,
      "latitude": "42.55075630",
      "longitude": "-3.68260800",
      "timezone": "Europe/Madrid",
      "wikiDataId": "Q1630721",
      "country_code": "ES",
      "state_code": "BU",
      "state_id": 1146,
      "country_id": 207
    },
    {
      "id": 152320,
      "name": "मेरिंडाड डी सोटोस्कुएवा",
      "name_default": "Merindad de Sotoscueva",
      "native": "Merindad de Sotoscueva",
      "type": "city",
      "level": null,
      "parent_id": null,
      "population": 412,
      "latitude": "43.05877470",
      "longitude": "-3.64204800",
      "timezone": "Europe/Madrid",
      "wikiDataId": "Q1643782",
      "country_code": "ES",
      "state_code": "BU",
      "state_id": 1146,
      "country_id": 207
    },
    {
      "id": 152321,
      "name": "मेरिंडाड डे वाल्डेपोरेस",
      "name_default": "Merindad de Valdeporres",
      "native": "Merindad de Valdeporres",
      "type": "adm3",
      "level": null,
      "parent_id": null,
      "population": 421,
      "latitude": "43.05484310",
      "longitude": "-3.76382560",
      "timezone": "Europe/Madrid",
      "wikiDataId": "Q590929",
      "country_code": "ES",
      "state_code": "BU",
      "state_id": 1146,
      "country_id": 207
    },
    {
      "id": 152322,
      "name": "मेरिंडाड डी वाल्डिविएल्सो",
      "name_default": "Merindad de Valdivielso",
      "native": "Merindad de Valdivielso",
      "type": "adm3",
      "level": null,
      "parent_id": null,
      "population": 403,
      "latitude": "42.81998880",
      "longitude": "-3.53668170",
      "timezone": "Europe/Madrid",
      "wikiDataId": "Q1645203",
      "country_code": "ES",
      "state_code": "BU",
      "state_id": 1146,
      "country_id": 207
    },
    {
      "id": 35429,
      "name": "मिलाग्रोस",
      "name_default": "Milagros",
      "native": "Milagros",
      "type": "adm3",
      "level": null,
      "parent_id": null,
      "population": 418,
      "latitude": "41.57500000",
      "longitude": "-3.69907000",
      "timezone": "Europe/Madrid",
      "wikiDataId": "Q1634531",
      "country_code": "ES",
      "state_code": "BU",
      "state_id": 1146,
      "country_id": 207
    },
    {
      "id": 35450,
      "name": "मिरांडा डी एब्रो",
      "name_default": "Miranda de Ebro",
      "native": "Miranda de Ebro",
      "type": "adm3",
      "level": null,
      "parent_id": null,
      "population": 36025,
      "latitude": "42.68650000",
      "longitude": "-2.94695000",
      "timezone": "Europe/Madrid",
      "wikiDataId": "Q24010459",
      "country_code": "ES",
      "state_code": "BU",
      "state_id": 1146,
      "country_id": 207
    },
    {
      "id": 35453,
      "name": "मिरावेचे",
      "name_default": "Miraveche",
      "native": "Miraveche",
      "type": "adm3",
      "level": null,
      "parent_id": null,
      "population": 95,
      "latitude": "42.67396000",
      "longitude": "-3.19947000",
      "timezone": "Europe/Madrid",
      "wikiDataId": "Q1643895",
      "country_code": "ES",
      "state_code": "BU",
      "state_id": 1146,
      "country_id": 207
    },
    {
      "id": 35464,
      "name": "Modúbar de la Emparedada",
      "name_default": "Modúbar de la Emparedada",
      "native": "Modúbar de la Emparedada",
      "type": "adm3",
      "level": null,
      "parent_id": null,
      "population": 383,
      "latitude": "42.26118000",
      "longitude": "-3.65965000",
      "timezone": "Europe/Madrid",
      "wikiDataId": "Q1645207",
      "country_code": "ES",
      "state_code": "BU",
      "state_id": 1146,
      "country_id": 207
    },
    {
      "id": 35498,
      "name": "मोनास्टरियो डे ला सिएरा",
      "name_default": "Monasterio de la Sierra",
      "native": "Monasterio de la Sierra",
      "type": "adm3",
      "level": null,
      "parent_id": null,
      "population": 40,
      "latitude": "42.05180000",
      "longitude": "-3.19314000",
      "timezone": "Europe/Madrid",
      "wikiDataId": "Q613630",
      "country_code": "ES",
      "state_code": "BU",
      "state_id": 1146,
      "country_id": 207
    },
    {
      "id": 35496,
      "name": "मोनास्टरियो डी रोडिला",
      "name_default": "Monasterio de Rodilla",
      "native": "Monasterio de Rodilla",
      "type": "adm3",
      "level": null,
      "parent_id": null,
      "population": 219,
      "latitude": "42.45775000",
      "longitude": "-3.46965000",
      "timezone": "Europe/Madrid",
      "wikiDataId": "Q1765206",
      "country_code": "ES",
      "state_code": "BU",
      "state_id": 1146,
      "country_id": 207
    },
    {
      "id": 35500,
      "name": "मोनकालविलो",
      "name_default": "Moncalvillo",
      "native": "Moncalvillo",
      "type": "adm3",
      "level": null,
      "parent_id": null,
      "population": 104,
      "latitude": "41.95413000",
      "longitude": "-3.19886000",
      "timezone": "Europe/Madrid",
      "wikiDataId": "Q1649205",
      "country_code": "ES",
      "state_code": "BU",
      "state_id": 1146,
      "country_id": 207
    },
    {
      "id": 152323,
      "name": "मोंटेरुबियो डे ला डिमांडा",
      "name_default": "Monterrubio de la Demanda",
      "native": "Monterrubio de la Demanda",
      "type": "adm3",
      "level": null,
      "parent_id": null,
      "population": 56,
      "latitude": "42.14847600",
      "longitude": "-3.11399480",
      "timezone": "Europe/Madrid",
      "wikiDataId": "Q1632347",
      "country_code": "ES",
      "state_code": "BU",
      "state_id": 1146,
      "country_id": 207
    },
    {
      "id": 35581,
      "name": "मोंटोरियो",
      "name_default": "Montorio",
      "native": "Montorio",
      "type": "adm3",
      "level": null,
      "parent_id": null,
      "population": 149,
      "latitude": "42.58469000",
      "longitude": "-3.77724000",
      "timezone": "Europe/Madrid",
      "wikiDataId": "Q945226",
      "country_code": "ES",
      "state_code": "BU",
      "state_id": 1146,
      "country_id": 207
    },
    {
      "id": 35595,
      "name": "मोराडिलो डी रोआ",
      "name_default": "Moradillo de Roa",
      "native": "Moradillo de Roa",
      "type": "adm3",
      "level": null,
      "parent_id": null,
      "population": 170,
      "latitude": "41.55164000",
      "longitude": "-3.79118000",
      "timezone": "Europe/Madrid",
      "wikiDataId": "Q1630610",
      "country_code": "ES",
      "state_code": "BU",
      "state_id": 1146,
      "country_id": 207
    },
    {
      "id": 35724,
      "name": "नवा डे रोआ",
      "name_default": "Nava de Roa",
      "native": "El barco de rosas",
      "type": "adm3",
      "level": null,
      "parent_id": null,
      "population": 199,
      "latitude": "41.61326000",
      "longitude": "-3.96442000",
      "timezone": "Europe/Madrid",
      "wikiDataId": "Q1617624",
      "country_code": "ES",
      "state_code": "BU",
      "state_id": 1146,
      "country_id": 207
    },
    {
      "id": 35777,
      "name": "नवास डी बुरेबा",
      "name_default": "Navas de Bureba",
      "native": "Navas de Bureba",
      "type": "adm3",
      "level": null,
      "parent_id": null,
      "population": 45,
      "latitude": "42.68090000",
      "longitude": "-3.32698000",
      "timezone": "Europe/Madrid",
      "wikiDataId": "Q1635320",
      "country_code": "ES",
      "state_code": "BU",
      "state_id": 1146,
      "country_id": 207
    },
    {
      "id": 35795,
      "name": "नेब्रेडा",
      "name_default": "Nebreda",
      "native": "Nebreda",
      "type": "adm3",
      "level": null,
      "parent_id": null,
      "population": 92,
      "latitude": "41.96881000",
      "longitude": "-3.63430000",
      "timezone": "Europe/Madrid",
      "wikiDataId": "Q948683",
      "country_code": "ES",
      "state_code": "BU",
      "state_id": 1146,
      "country_id": 207
    },
    {
      "id": 35799,
      "name": "नीला",
      "name_default": "Neila",
      "native": "Neila",
      "type": "adm3",
      "level": null,
      "parent_id": null,
      "population": 249,
      "latitude": "42.06016000",
      "longitude": "-2.99691000",
      "timezone": "Europe/Madrid",
      "wikiDataId": "Q1635241",
      "country_code": "ES",
      "state_code": "BU",
      "state_id": 1146,
      "country_id": 207
    },
    {
      "id": 35900,
      "name": "ओल्मेडिलो डी रोआ",
      "name_default": "Olmedillo de Roa",
      "native": "Olmedillo de Roa",
      "type": "adm3",
      "level": null,
      "parent_id": null,
      "population": 185,
      "latitude": "41.78362000",
      "longitude": "-3.93419000",
      "timezone": "Europe/Madrid",
      "wikiDataId": "Q923900",
      "country_code": "ES",
      "state_code": "BU",
      "state_id": 1146,
      "country_id": 207
    },
    {
      "id": 35904,
      "name": "ओल्मिलोस डी मुनो",
      "name_default": "Olmillos de Muñó",
      "native": "Olmillos de Muñó",
      "type": "adm3",
      "level": null,
      "parent_id": null,
      "population": 40,
      "latitude": "42.20322000",
      "longitude": "-3.93911000",
      "timezone": "Europe/Madrid",
      "wikiDataId": "Q1607282",
      "country_code": "ES",
      "state_code": "BU",
      "state_id": 1146,
      "country_id": 207
    },
    {
      "id": 35988,
      "name": "एक पर",
      "name_default": "Oña",
      "native": "Vagón",
      "type": "adm3",
      "level": null,
      "parent_id": null,
      "population": 1452,
      "latitude": "42.73400000",
      "longitude": "-3.41459000",
      "timezone": "Europe/Madrid",
      "wikiDataId": "Q1609760",
      "country_code": "ES",
      "state_code": "BU",
      "state_id": 1146,
      "country_id": 207
    },
    {
      "id": 35931,
      "name": "ओक्विलास",
      "name_default": "Oquillas",
      "native": "Oquillas",
      "type": "adm3",
      "level": null,
      "parent_id": null,
      "population": 75,
      "latitude": "41.83085000",
      "longitude": "-3.70564000",
      "timezone": "Europe/Madrid",
      "wikiDataId": "Q1607246",
      "country_code": "ES",
      "state_code": "BU",
      "state_id": 1146,
      "country_id": 207
    },
    {
      "id": 152324,
      "name": "ओर्बानेजा रिओपिको",
      "name_default": "Orbaneja Riopico",
      "native": "Orbaneja riopica",
      "type": "adm3",
      "level": null,
      "parent_id": null,
      "population": 350,
      "latitude": "42.36071140",
      "longitude": "-3.58443300",
      "timezone": "Europe/Madrid",
      "wikiDataId": "Q946797",
      "country_code": "ES",
      "state_code": "BU",
      "state_id": 1146,
      "country_id": 207
    },
    {
      "id": 35991,
      "name": "पैडिला डी अबाजो",
      "name_default": "Padilla de Abajo",
      "native": "Padilla de Abajo",
      "type": "adm3",
      "level": null,
      "parent_id": null,
      "population": 102,
      "latitude": "42.40774000",
      "longitude": "-4.17652000",
      "timezone": "Europe/Madrid",
      "wikiDataId": "Q1656674",
      "country_code": "ES",
      "state_code": "BU",
      "state_id": 1146,
      "country_id": 207
    },
    {
      "id": 35992,
      "name": "पैडिला डे अरीबा",
      "name_default": "Padilla de Arriba",
      "native": "Padilla de Arriba",
      "type": "adm3",
      "level": null,
      "parent_id": null,
      "population": 92,
      "latitude": "42.43803000",
      "longitude": "-4.19094000",
      "timezone": "Europe/Madrid",
      "wikiDataId": "Q934356",
      "country_code": "ES",
      "state_code": "BU",
      "state_id": 1146,
      "country_id": 207
    },
    {
      "id": 35994,
      "name": "पैड्रोन्स डी बुरेबा",
      "name_default": "Padrones de Bureba",
      "native": "Padrones de Bureba",
      "type": "adm3",
      "level": null,
      "parent_id": null,
      "population": 59,
      "latitude": "42.70582000",
      "longitude": "-3.53296000",
      "timezone": "Europe/Madrid",
      "wikiDataId": "Q1643720",
      "country_code": "ES",
      "state_code": "BU",
      "state_id": 1146,
      "country_id": 207
    },
    {
      "id": 36008,
      "name": "पालासिओस डे ला सिएरा",
      "name_default": "Palacios de la Sierra",
      "native": "Palacios de la Sierra",
      "type": "adm3",
      "level": null,
      "parent_id": null,
      "population": 875,
      "latitude": "41.96392000",
      "longitude": "-3.12788000",
      "timezone": "Europe/Madrid",
      "wikiDataId": "Q953204",
      "country_code": "ES",
      "state_code": "BU",
      "state_id": 1146,
      "country_id": 207
    },
    {
      "id": 152325,
      "name": "पलासियोस डी रियोपिसुएर्गा",
      "name_default": "Palacios de Riopisuerga",
      "native": "Palacios de Riopisuerga",
      "type": "city",
      "level": null,
      "parent_id": null,
      "population": 18,
      "latitude": "42.34358350",
      "longitude": "-4.25737110",
      "timezone": "Europe/Madrid",
      "wikiDataId": "Q588521",
      "country_code": "ES",
      "state_code": "BU",
      "state_id": 1146,
      "country_id": 207
    },
    {
      "id": 36021,
      "name": "पलाज़ुएलोस डे ला सिएरा",
      "name_default": "Palazuelos de la Sierra",
      "native": "Palazuelos de la Sierra",
      "type": "adm3",
      "level": null,
      "parent_id": null,
      "population": 72,
      "latitude": "42.21162000",
      "longitude": "-3.46014000",
      "timezone": "Europe/Madrid",
      "wikiDataId": "Q1643773",
      "country_code": "ES",
      "state_code": "BU",
      "state_id": 1146,
      "country_id": 207
    },
    {
      "id": 36020,
      "name": "पलाज़ुएलोस डी मुनो",
      "name_default": "Palazuelos de Muñó",
      "native": "Palazuelos de Muñó",
      "type": "adm3",
      "level": null,
      "parent_id": null,
      "population": 0,
      "latitude": "42.19692000",
      "longitude": "-3.98984000",
      "timezone": "Europe/Madrid",
      "wikiDataId": "Q947436",
      "country_code": "ES",
      "state_code": "BU",
      "state_id": 1146,
      "country_id": 207
    },
    {
      "id": 36044,
      "name": "पम्पलीगा",
      "name_default": "Pampliega",
      "native": "Pampliega",
      "type": "adm3",
      "level": null,
      "parent_id": null,
      "population": 405,
      "latitude": "42.20582000",
      "longitude": "-3.98666000",
      "timezone": "Europe/Madrid",
      "wikiDataId": "Q1656665",
      "country_code": "ES",
      "state_code": "BU",
      "state_id": 1146,
      "country_id": 207
    },
    {
      "id": 36046,
      "name": "पैनकोर्बो",
      "name_default": "Pancorbo",
      "native": "Pancorbo",
      "type": "adm3",
      "level": null,
      "parent_id": null,
      "population": 437,
      "latitude": "42.63418000",
      "longitude": "-3.11180000",
      "timezone": "Europe/Madrid",
      "wikiDataId": "Q1631272",
      "country_code": "ES",
      "state_code": "BU",
      "state_id": 1146,
      "country_id": 207
    },
    {
      "id": 36063,
      "name": "पार्डिला",
      "name_default": "Pardilla",
      "native": "Pardilla",
      "type": "adm3",
      "level": null,
      "parent_id": null,
      "population": 102,
      "latitude": "41.55183000",
      "longitude": "-3.71089000",
      "timezone": "Europe/Madrid",
      "wikiDataId": "Q963998",
      "country_code": "ES",
      "state_code": "BU",
      "state_id": 1146,
      "country_id": 207
    },
    {
      "id": 152326,
      "name": "पार्टिडो डे ला सिएरा एन टोबालिना",
      "name_default": "Partido de la Sierra en Tobalina",
      "native": "Partido de la Sierra en Tobalina",
      "type": "adm3",
      "level": null,
      "parent_id": null,
      "population": 81,
      "latitude": "42.72561830",
      "longitude": "-3.23322440",
      "timezone": "Europe/Madrid",
      "wikiDataId": "Q425805",
      "country_code": "ES",
      "state_code": "BU",
      "state_id": 1146,
      "country_id": 207
    },
    {
      "id": 36104,
      "name": "पेड्रोसा डी डुएरो",
      "name_default": "Pedrosa de Duero",
      "native": "Pedrosa de Duero",
      "type": "adm3",
      "level": null,
      "parent_id": null,
      "population": 461,
      "latitude": "41.71289000",
      "longitude": "-3.98804000",
      "timezone": "Europe/Madrid",
      "wikiDataId": "Q1630628",
      "country_code": "ES",
      "state_code": "BU",
      "state_id": 1146,
      "country_id": 207
    },
    {
      "id": 152327,
      "name": "पेड्रोसा डी रियो उर्बेल",
      "name_default": "Pedrosa de Río Úrbel",
      "native": "Pedrosa de Río Úrbel",
      "type": "adm3",
      "level": null,
      "parent_id": null,
      "population": 246,
      "latitude": "42.40984850",
      "longitude": "-3.82196320",
      "timezone": "Europe/Madrid",
      "wikiDataId": "Q1751251",
      "country_code": "ES",
      "state_code": "BU",
      "state_id": 1146,
      "country_id": 207
    },
    {
      "id": 36107,
      "name": "पेड्रोसा डेल पैरामो",
      "name_default": "Pedrosa del Páramo",
      "native": "Pedrosa del Páramo",
      "type": "adm3",
      "level": null,
      "parent_id": null,
      "population": 90,
      "latitude": "42.44208000",
      "longitude": "-3.97190000",
      "timezone": "Europe/Madrid",
      "wikiDataId": "Q1751259",
      "country_code": "ES",
      "state_code": "BU",
      "state_id": 1146,
      "country_id": 207
    },
    {
      "id": 36106,
      "name": "पेड्रोसा डेल प्रिंसिपे",
      "name_default": "Pedrosa del Príncipe",
      "native": "Pedrosa del Príncipe",
      "type": "adm3",
      "level": null,
      "parent_id": null,
      "population": 206,
      "latitude": "42.24918000",
      "longitude": "-4.19849000",
      "timezone": "Europe/Madrid",
      "wikiDataId": "Q589737",
      "country_code": "ES",
      "state_code": "BU",
      "state_id": 1146,
      "country_id": 207
    },