{
  "locale": "ru",
  "country": {
    "id": 80,
    "code": "GM",
    "iso3": "GMB",
    "numeric_code": "270",
    "name": "Гамбия",
    "name_default": "The Gambia",
    "native": "Gambia",
    "capital": "Banjul",
    "phonecode": "220",
    "currency": "GMD",
    "currency_name": "Gambian dalasi",
    "currency_symbol": "D",
    "tld": ".gm",
    "population": 2422712,
    "gdp": 2771,
    "region": "Africa",
    "region_id": 1,
    "subregion": "Western Africa",
    "subregion_id": 3,
    "nationality": "Gambian",
    "timezones": [
      {
        "zoneName": "Africa/Banjul",
        "gmtOffset": 0,
        "gmtOffsetName": "UTC±00",
        "abbreviation": "GMT",
        "tzName": "Greenwich Mean Time"
      }
    ],
    "latitude": "13.46666666",
    "longitude": "-16.56666666",
    "emoji": "🇬🇲",
    "emojiU": "U+1F1EC U+1F1F2"
  },
  "state": {
    "id": 2667,
    "code": "W",
    "iso2": "W",
    "iso3166_2": "GM-W",
    "fips_code": "05",
    "name": "Западное побережье",
    "name_default": "West Coast",
    "native": "West Coast",
    "type": "division",
    "level": "2",
    "parent_id": null,
    "population": null,
    "latitude": "13.25851300",
    "longitude": "-16.49990510",
    "timezone": "Africa/Banjul",
    "wikiDataId": "Q846158",
    "country_code": "GM"
  },
  "cities": [
    {
      "id": 52217,
      "name": "Абуко",
      "name_default": "Abuko",
      "native": "Circle",
      "type": "city",
      "level": null,
      "parent_id": null,
      "population": 18978,
      "latitude": "13.40417000",
      "longitude": "-16.65583000",
      "timezone": "Africa/Banjul",
      "wikiDataId": "Q335811",
      "country_code": "GM",
      "state_code": "W",
      "state_id": 2667,
      "country_id": 80
    },
    {
      "id": 52227,
      "name": "Брикама",
      "name_default": "Brikama",
      "native": "Brikama",
      "type": "adm1",
      "level": null,
      "parent_id": null,
      "population": 81007,
      "latitude": "13.27136000",
      "longitude": "-16.64944000",
      "timezone": "Africa/Banjul",
      "wikiDataId": "Q916988",
      "country_code": "GM",
      "state_code": "W",
      "state_id": 2667,
      "country_id": 80
    },
    {
      "id": 52241,
      "name": "Фони Бондали",
      "name_default": "Foni Bondali",
      "native": "Phone Along",
      "type": "city",
      "level": null,
      "parent_id": null,
      "population": 6301,
      "latitude": "13.21667000",
      "longitude": "-15.93333000",
      "timezone": "Africa/Banjul",
      "wikiDataId": "Q1435751",
      "country_code": "GM",
      "state_code": "W",
      "state_id": 2667,
      "country_id": 80
    },
    {
      "id": 52242,
      "name": "Фони Брефет",
      "name_default": "Foni Brefet",
      "native": "Foni Brefet",
      "type": "city",
      "level": null,
      "parent_id": null,
      "population": 11920,
      "latitude": "13.21667000",
      "longitude": "-16.33333000",
      "timezone": "Africa/Banjul",
      "wikiDataId": "Q1435749",
      "country_code": "GM",
      "state_code": "W",
      "state_id": 2667,
      "country_id": 80
    },
    {
      "id": 52243,
      "name": "Фони Джаррол",
      "name_default": "Foni Jarrol",
      "native": "Phoni jarrol",
      "type": "city",
      "level": null,
      "parent_id": null,
      "population": 6314,
      "latitude": "13.23333000",
      "longitude": "-15.83333000",
      "timezone": "Africa/Banjul",
      "wikiDataId": "Q124275",
      "country_code": "GM",
      "state_code": "W",
      "state_id": 2667,
      "country_id": 80
    },
    {
      "id": 52244,
      "name": "Фони Кансала",
      "name_default": "Foni Kansala",
      "native": "The phone's phone",
      "type": "city",
      "level": null,
      "parent_id": null,
      "population": 13192,
      "latitude": "13.21667000",
      "longitude": "-16.05000000",
      "timezone": "Africa/Banjul",
      "wikiDataId": "Q1435754",
      "country_code": "GM",
      "state_code": "W",
      "state_id": 2667,
      "country_id": 80
    },
    {
      "id": 52249,
      "name": "Гунджур",
      "name_default": "Gunjur",
      "native": "Gunjur",
      "type": "city",
      "level": null,
      "parent_id": null,
      "population": 22741,
      "latitude": "13.20194000",
      "longitude": "-16.73389000",
      "timezone": "Africa/Banjul",
      "wikiDataId": "Q687816",
      "country_code": "GM",
      "state_code": "W",
      "state_id": 2667,
      "country_id": 80
    },
    {
      "id": 52274,
      "name": "Центральный район Комбо",
      "name_default": "Kombo Central",
      "native": "Kombo Central District",
      "type": "district",
      "level": null,
      "parent_id": null,
      "population": null,
      "latitude": "13.25000000",
      "longitude": "-16.66667000",
      "timezone": "Africa/Banjul",
      "wikiDataId": "Q1572741",
      "country_code": "GM",
      "state_code": "W",
      "state_id": 2667,
      "country_id": 80
    },
    {
      "id": 52275,
      "name": "Район Комбо-Ист",
      "name_default": "Kombo East",
      "native": "Kombo East District",
      "type": "district",
      "level": null,
      "parent_id": null,
      "population": null,
      "latitude": "13.21667000",
      "longitude": "-16.51667000",
      "timezone": "Africa/Banjul",
      "wikiDataId": "Q1548433",
      "country_code": "GM",
      "state_code": "W",
      "state_id": 2667,
      "country_id": 80
    },
    {
      "id": 52276,
      "name": "Район Комбо Северный",
      "name_default": "Kombo North",
      "native": "Kombo North District",
      "type": "district",
      "level": null,
      "parent_id": null,
      "population": 13162,
      "latitude": "13.36667000",
      "longitude": "-16.66667000",
      "timezone": "Africa/Banjul",
      "wikiDataId": "Q1572418",
      "country_code": "GM",
      "state_code": "W",
      "state_id": 2667,
      "country_id": 80
    },
    {
      "id": 52278,
      "name": "Район Комбо Юг",
      "name_default": "Kombo South",
      "native": "Koto South District",
      "type": "district",
      "level": null,
      "parent_id": null,
      "population": null,
      "latitude": "13.25000000",
      "longitude": "-16.75000000",
      "timezone": "Africa/Banjul",
      "wikiDataId": "Q1572017",
      "country_code": "GM",
      "state_code": "W",
      "state_id": 2667,
      "country_id": 80
    },
    {
      "id": 52307,
      "name": "Сомита",
      "name_default": "Somita",
      "native": "Somita",
      "type": "city",
      "level": null,
      "parent_id": null,
      "population": 2541,
      "latitude": "13.20583000",
      "longitude": "-16.30556000",
      "timezone": "Africa/Banjul",
      "wikiDataId": "Q2299731",
      "country_code": "GM",
      "state_code": "W",
      "state_id": 2667,
      "country_id": 80
    },
    {
      "id": 52310,
      "name": "Сукута",
      "name_default": "Sukuta",
      "native": "Sukuta",
      "type": "city",
      "level": null,
      "parent_id": null,
      "population": 56472,
      "latitude": "13.41033000",
      "longitude": "-16.70815000",
      "timezone": "Africa/Banjul",
      "wikiDataId": "Q1013940",
      "country_code": "GM",
      "state_code": "W",
      "state_id": 2667,
      "country_id": 80
    }
  ]
}
