{
  "locale": "ar",
  "country": {
    "id": 54,
    "code": "CI",
    "iso3": "CIV",
    "numeric_code": "384",
    "name": "كوت ديفوار (ساحل العاج)",
    "name_default": "Ivory Coast",
    "native": "Cote D'Ivoire",
    "capital": "Yamoussoukro",
    "phonecode": "225",
    "currency": "XOF",
    "currency_name": "West African CFA franc",
    "currency_symbol": "CFA",
    "tld": ".ci",
    "population": 29389150,
    "gdp": 94483,
    "region": "Africa",
    "region_id": 1,
    "subregion": "Western Africa",
    "subregion_id": 3,
    "nationality": "Ivorian",
    "timezones": [
      {
        "zoneName": "Africa/Abidjan",
        "gmtOffset": 0,
        "gmtOffsetName": "UTC±00",
        "abbreviation": "GMT",
        "tzName": "Greenwich Mean Time"
      }
    ],
    "latitude": "8.00000000",
    "longitude": "-5.00000000",
    "emoji": "🇨🇮",
    "emojiU": "U+1F1E8 U+1F1EE"
  },
  "state": {
    "id": 2627,
    "code": "LG",
    "iso2": "LG",
    "iso3166_2": "CI-LG",
    "fips_code": "82",
    "name": "لاجونيس",
    "name_default": "Lagunes",
    "native": "Tombé en panne",
    "type": "district",
    "level": "2",
    "parent_id": null,
    "population": 2042623,
    "latitude": "5.88273340",
    "longitude": "-4.23333550",
    "timezone": "Africa/Abidjan",
    "wikiDataId": "Q20980365",
    "country_code": "CI"
  },
  "cities": [
    {
      "id": 18864,
      "name": "أدزوبيه",
      "name_default": "Adzopé",
      "native": "Adzopé",
      "type": "adm2",
      "level": null,
      "parent_id": null,
      "population": 76122,
      "latitude": "6.10694000",
      "longitude": "-3.86194000",
      "timezone": "Africa/Abidjan",
      "wikiDataId": "Q1270691",
      "country_code": "CI",
      "state_code": "LG",
      "state_id": 2627,
      "country_id": 54
    },
    {
      "id": 18865,
      "name": "أفيري",
      "name_default": "Affery",
      "native": "Affaiblissement",
      "type": "city",
      "level": null,
      "parent_id": null,
      "population": 47109,
      "latitude": "6.32035000",
      "longitude": "-3.95235000",
      "timezone": "Africa/Abidjan",
      "wikiDataId": "Q1270691",
      "country_code": "CI",
      "state_code": "LG",
      "state_id": 2627,
      "country_id": 54
    },
    {
      "id": 18866,
      "name": "أغبوفيل",
      "name_default": "Agboville",
      "native": "Agboville",
      "type": "adm2",
      "level": null,
      "parent_id": null,
      "population": 81770,
      "latitude": "5.92801000",
      "longitude": "-4.21319000",
      "timezone": "Africa/Abidjan",
      "wikiDataId": "Q2080938",
      "country_code": "CI",
      "state_code": "LG",
      "state_id": 2627,
      "country_id": 54
    },
    {
      "id": 18868,
      "name": "أغنيبي تياسا",
      "name_default": "Agnéby-Tiassa",
      "native": "Agnby-tiassa",
      "type": "city",
      "level": null,
      "parent_id": null,
      "population": null,
      "latitude": "5.79488000",
      "longitude": "-4.37187000",
      "timezone": "Africa/Abidjan",
      "wikiDataId": "Q2080938",
      "country_code": "CI",
      "state_code": "LG",
      "state_id": 2627,
      "country_id": 54
    },
    {
      "id": 18869,
      "name": "أكوبيه",
      "name_default": "Akoupé",
      "native": "Typtes",
      "type": "adm3",
      "level": null,
      "parent_id": null,
      "population": 35970,
      "latitude": "6.38423000",
      "longitude": "-3.88759000",
      "timezone": "Africa/Abidjan",
      "wikiDataId": "Q2080938",
      "country_code": "CI",
      "state_code": "LG",
      "state_id": 2627,
      "country_id": 54
    },
    {
      "id": 18891,
      "name": "دابو",
      "name_default": "Dabou",
      "native": "Dabou",
      "type": "city",
      "level": null,
      "parent_id": null,
      "population": 138083,
      "latitude": "5.32556000",
      "longitude": "-4.37685000",
      "timezone": "Africa/Abidjan",
      "wikiDataId": "Q1588249",
      "country_code": "CI",
      "state_code": "LG",
      "state_id": 2627,
      "country_id": 54
    },
    {
      "id": 18904,
      "name": "جراند لاهو",
      "name_default": "Grand-Lahou",
      "native": "Grand-Lahou",
      "type": "city",
      "level": null,
      "parent_id": null,
      "population": 3685,
      "latitude": "5.25068000",
      "longitude": "-5.00333000",
      "timezone": "Africa/Abidjan",
      "wikiDataId": "Q1102140",
      "country_code": "CI",
      "state_code": "LG",
      "state_id": 2627,
      "country_id": 54
    },
    {
      "id": 18905,
      "name": "جراند بونتس",
      "name_default": "Grands-Ponts",
      "native": "Grands-Ponts",
      "type": "city",
      "level": null,
      "parent_id": null,
      "population": null,
      "latitude": "5.30487000",
      "longitude": "-4.39247000",
      "timezone": "Africa/Abidjan",
      "wikiDataId": "Q1102140",
      "country_code": "CI",
      "state_code": "LG",
      "state_id": 2627,
      "country_id": 54
    },
    {
      "id": 18935,
      "name": "تياسالي",
      "name_default": "Tiassalé",
      "native": "Tiiassélé",
      "type": "adm3",
      "level": null,
      "parent_id": null,
      "population": 35090,
      "latitude": "5.89839000",
      "longitude": "-4.82293000",
      "timezone": "Africa/Abidjan",
      "wikiDataId": "Q952665",
      "country_code": "CI",
      "state_code": "LG",
      "state_id": 2627,
      "country_id": 54
    }
  ]
}
