{
  "locale": "fa",
  "country": {
    "id": 75,
    "code": "FR",
    "iso3": "FRA",
    "numeric_code": "250",
    "name": "فرانسه",
    "name_default": "France",
    "native": "France",
    "capital": "Paris",
    "phonecode": "33",
    "currency": "EUR",
    "currency_name": "Euro",
    "currency_symbol": "€",
    "tld": ".fr",
    "population": 68688000,
    "gdp": 3211292,
    "region": "Europe",
    "region_id": 4,
    "subregion": "Western Europe",
    "subregion_id": 17,
    "nationality": "French",
    "timezones": [
      {
        "zoneName": "Europe/Paris",
        "gmtOffset": 3600,
        "gmtOffsetName": "UTC+01:00",
        "abbreviation": "CET",
        "tzName": "Central European Time"
      }
    ],
    "latitude": "46.00000000",
    "longitude": "2.00000000",
    "emoji": "🇫🇷",
    "emojiU": "U+1F1EB U+1F1F7"
  },
  "state": {
    "id": 5020,
    "code": "52",
    "iso2": "52",
    "iso3166_2": "FR-52",
    "fips_code": null,
    "name": "اوت-مارن",
    "name_default": "Haute-Marne",
    "native": "Haute-Marne",
    "type": "metropolitan department",
    "level": "2",
    "parent_id": "4820",
    "population": 169865,
    "latitude": "48.13294140",
    "longitude": "5.25291080",
    "timezone": "Europe/Paris",
    "wikiDataId": "Q12607",
    "country_code": "FR"
  },
  "cities": [
    {
      "id": 155592,
      "name": "ایج‌ویل",
      "name_default": "Ageville",
      "native": "Ageville",
      "type": "city",
      "level": null,
      "parent_id": null,
      "population": 302,
      "latitude": "48.11003830",
      "longitude": "5.17310240",
      "timezone": "Europe/Paris",
      "wikiDataId": "Q580891",
      "country_code": "FR",
      "state_code": "52",
      "state_id": 5020,
      "country_id": 75
    },
    {
      "id": 155593,
      "name": "آیگرمونت",
      "name_default": "Aigremont",
      "native": "Aigremont",
      "type": "city",
      "level": null,
      "parent_id": null,
      "population": 1850,
      "latitude": "48.90266770",
      "longitude": "1.99205600",
      "timezone": "Europe/Paris",
      "wikiDataId": "Q1102347",
      "country_code": "FR",
      "state_code": "52",
      "state_id": 5020,
      "country_id": 75
    },
    {
      "id": 155594,
      "name": "ایلینویل",
      "name_default": "Aillianville",
      "native": "Aillianville",
      "type": "city",
      "level": null,
      "parent_id": null,
      "population": 142,
      "latitude": "48.33429430",
      "longitude": "5.43849100",
      "timezone": "Europe/Paris",
      "wikiDataId": "Q1102388",
      "country_code": "FR",
      "state_code": "52",
      "state_id": 5020,
      "country_id": 75
    },
    {
      "id": 155595,
      "name": "اینگولنکور",
      "name_default": "Aingoulaincourt",
      "native": "Aingoulaincourt",
      "type": "city",
      "level": null,
      "parent_id": null,
      "population": 11,
      "latitude": "48.45649370",
      "longitude": "5.25730900",
      "timezone": "Europe/Paris",
      "wikiDataId": "Q1102975",
      "country_code": "FR",
      "state_code": "52",
      "state_id": 5020,
      "country_id": 75
    },
    {
      "id": 155596,
      "name": "آیزانویل",
      "name_default": "Aizanville",
      "native": "Aizanville",
      "type": "adm4",
      "level": null,
      "parent_id": null,
      "population": 27,
      "latitude": "48.11129400",
      "longitude": "4.87474160",
      "timezone": "Europe/Paris",
      "wikiDataId": "Q1102954",
      "country_code": "FR",
      "state_code": "52",
      "state_id": 5020,
      "country_id": 75
    },
    {
      "id": 155597,
      "name": "آلیشامپ",
      "name_default": "Allichamps",
      "native": "Allichamps",
      "type": "city",
      "level": null,
      "parent_id": null,
      "population": 362,
      "latitude": "48.56395740",
      "longitude": "4.86851950",
      "timezone": "Europe/Paris",
      "wikiDataId": "Q375109",
      "country_code": "FR",
      "state_code": "52",
      "state_id": 5020,
      "country_id": 75
    },
    {
      "id": 155598,
      "name": "امبونویل",
      "name_default": "Ambonville",
      "native": "Ambonville",
      "type": "city",
      "level": null,
      "parent_id": null,
      "population": 85,
      "latitude": "48.31526490",
      "longitude": "4.97257640",
      "timezone": "Europe/Paris",
      "wikiDataId": "Q1102924",
      "country_code": "FR",
      "state_code": "52",
      "state_id": 5020,
      "country_id": 75
    },
    {
      "id": 155599,
      "name": "آندلوت-بلانشویل",
      "name_default": "Andelot-Blancheville",
      "native": "Andelot-Blancheville",
      "type": "city",
      "level": null,
      "parent_id": null,
      "population": 831,
      "latitude": "48.23644260",
      "longitude": "5.19846690",
      "timezone": "Europe/Paris",
      "wikiDataId": "Q1332796",
      "country_code": "FR",
      "state_code": "52",
      "state_id": 5020,
      "country_id": 75
    },
    {
      "id": 155600,
      "name": "آندیلی-آن-باسینی",
      "name_default": "Andilly-en-Bassigny",
      "native": "Andilly-en-Bassigny",
      "type": "city",
      "level": null,
      "parent_id": null,
      "population": 106,
      "latitude": "47.92767610",
      "longitude": "5.50215770",
      "timezone": "Europe/Paris",
      "wikiDataId": "Q733869",
      "country_code": "FR",
      "state_code": "52",
      "state_id": 5020,
      "country_id": 75
    },
    {
      "id": 155601,
      "name": "آنویل-لا-پری",
      "name_default": "Annéville-la-Prairie",
      "native": "Annéville-la-Prairie",
      "type": "city",
      "level": null,
      "parent_id": null,
      "population": 94,
      "latitude": "48.19953310",
      "longitude": "5.06688300",
      "timezone": "Europe/Paris",
      "wikiDataId": "Q1102496",
      "country_code": "FR",
      "state_code": "52",
      "state_id": 5020,
      "country_id": 75
    },
    {
      "id": 155602,
      "name": "آنونویل",
      "name_default": "Annonville",
      "native": "Annonville",
      "type": "city",
      "level": null,
      "parent_id": null,
      "population": 29,
      "latitude": "48.38644880",
      "longitude": "5.25003680",
      "timezone": "Europe/Paris",
      "wikiDataId": "Q567330",
      "country_code": "FR",
      "state_code": "52",
      "state_id": 5020,
      "country_id": 75
    },
    {
      "id": 155603,
      "name": "آنروزی",
      "name_default": "Anrosey",
      "native": "Anrosey",
      "type": "city",
      "level": null,
      "parent_id": null,
      "population": 125,
      "latitude": "47.84682990",
      "longitude": "5.63671220",
      "timezone": "Europe/Paris",
      "wikiDataId": "Q1102945",
      "country_code": "FR",
      "state_code": "52",
      "state_id": 5020,
      "country_id": 75
    },
    {
      "id": 155604,
      "name": "آپری",
      "name_default": "Aprey",
      "native": "Aprey",
      "type": "adm2",
      "level": null,
      "parent_id": null,
      "population": 189,
      "latitude": "47.77385090",
      "longitude": "5.15533100",
      "timezone": "Europe/Paris",
      "wikiDataId": "Q1102400",
      "country_code": "FR",
      "state_code": "52",
      "state_id": 5020,
      "country_id": 75
    },
    {
      "id": 155605,
      "name": "آربیگنی-سو-وارن",
      "name_default": "Arbigny-sous-Varennes",
      "native": "Arbigny-sous-Varennes",
      "type": "city",
      "level": null,
      "parent_id": null,
      "population": 86,
      "latitude": "47.86151230",
      "longitude": "5.57368630",
      "timezone": "Europe/Paris",
      "wikiDataId": "Q604962",
      "country_code": "FR",
      "state_code": "52",
      "state_id": 5020,
      "country_id": 75
    },
    {
      "id": 155606,
      "name": "آربوت",
      "name_default": "Arbot",
      "native": "Arbot",
      "type": "city",
      "level": null,
      "parent_id": null,
      "population": 64,
      "latitude": "47.84677600",
      "longitude": "4.97535050",
      "timezone": "Europe/Paris",
      "wikiDataId": "Q1102923",
      "country_code": "FR",
      "state_code": "52",
      "state_id": 5020,
      "country_id": 75
    },
    {
      "id": 155607,
      "name": "آرک-آن-باروا",
      "name_default": "Arc-en-Barrois",
      "native": "Arc-en-Barrois",
      "type": "city",
      "level": null,
      "parent_id": null,
      "population": 688,
      "latitude": "47.94842170",
      "longitude": "4.93535810",
      "timezone": "Europe/Paris",
      "wikiDataId": "Q972624",
      "country_code": "FR",
      "state_code": "52",
      "state_id": 5020,
      "country_id": 75
    },
    {
      "id": 155608,
      "name": "آرنانکورت",
      "name_default": "Arnancourt",
      "native": "Arnancourt",
      "type": "adm4",
      "level": null,
      "parent_id": null,
      "population": 82,
      "latitude": "48.35044190",
      "longitude": "4.87836560",
      "timezone": "Europe/Paris",
      "wikiDataId": "Q1102339",
      "country_code": "FR",
      "state_code": "52",
      "state_id": 5020,
      "country_id": 75
    },
    {
      "id": 155609,
      "name": "آتانکورت",
      "name_default": "Attancourt",
      "native": "Attancourt",
      "type": "city",
      "level": null,
      "parent_id": null,
      "population": 275,
      "latitude": "48.53654140",
      "longitude": "4.92125760",
      "timezone": "Europe/Paris",
      "wikiDataId": "Q1332905",
      "country_code": "FR",
      "state_code": "52",
      "state_id": 5020,
      "country_id": 75
    },
    {
      "id": 155610,
      "name": "اوبپیر-سور-اوبه",
      "name_default": "Aubepierre-sur-Aube",
      "native": "Aubepierre-sur-Aube",
      "type": "city",
      "level": null,
      "parent_id": null,
      "population": 185,
      "latitude": "47.91445660",
      "longitude": "4.87267560",
      "timezone": "Europe/Paris",
      "wikiDataId": "Q1103286",
      "country_code": "FR",
      "state_code": "52",
      "state_id": 5020,
      "country_id": 75
    },
    {
      "id": 155611,
      "name": "آبرِیو",
      "name_default": "Auberive",
      "native": "Auberive",
      "type": "city",
      "level": null,
      "parent_id": null,
      "population": 156,
      "latitude": "47.78425200",
      "longitude": "5.01220860",
      "timezone": "Europe/Paris",
      "wikiDataId": "Q533993",
      "country_code": "FR",
      "state_code": "52",
      "state_id": 5020,
      "country_id": 75
    },
    {
      "id": 155612,
      "name": "اودلونکورت",
      "name_default": "Audeloncourt",
      "native": "Audeloncourt",
      "type": "city",
      "level": null,
      "parent_id": null,
      "population": 80,
      "latitude": "48.11815830",
      "longitude": "5.49095690",
      "timezone": "Europe/Paris",
      "wikiDataId": "Q1102483",
      "country_code": "FR",
      "state_code": "52",
      "state_id": 5020,
      "country_id": 75
    },
    {
      "id": 155613,
      "name": "اوژور",
      "name_default": "Aujeurres",
      "native": "Aujeurres",
      "type": "city",
      "level": null,
      "parent_id": null,
      "population": 67,
      "latitude": "47.73910330",
      "longitude": "5.15077390",
      "timezone": "Europe/Paris",
      "wikiDataId": "Q980199",
      "country_code": "FR",
      "state_code": "52",
      "state_id": 5020,
      "country_id": 75
    },
    {
      "id": 155614,
      "name": "اولنوی-سور-اوبه",
      "name_default": "Aulnoy-sur-Aube",
      "native": "Aulnoy-sur-Aube",
      "type": "city",
      "level": null,
      "parent_id": null,
      "population": 58,
      "latitude": "47.83190590",
      "longitude": "5.01148910",
      "timezone": "Europe/Paris",
      "wikiDataId": "Q1102934",
      "country_code": "FR",
      "state_code": "52",
      "state_id": 5020,
      "country_id": 75
    },
    {
      "id": 155615,
      "name": "اوتینی-لو-گراند",
      "name_default": "Autigny-le-Grand",
      "native": "Autigny-le-Grand",
      "type": "city",
      "level": null,
      "parent_id": null,
      "population": 1429,
      "latitude": "48.47256660",
      "longitude": "5.12977220",
      "timezone": "Europe/Paris",
      "wikiDataId": "Q939544",
      "country_code": "FR",
      "state_code": "52",
      "state_id": 5020,
      "country_id": 75
    },
    {
      "id": 155616,
      "name": "اوتینی لو پتی",
      "name_default": "Autigny-le-Petit",
      "native": "Autigny-le-Petit",
      "type": "city",
      "level": null,
      "parent_id": null,
      "population": 1429,
      "latitude": "48.48112360",
      "longitude": "5.13049570",
      "timezone": "Europe/Paris",
      "wikiDataId": "Q663152",
      "country_code": "FR",
      "state_code": "52",
      "state_id": 5020,
      "country_id": 75
    },
    {
      "id": 155617,
      "name": "اوترویل-سور-لا-رن",
      "name_default": "Autreville-sur-la-Renne",
      "native": "Autreville-sur-la-Renne",
      "type": "city",
      "level": null,
      "parent_id": null,
      "population": 376,
      "latitude": "48.12694010",
      "longitude": "4.93468920",
      "timezone": "Europe/Paris",
      "wikiDataId": "Q967106",
      "country_code": "FR",
      "state_code": "52",
      "state_id": 5020,
      "country_id": 75
    },
    {
      "id": 155618,
      "name": "آورکورت",
      "name_default": "Avrecourt",
      "native": "Avrecourt",
      "type": "city",
      "level": null,
      "parent_id": null,
      "population": 113,
      "latitude": "47.96548350",
      "longitude": "5.51320070",
      "timezone": "Europe/Paris",
      "wikiDataId": "Q2874520",
      "country_code": "FR",
      "state_code": "52",
      "state_id": 5020,
      "country_id": 75
    },
    {
      "id": 155619,
      "name": "بیلی-او-فورج",
      "name_default": "Bailly-aux-Forges",
      "native": "Bailly-aux-Forges",
      "type": "city",
      "level": null,
      "parent_id": null,
      "population": 133,
      "latitude": "48.45530510",
      "longitude": "4.86522790",
      "timezone": "Europe/Paris",
      "wikiDataId": "Q1102320",
      "country_code": "FR",
      "state_code": "52",
      "state_id": 5020,
      "country_id": 75
    },
    {
      "id": 155620,
      "name": "بایسی",
      "name_default": "Baissey",
      "native": "Baissey",
      "type": "city",
      "level": null,
      "parent_id": null,
      "population": 172,
      "latitude": "47.74925220",
      "longitude": "5.23160860",
      "timezone": "Europe/Paris",
      "wikiDataId": "Q1102971",
      "country_code": "FR",
      "state_code": "52",
      "state_id": 5020,
      "country_id": 75
    },
    {
      "id": 155621,
      "name": "بانس",
      "name_default": "Bannes",
      "native": "Bannes",
      "type": "adm3",
      "level": null,
      "parent_id": null,
      "population": 145,
      "latitude": "47.90300420",
      "longitude": "5.34928270",
      "timezone": "Europe/Paris",
      "wikiDataId": "Q1339222",
      "country_code": "FR",
      "state_code": "52",
      "state_id": 5020,
      "country_id": 75
    },
    {
      "id": 155622,
      "name": "باسونکورت",
      "name_default": "Bassoncourt",
      "native": "Bassoncourt",
      "type": "city",
      "level": null,
      "parent_id": null,
      "population": 63,
      "latitude": "48.07583980",
      "longitude": "5.53541300",
      "timezone": "Europe/Paris",
      "wikiDataId": "Q1102383",
      "country_code": "FR",
      "state_code": "52",
      "state_id": 5020,
      "country_id": 75
    },
    {
      "id": 155623,
      "name": "بودرکورت",
      "name_default": "Baudrecourt",
      "native": "Baudrecourt",
      "type": "city",
      "level": null,
      "parent_id": null,
      "population": 176,
      "latitude": "48.39385650",
      "longitude": "4.94971690",
      "timezone": "Europe/Paris",
      "wikiDataId": "Q1102403",
      "country_code": "FR",
      "state_code": "52",
      "state_id": 5020,
      "country_id": 75
    },
    {
      "id": 155624,
      "name": "بای-سور-آوب",
      "name_default": "Bay-sur-Aube",
      "native": "Bay-sur-Aube",
      "type": "city",
      "level": null,
      "parent_id": null,
      "population": 46,
      "latitude": "47.82532160",
      "longitude": "5.01752460",
      "timezone": "Europe/Paris",
      "wikiDataId": "Q1102478",
      "country_code": "FR",
      "state_code": "52",
      "state_id": 5020,
      "country_id": 75
    },
    {
      "id": 155626,
      "name": "بوشمین",
      "name_default": "Beauchemin",
      "native": "Beauchemin",
      "type": "city",
      "level": null,
      "parent_id": null,
      "population": 111,
      "latitude": "47.91712610",
      "longitude": "5.22845130",
      "timezone": "Europe/Paris",
      "wikiDataId": "Q1102363",
      "country_code": "FR",
      "state_code": "52",
      "state_id": 5020,
      "country_id": 75
    },
    {
      "id": 155627,
      "name": "بلمونت",
      "name_default": "Belmont",
      "native": "Belmont",
      "type": "city",
      "level": null,
      "parent_id": null,
      "population": 174,
      "latitude": "47.72043020",
      "longitude": "5.53289520",
      "timezone": "Europe/Paris",
      "wikiDataId": "Q1102170",
      "country_code": "FR",
      "state_code": "52",
      "state_id": 5020,
      "country_id": 75
    },
    {
      "id": 155629,
      "name": "بورویل",
      "name_default": "Beurville",
      "native": "Beurville",
      "type": "city",
      "level": null,
      "parent_id": null,
      "population": 102,
      "latitude": "48.31754850",
      "longitude": "4.82026430",
      "timezone": "Europe/Paris",
      "wikiDataId": "Q1102394",
      "country_code": "FR",
      "state_code": "52",
      "state_id": 5020,
      "country_id": 75
    },
    {
      "id": 155631,
      "name": "بیز",
      "name_default": "Bize",
      "native": "Bize",
      "type": "city",
      "level": null,
      "parent_id": null,
      "population": 80,
      "latitude": "47.84023480",
      "longitude": "5.62608600",
      "timezone": "Europe/Paris",
      "wikiDataId": "Q1102930",
      "country_code": "FR",
      "state_code": "52",
      "state_id": 5020,
      "country_id": 75
    },
    {
      "id": 155632,
      "name": "بلزی",
      "name_default": "Blaisy",
      "native": "Blaisy",
      "type": "city",
      "level": null,
      "parent_id": null,
      "population": 67,
      "latitude": "48.17298570",
      "longitude": "4.98940130",
      "timezone": "Europe/Paris",
      "wikiDataId": "Q1408495",
      "country_code": "FR",
      "state_code": "52",
      "state_id": 5020,
      "country_id": 75
    },
    {
      "id": 155633,
      "name": "بلکور",
      "name_default": "Blecourt",
      "native": "Blecourt",
      "type": "city",
      "level": null,
      "parent_id": null,
      "population": 309,
      "latitude": "48.38107250",
      "longitude": "5.05751790",
      "timezone": "Europe/Paris",
      "wikiDataId": "Q1332870",
      "country_code": "FR",
      "state_code": "52",
      "state_id": 5020,
      "country_id": 75
    },
    {
      "id": 155634,
      "name": "بلسونویل",
      "name_default": "Blessonville",
      "native": "Blessonville",
      "type": "city",
      "level": null,
      "parent_id": null,
      "population": 176,
      "latitude": "48.05694950",
      "longitude": "4.99102850",
      "timezone": "Europe/Paris",
      "wikiDataId": "Q1102248",
      "country_code": "FR",
      "state_code": "52",
      "state_id": 5020,
      "country_id": 75
    },
    {
      "id": 155635,
      "name": "بلومری",
      "name_default": "Blumeray",
      "native": "Blumeray",
      "type": "city",
      "level": null,
      "parent_id": null,
      "population": 100,
      "latitude": "48.35548390",
      "longitude": "4.82383150",
      "timezone": "Europe/Paris",
      "wikiDataId": "Q1102352",
      "country_code": "FR",
      "state_code": "52",
      "state_id": 5020,
      "country_id": 75
    },
    {
      "id": 40106,
      "name": "بولونیا",
      "name_default": "Bologne",
      "native": "Bologne",
      "type": "city",
      "level": null,
      "parent_id": null,
      "population": 1836,
      "latitude": "48.20354150",
      "longitude": "5.09719810",
      "timezone": "Europe/Paris",
      "wikiDataId": "Q665760",
      "country_code": "FR",
      "state_code": "52",
      "state_id": 5020,
      "country_id": 75
    },
    {
      "id": 155637,
      "name": "بونکورت",
      "name_default": "Bonnecourt",
      "native": "Bonnecourt",
      "type": "city",
      "level": null,
      "parent_id": null,
      "population": 131,
      "latitude": "47.95739540",
      "longitude": "5.44091600",
      "timezone": "Europe/Paris",
      "wikiDataId": "Q1102941",
      "country_code": "FR",
      "state_code": "52",
      "state_id": 5020,
      "country_id": 75
    },
    {
      "id": 155639,
      "name": "بوردونز-سور-روگنون",
      "name_default": "Bourdons-sur-Rognon",
      "native": "Bourdons-sur-Rognon",
      "type": "city",
      "level": null,
      "parent_id": null,
      "population": 293,
      "latitude": "48.17170170",
      "longitude": "5.30208680",
      "timezone": "Europe/Paris",
      "wikiDataId": "Q1102175",
      "country_code": "FR",
      "state_code": "52",
      "state_id": 5020,
      "country_id": 75
    },
    {
      "id": 40184,
      "name": "بورگ",
      "name_default": "Bourg",
      "native": "Bourg",
      "type": "city",
      "level": null,
      "parent_id": null,
      "population": 169,
      "latitude": "47.79262450",
      "longitude": "5.29332670",
      "timezone": "Europe/Paris",
      "wikiDataId": "Q1102284",
      "country_code": "FR",
      "state_code": "52",
      "state_id": 5020,
      "country_id": 75
    },
    {
      "id": 155641,
      "name": "بورگ-سن-ماری",
      "name_default": "Bourg-Sainte-Marie",
      "native": "Bourg-Sainte-Marie",
      "type": "city",
      "level": null,
      "parent_id": null,
      "population": 85,
      "latitude": "48.18197720",
      "longitude": "5.53052000",
      "timezone": "Europe/Paris",
      "wikiDataId": "Q1102506",
      "country_code": "FR",
      "state_code": "52",
      "state_id": 5020,
      "country_id": 75
    },
    {
      "id": 155642,
      "name": "Bourmont-entre-Meuse-et-Mouzon",
      "name_default": "Bourmont-entre-Meuse-et-Mouzon",
      "native": "Bourmont-entre-Meuse-et-Mouzon",
      "type": "city",
      "level": null,
      "parent_id": null,
      "population": null,
      "latitude": "48.22243740",
      "longitude": "5.52972790",
      "timezone": "Europe/Paris",
      "wikiDataId": "Q108858871",
      "country_code": "FR",
      "state_code": "52",
      "state_id": 5020,
      "country_id": 75
    },
    {
      "id": 155643,
      "name": "بوزانکور",
      "name_default": "Bouzancourt",
      "native": "Bouzancourt",
      "type": "city",
      "level": null,
      "parent_id": null,
      "population": 71,
      "latitude": "48.32097000",
      "longitude": "4.90280800",
      "timezone": "Europe/Paris",
      "wikiDataId": "Q1102179",
      "country_code": "FR",
      "state_code": "52",
      "state_id": 5020,
      "country_id": 75
    },
    {
      "id": 155644,
      "name": "براچای",
      "name_default": "Brachay",
      "native": "Brachay",
      "type": "city",
      "level": null,
      "parent_id": null,
      "population": 62,
      "latitude": "48.38085670",
      "longitude": "5.01955230",
      "timezone": "Europe/Paris",
      "wikiDataId": "Q1102926",
      "country_code": "FR",
      "state_code": "52",
      "state_id": 5020,
      "country_id": 75
    },
    {
      "id": 155645,
      "name": "برینویل-سور-موز",
      "name_default": "Brainville-sur-Meuse",
      "native": "Brainville-sur-Meuse",
      "type": "adm4",
      "level": null,
      "parent_id": null,
      "population": 69,
      "latitude": "48.17535640",
      "longitude": "5.57198980",
      "timezone": "Europe/Paris",
      "wikiDataId": "Q934598",
      "country_code": "FR",
      "state_code": "52",
      "state_id": 5020,
      "country_id": 75
    },
    {
      "id": 155646,
      "name": "برا-لو-شاتل",
      "name_default": "Braux-le-Châtel",
      "native": "Braux-le-Châtel",
      "type": "adm4",
      "level": null,
      "parent_id": null,
      "population": 126,
      "latitude": "48.10436560",
      "longitude": "4.91530550",
      "timezone": "Europe/Paris",
      "wikiDataId": "Q1148637",
      "country_code": "FR",
      "state_code": "52",
      "state_id": 5020,
      "country_id": 75
    },
    {
      "id": 155647,
      "name": "برنز",
      "name_default": "Brennes",
      "native": "Brennes",
      "type": "city",
      "level": null,
      "parent_id": null,
      "population": 124,
      "latitude": "47.79788150",
      "longitude": "5.25663480",
      "timezone": "Europe/Paris",
      "wikiDataId": "Q1102514",
      "country_code": "FR",
      "state_code": "52",
      "state_id": 5020,
      "country_id": 75
    },
    {
      "id": 155648,
      "name": "برتنی",
      "name_default": "Brethenay",
      "native": "Brethenay",
      "type": "city",
      "level": null,
      "parent_id": null,
      "population": 391,
      "latitude": "48.15851630",
      "longitude": "5.05767330",
      "timezone": "Europe/Paris",
      "wikiDataId": "Q1102377",
      "country_code": "FR",
      "state_code": "52",
      "state_id": 5020,
      "country_id": 75
    },
    {
      "id": 155649,
      "name": "برووان-آن-باسینی",
      "name_default": "Breuvannes-en-Bassigny",
      "native": "Breuvannes-en-Bassigny",
      "type": "city",
      "level": null,
      "parent_id": null,
      "population": 652,
      "latitude": "48.08609690",
      "longitude": "5.45314980",
      "timezone": "Europe/Paris",
      "wikiDataId": "Q946654",
      "country_code": "FR",
      "state_code": "52",
      "state_id": 5020,
      "country_id": 75
    },
    {
      "id": 155650,
      "name": "بریوکُر",
      "name_default": "Briaucourt",
      "native": "Briaucourt",
      "type": "city",
      "level": null,
      "parent_id": null,
      "population": 170,
      "latitude": "48.21316360",
      "longitude": "5.11644400",
      "timezone": "Europe/Paris",
      "wikiDataId": "Q1102302",
      "country_code": "FR",
      "state_code": "52",
      "state_id": 5020,
      "country_id": 75
    },
    {
      "id": 155651,
      "name": "بریکون",
      "name_default": "Bricon",
      "native": "Bricon",
      "type": "city",
      "level": null,
      "parent_id": null,
      "population": 413,
      "latitude": "48.08496060",
      "longitude": "4.89998930",
      "timezone": "Europe/Paris",
      "wikiDataId": "Q935350",
      "country_code": "FR",
      "state_code": "52",
      "state_id": 5020,
      "country_id": 75
    },
    {
      "id": 155652,
      "name": "بروسوال",
      "name_default": "Brousseval",
      "native": "Brousseval",
      "type": "city",
      "level": null,
      "parent_id": null,
      "population": 625,
      "latitude": "48.49136290",
      "longitude": "4.89438720",
      "timezone": "Europe/Paris",
      "wikiDataId": "Q580218",
      "country_code": "FR",
      "state_code": "52",
      "state_id": 5020,
      "country_id": 75
    },
    {
      "id": 155653,
      "name": "بوگنیِر",
      "name_default": "Bugnières",
      "native": "Bugnières",
      "type": "city",
      "level": null,
      "parent_id": null,
      "population": 873,
      "latitude": "47.96416330",
      "longitude": "5.00776330",
      "timezone": "Europe/Paris",
      "wikiDataId": "Q1102947",
      "country_code": "FR",
      "state_code": "52",
      "state_id": 5020,
      "country_id": 75
    },
    {
      "id": 155654,
      "name": "بوسون",
      "name_default": "Busson",
      "native": "Busson",
      "type": "city",
      "level": null,
      "parent_id": null,
      "population": 46,
      "latitude": "48.33266540",
      "longitude": "5.26170320",
      "timezone": "Europe/Paris",
      "wikiDataId": "Q1102963",
      "country_code": "FR",
      "state_code": "52",
      "state_id": 5020,
      "country_id": 75
    },
    {
      "id": 155655,
      "name": "بوکیِر-لِ-کِلف‌مون",
      "name_default": "Buxières-lès-Clefmont",
      "native": "Buxières-lès-Clefmont",
      "type": "city",
      "level": null,
      "parent_id": null,
      "population": 26,
      "latitude": "48.09178680",
      "longitude": "5.41935070",
      "timezone": "Europe/Paris",
      "wikiDataId": "Q1102105",
      "country_code": "FR",
      "state_code": "52",
      "state_id": 5020,
      "country_id": 75
    },
    {
      "id": 155656,
      "name": "بوکیر-له-ویلیه",
      "name_default": "Buxières-lès-Villiers",
      "native": "Buxières-lès-Villiers",
      "type": "city",
      "level": null,
      "parent_id": null,
      "population": 219,
      "latitude": "48.10202600",
      "longitude": "4.98611350",
      "timezone": "Europe/Paris",
      "wikiDataId": "Q1100937",
      "country_code": "FR",
      "state_code": "52",
      "state_id": 5020,
      "country_id": 75
    },
    {
      "id": 155657,
      "name": "سفون‌ها",
      "name_default": "Ceffonds",
      "native": "Ceffonds",
      "type": "city",
      "level": null,
      "parent_id": null,
      "population": 658,
      "latitude": "48.44066380",
      "longitude": "4.66533470",
      "timezone": "Europe/Paris",
      "wikiDataId": "Q1100974",
      "country_code": "FR",
      "state_code": "52",
      "state_id": 5020,
      "country_id": 75
    },
    {
      "id": 155658,
      "name": "سل-آن-باسینی",
      "name_default": "Celles-en-Bassigny",
      "native": "Celles-en-Bassigny",
      "type": "city",
      "level": null,
      "parent_id": null,
      "population": 72,
      "latitude": "47.91340760",
      "longitude": "5.51327500",
      "timezone": "Europe/Paris",
      "wikiDataId": "Q536602",
      "country_code": "FR",
      "state_code": "52",
      "state_id": 5020,
      "country_id": 75
    },
    {
      "id": 155659,
      "name": "سلسوی",
      "name_default": "Celsoy",
      "native": "Celsoy",
      "type": "city",
      "level": null,
      "parent_id": null,
      "population": 92,
      "latitude": "47.86313860",
      "longitude": "5.41182330",
      "timezone": "Europe/Paris",
      "wikiDataId": "Q1101448",
      "country_code": "FR",
      "state_code": "52",
      "state_id": 5020,
      "country_id": 75
    },
    {
      "id": 155660,
      "name": "سریسیرها",
      "name_default": "Cerisières",
      "native": "Cerisières",
      "type": "city",
      "level": null,
      "parent_id": null,
      "population": 85,
      "latitude": "48.30729880",
      "longitude": "4.99872940",
      "timezone": "Europe/Paris",
      "wikiDataId": "Q949571",
      "country_code": "FR",
      "state_code": "52",
      "state_id": 5020,
      "country_id": 75
    },
    {
      "id": 155661,
      "name": "چالانسی",
      "name_default": "Chalancey",
      "native": "Chalancey",
      "type": "city",
      "level": null,
      "parent_id": null,
      "population": 116,
      "latitude": "47.67730900",
      "longitude": "5.09393640",
      "timezone": "Europe/Paris",
      "wikiDataId": "Q968364",
      "country_code": "FR",
      "state_code": "52",
      "state_id": 5020,
      "country_id": 75
    },
    {
      "id": 155663,
      "name": "چالورین",
      "name_default": "Chalvraines",
      "native": "Chalvraines",
      "type": "city",
      "level": null,
      "parent_id": null,
      "population": 196,
      "latitude": "48.23096890",
      "longitude": "5.42477410",
      "timezone": "Europe/Paris",
      "wikiDataId": "Q1101017",
      "country_code": "FR",
      "state_code": "52",
      "state_id": 5020,
      "country_id": 75
    },
    {
      "id": 155665,
      "name": "شامبرانکور",
      "name_default": "Chambroncourt",
      "native": "Chambroncourt",
      "type": "city",
      "level": null,
      "parent_id": null,
      "population": 48,
      "latitude": "48.35030240",
      "longitude": "5.31643530",
      "timezone": "Europe/Paris",
      "wikiDataId": "Q578709",
      "country_code": "FR",
      "state_code": "52",
      "state_id": 5020,
      "country_id": 75
    },
    {
      "id": 155666,
      "name": "شامویلی",
      "name_default": "Chamouilley",
      "native": "Chamouilley",
      "type": "city",
      "level": null,
      "parent_id": null,
      "population": 725,
      "latitude": "48.61222530",
      "longitude": "5.01052170",
      "timezone": "Europe/Paris",
      "wikiDataId": "Q1101461",
      "country_code": "FR",
      "state_code": "52",
      "state_id": 5020,
      "country_id": 75
    },
    {
      "id": 155667,
      "name": "شامپینول-آن-باسینی",
      "name_default": "Champigneulles-en-Bassigny",
      "native": "Champigneulles-en-Bassigny",
      "type": "city",
      "level": null,
      "parent_id": null,
      "population": 39,
      "latitude": "48.12626680",
      "longitude": "5.54881560",
      "timezone": "Europe/Paris",
      "wikiDataId": "Q686376",
      "country_code": "FR",
      "state_code": "52",
      "state_id": 5020,
      "country_id": 75
    },
    {
      "id": 155668,
      "name": "شامپینی-له-لانگر",
      "name_default": "Champigny-lès-Langres",
      "native": "Champigny-lès-Langres",
      "type": "city",
      "level": null,
      "parent_id": null,
      "population": 406,
      "latitude": "47.89504230",
      "longitude": "5.30624340",
      "timezone": "Europe/Paris",
      "wikiDataId": "Q1102112",
      "country_code": "FR",
      "state_code": "52",
      "state_id": 5020,
      "country_id": 75
    },
    {
      "id": 155669,
      "name": "شامپینی-سو-وارن",
      "name_default": "Champigny-sous-Varennes",
      "native": "Champigny-sous-Varennes",
      "type": "city",
      "level": null,
      "parent_id": null,
      "population": 132,
      "latitude": "47.87101090",
      "longitude": "5.58682790",
      "timezone": "Europe/Paris",
      "wikiDataId": "Q387501",
      "country_code": "FR",
      "state_code": "52",
      "state_id": 5020,
      "country_id": 75
    },
    {
      "id": 155670,
      "name": "شامپسورین",
      "name_default": "Champsevraine",
      "native": "Champsevraine",
      "type": "city",
      "level": null,
      "parent_id": null,
      "population": 721,
      "latitude": "47.77173090",
      "longitude": "5.44622930",
      "timezone": "Europe/Paris",
      "wikiDataId": "Q1102294",
      "country_code": "FR",
      "state_code": "52",
      "state_id": 5020,
      "country_id": 75
    },
    {
      "id": 155672,
      "name": "چنج",
      "name_default": "Changey",
      "native": "Changey",
      "type": "city",
      "level": null,
      "parent_id": null,
      "population": 290,
      "latitude": "47.92492750",
      "longitude": "5.34400040",
      "timezone": "Europe/Paris",
      "wikiDataId": "Q1100981",
      "country_code": "FR",
      "state_code": "52",
      "state_id": 5020,
      "country_id": 75
    },
    {
      "id": 155673,
      "name": "چانوی",
      "name_default": "Chanoy",
      "native": "Chanoy",
      "type": "city",
      "level": null,
      "parent_id": null,
      "population": 128,
      "latitude": "47.91949160",
      "longitude": "5.24465840",
      "timezone": "Europe/Paris",
      "wikiDataId": "Q1101637",
      "country_code": "FR",
      "state_code": "52",
      "state_id": 5020,
      "country_id": 75
    },
    {
      "id": 155674,
      "name": "شانترین‌ها",
      "name_default": "Chantraines",
      "native": "Chantraines",
      "type": "city",
      "level": null,
      "parent_id": null,
      "population": 201,
      "latitude": "48.21872710",
      "longitude": "5.16303190",
      "timezone": "Europe/Paris",
      "wikiDataId": "Q510632",
      "country_code": "FR",
      "state_code": "52",
      "state_id": 5020,
      "country_id": 75
    },
    {
      "id": 40806,
      "name": "چارمز",
      "name_default": "Charmes",
      "native": "Charmes",
      "type": "city",
      "level": null,
      "parent_id": null,
      "population": 1596,
      "latitude": "47.92190360",
      "longitude": "5.31165990",
      "timezone": "Europe/Paris",
      "wikiDataId": "Q729460",
      "country_code": "FR",
      "state_code": "52",
      "state_id": 5020,
      "country_id": 75
    },
    {
      "id": 155676,
      "name": "شارم-آن-آنگل",
      "name_default": "Charmes-en-l'Angle",
      "native": "Charmes-en-l'Angle",
      "type": "adm3",
      "level": null,
      "parent_id": null,
      "population": 6,
      "latitude": "48.35757160",
      "longitude": "4.95762110",
      "timezone": "Europe/Paris",
      "wikiDataId": "Q1102070",
      "country_code": "FR",
      "state_code": "52",
      "state_id": 5020,
      "country_id": 75
    },
    {
      "id": 155677,
      "name": "شارم-لا-گراند",
      "name_default": "Charmes-la-Grande",
      "native": "Charmes-la-Grande",
      "type": "city",
      "level": null,
      "parent_id": null,
      "population": 160,
      "latitude": "48.37936440",
      "longitude": "4.91447860",
      "timezone": "Europe/Paris",
      "wikiDataId": "Q729460",
      "country_code": "FR",
      "state_code": "52",
      "state_id": 5020,
      "country_id": 75
    },
    {
      "id": 155678,
      "name": "شاسی",
      "name_default": "Chassigny",
      "native": "Chassigny",
      "type": "city",
      "level": null,
      "parent_id": null,
      "population": 246,
      "latitude": "47.71648730",
      "longitude": "5.30081530",
      "timezone": "Europe/Paris",
      "wikiDataId": "Q851390",
      "country_code": "FR",
      "state_code": "52",
      "state_id": 5020,
      "country_id": 75
    },
    {
      "id": 155680,
      "name": "چاتنای-ماشرون",
      "name_default": "Chatenay-Mâcheron",
      "native": "Chatenay-Mâcheron",
      "type": "city",
      "level": null,
      "parent_id": null,
      "population": 96,
      "latitude": "47.85558150",
      "longitude": "5.36702060",
      "timezone": "Europe/Paris",
      "wikiDataId": "Q1101457",
      "country_code": "FR",
      "state_code": "52",
      "state_id": 5020,
      "country_id": 75
    },
    {
      "id": 155681,
      "name": "چاتنی-وادین",
      "name_default": "Chatenay-Vaudin",
      "native": "Chatenay-Vaudin",
      "type": "city",
      "level": null,
      "parent_id": null,
      "population": 2654,
      "latitude": "47.85027070",
      "longitude": "5.42774510",
      "timezone": "Europe/Paris",
      "wikiDataId": "Q924153",
      "country_code": "FR",
      "state_code": "52",
      "state_id": 5020,
      "country_id": 75
    },
    {
      "id": 155682,
      "name": "چاتونروپت-سامرمونت",
      "name_default": "Chatonrupt-Sommermont",
      "native": "Chatonrupt-Sommermont",
      "type": "city",
      "level": null,
      "parent_id": null,
      "population": 266,
      "latitude": "48.47276510",
      "longitude": "5.05684940",
      "timezone": "Europe/Paris",
      "wikiDataId": "Q679850",
      "country_code": "FR",
      "state_code": "52",
      "state_id": 5020,
      "country_id": 75
    },
    {
      "id": 155683,
      "name": "چاودنی",
      "name_default": "Chaudenay",
      "native": "Chaudenay",
      "type": "city",
      "level": null,
      "parent_id": null,
      "population": 340,
      "latitude": "47.82101410",
      "longitude": "5.48649640",
      "timezone": "Europe/Paris",
      "wikiDataId": "Q668610",
      "country_code": "FR",
      "state_code": "52",
      "state_id": 5020,
      "country_id": 75
    },
    {
      "id": 155684,
      "name": "شوفور",
      "name_default": "Chauffourt",
      "native": "Chauffourt",
      "type": "city",
      "level": null,
      "parent_id": null,
      "population": 181,
      "latitude": "47.97093640",
      "longitude": "5.41595430",
      "timezone": "Europe/Paris",
      "wikiDataId": "Q1060629",
      "country_code": "FR",
      "state_code": "52",
      "state_id": 5020,
      "country_id": 75
    },
    {
      "id": 155686,
      "name": "شومون-لا-ویل",
      "name_default": "Chaumont-la-Ville",
      "native": "Chaumont-la-Ville",
      "type": "city",
      "level": null,
      "parent_id": null,
      "population": 114,
      "latitude": "48.14359480",
      "longitude": "5.59744110",
      "timezone": "Europe/Paris",
      "wikiDataId": "Q1102078",
      "country_code": "FR",
      "state_code": "52",
      "state_id": 5020,
      "country_id": 75
    },
    {
      "id": 155688,
      "name": "چزو",
      "name_default": "Chézeaux",
      "native": "Chézeaux",
      "type": "adm4",
      "level": null,
      "parent_id": null,
      "population": 78,
      "latitude": "47.87619500",
      "longitude": "5.63682650",
      "timezone": "Europe/Paris",
      "wikiDataId": "Q1722841",
      "country_code": "FR",
      "state_code": "52",
      "state_id": 5020,
      "country_id": 75
    },
    {
      "id": 155689,
      "name": "چویلی-داردنی",
      "name_default": "Choilley-Dardenay",
      "native": "Choilley-Dardenay",
      "type": "city",
      "level": null,
      "parent_id": null,
      "population": 158,
      "latitude": "47.66135320",
      "longitude": "5.32586410",
      "timezone": "Europe/Paris",
      "wikiDataId": "Q580469",
      "country_code": "FR",
      "state_code": "52",
      "state_id": 5020,
      "country_id": 75
    },
    {
      "id": 155690,
      "name": "چویسول",
      "name_default": "Choiseul",
      "native": "Choiseul",
      "type": "city",
      "level": null,
      "parent_id": null,
      "population": 78,
      "latitude": "48.05307990",
      "longitude": "5.53234320",
      "timezone": "Europe/Paris",
      "wikiDataId": "Q681838",
      "country_code": "FR",
      "state_code": "52",
      "state_id": 5020,
      "country_id": 75
    },
    {
      "id": 155691,
      "name": "سیری-له-ماری",
      "name_default": "Cirey-lès-Mareilles",
      "native": "Cirey-lès-Mareilles",
      "type": "city",
      "level": null,
      "parent_id": null,
      "population": 152,
      "latitude": "48.19562700",
      "longitude": "5.25802700",
      "timezone": "Europe/Paris",
      "wikiDataId": "Q1100930",
      "country_code": "FR",
      "state_code": "52",
      "state_id": 5020,
      "country_id": 75
    },
    {
      "id": 155692,
      "name": "سیری-سور-بلز",
      "name_default": "Cirey-sur-Blaise",
      "native": "Cirey-sur-Blaise",
      "type": "city",
      "level": null,
      "parent_id": null,
      "population": 109,
      "latitude": "48.33405640",
      "longitude": "4.88668160",
      "timezone": "Europe/Paris",
      "wikiDataId": "Q740985",
      "country_code": "FR",
      "state_code": "52",
      "state_id": 5020,
      "country_id": 75
    },
    {
      "id": 155693,
      "name": "سیرفونتن-آن-آزویس",
      "name_default": "Cirfontaines-en-Azois",
      "native": "Cirfontaines-en-Azois",
      "type": "city",
      "level": null,
      "parent_id": null,
      "population": 183,
      "latitude": "48.10642120",
      "longitude": "4.82462800",
      "timezone": "Europe/Paris",
      "wikiDataId": "Q1101001",
      "country_code": "FR",
      "state_code": "52",
      "state_id": 5020,
      "country_id": 75
    },
    {
      "id": 155694,
      "name": "سیرفونتن-آن-اورنویز",
      "name_default": "Cirfontaines-en-Ornois",
      "native": "Cirfontaines-en-Ornois",
      "type": "city",
      "level": null,
      "parent_id": null,
      "population": 88,
      "latitude": "48.45153230",
      "longitude": "5.35759750",
      "timezone": "Europe/Paris",
      "wikiDataId": "Q957972",
      "country_code": "FR",
      "state_code": "52",
      "state_id": 5020,
      "country_id": 75
    },
    {
      "id": 155695,
      "name": "کلفمونت",
      "name_default": "Clefmont",
      "native": "Clefmont",
      "type": "city",
      "level": null,
      "parent_id": null,
      "population": 155,
      "latitude": "48.11212670",
      "longitude": "5.46557900",
      "timezone": "Europe/Paris",
      "wikiDataId": "Q665746",
      "country_code": "FR",
      "state_code": "52",
      "state_id": 5020,
      "country_id": 75
    },
    {
      "id": 155696,
      "name": "کلینچمپ",
      "name_default": "Clinchamp",
      "native": "Clinchamp",
      "type": "city",
      "level": null,
      "parent_id": null,
      "population": 71,
      "latitude": "48.19391770",
      "longitude": "5.40928020",
      "timezone": "Europe/Paris",
      "wikiDataId": "Q1101942",
      "country_code": "FR",
      "state_code": "52",
      "state_id": 5020,
      "country_id": 75
    },
    {
      "id": 155697,
      "name": "کوهونز",
      "name_default": "Cohons",
      "native": "Cohons",
      "type": "adm3",
      "level": null,
      "parent_id": null,
      "population": 208,
      "latitude": "47.78898870",
      "longitude": "5.34431200",
      "timezone": "Europe/Paris",
      "wikiDataId": "Q1101644",
      "country_code": "FR",
      "state_code": "52",
      "state_id": 5020,
      "country_id": 75
    },
    {
      "id": 155698,
      "name": "کوفی-له-باس",
      "name_default": "Coiffy-le-Bas",
      "native": "Coiffy-le-Bas",
      "type": "city",
      "level": null,
      "parent_id": null,
      "population": 85,
      "latitude": "47.90668480",
      "longitude": "5.62482490",
      "timezone": "Europe/Paris",
      "wikiDataId": "Q1101967",
      "country_code": "FR",
      "state_code": "52",
      "state_id": 5020,
      "country_id": 75
    },
    {
      "id": 155699,
      "name": "کوفی-لو-ها",
      "name_default": "Coiffy-le-Haut",
      "native": "Coiffy-le-Haut",
      "type": "adm4",
      "level": null,
      "parent_id": null,
      "population": 0,
      "latitude": "47.90178030",
      "longitude": "5.64793180",
      "timezone": "Europe/Paris",
      "wikiDataId": "Q535434",
      "country_code": "FR",
      "state_code": "52",
      "state_id": 5020,
      "country_id": 75
    },
    {
      "id": 155700,
      "name": "کولمیر-لو-با",
      "name_default": "Colmier-le-Bas",
      "native": "Colmier-le-Bas",
      "type": "city",
      "level": null,
      "parent_id": null,
      "population": 22,
      "latitude": "47.77232870",
      "longitude": "4.92056180",
      "timezone": "Europe/Paris",
      "wikiDataId": "Q1100954",
      "country_code": "FR",
      "state_code": "52",
      "state_id": 5020,
      "country_id": 75
    },
    {
      "id": 155701,
      "name": "کولمیر-لو-او",
      "name_default": "Colmier-le-Haut",
      "native": "Colmier-le-Haut",
      "type": "adm4",
      "level": null,
      "parent_id": null,
      "population": 62,
      "latitude": "47.78962640",
      "longitude": "4.93877080",
      "timezone": "Europe/Paris",
      "wikiDataId": "Q1101598",
      "country_code": "FR",
      "state_code": "52",
      "state_id": 5020,
      "country_id": 75
    },
    {
      "id": 155702,
      "name": "کلمبه-دو-کلیسه",
      "name_default": "Colombey-les-Deux-Églises",
      "native": "Colombey-les-Deux-Églises",
      "type": "city",
      "level": null,
      "parent_id": null,
      "population": null,
      "latitude": "48.24179510",
      "longitude": "4.84142220",
      "timezone": "Europe/Paris",
      "wikiDataId": "Q320654",
      "country_code": "FR",
      "state_code": "52",
      "state_id": 5020,
      "country_id": 75
    },
    {
      "id": 155703,
      "name": "کندس",
      "name_default": "Condes",
      "native": "Condes",
      "type": "city",
      "level": null,
      "parent_id": null,
      "population": 117,
      "latitude": "48.14191220",
      "longitude": "5.12104360",
      "timezone": "Europe/Paris",
      "wikiDataId": "Q1101620",
      "country_code": "FR",
      "state_code": "52",
      "state_id": 5020,
      "country_id": 75
    },
    {
      "id": 155704,
      "name": "ارسال کننده",
      "name_default": "Consigny",
      "native": "Consigny",
      "type": "city",
      "level": null,
      "parent_id": null,
      "population": 77,
      "latitude": "48.16698300",
      "longitude": "5.39310760",
      "timezone": "Europe/Paris",
      "wikiDataId": "Q1332946",
      "country_code": "FR",
      "state_code": "52",
      "state_id": 5020,
      "country_id": 75
    },
    {
      "id": 155705,
      "name": "کوبلان",
      "name_default": "Coublanc",
      "native": "Coublanc",
      "type": "city",
      "level": null,
      "parent_id": null,
      "population": 119,
      "latitude": "47.70526190",
      "longitude": "5.39955600",
      "timezone": "Europe/Paris",
      "wikiDataId": "Q1386929",
      "country_code": "FR",
      "state_code": "52",
      "state_id": 5020,
      "country_id": 75
    },
    {
      "id": 155706,
      "name": "کوپرای",
      "name_default": "Coupray",
      "native": "Coupray",
      "type": "city",
      "level": null,
      "parent_id": null,
      "population": 169,
      "latitude": "47.97741680",
      "longitude": "4.92257120",
      "timezone": "Europe/Paris",
      "wikiDataId": "Q1331419",
      "country_code": "FR",
      "state_code": "52",
      "state_id": 5020,
      "country_id": 75
    },
    {
      "id": 155707,
      "name": "دادگاه-لوک",
      "name_default": "Cour-l'Évêque",
      "native": "Cour-l'Évêque",
      "type": "adm4",
      "level": null,
      "parent_id": null,
      "population": 148,
      "latitude": "47.97500900",
      "longitude": "4.93867850",
      "timezone": "Europe/Paris",
      "wikiDataId": "Q1157494",
      "country_code": "FR",
      "state_code": "52",
      "state_id": 5020,
      "country_id": 75
    },
    {
      "id": 155708,
      "name": "کورسل-آن-مونتانی",
      "name_default": "Courcelles-en-Montagne",
      "native": "Courcelles-en-Montagne",
      "type": "city",
      "level": null,
      "parent_id": null,
      "population": 93,
      "latitude": "47.84555620",
      "longitude": "5.16853750",
      "timezone": "Europe/Paris",
      "wikiDataId": "Q633225",
      "country_code": "FR",
      "state_code": "52",
      "state_id": 5020,
      "country_id": 75
    },
    {
      "id": 155709,
      "name": "کورسل-سور-بلز",
      "name_default": "Courcelles-sur-Blaise",
      "native": "Courcelles-sur-Blaise",
      "type": "city",
      "level": null,
      "parent_id": null,
      "population": 87,
      "latitude": "48.41190880",
      "longitude": "4.92156100",
      "timezone": "Europe/Paris",
      "wikiDataId": "Q1102086",
      "country_code": "FR",
      "state_code": "52",
      "state_id": 5020,
      "country_id": 75
    },
    {
      "id": 155710,
      "name": "کالمونت",
      "name_default": "Culmont",
      "native": "Culmont",
      "type": "city",
      "level": null,
      "parent_id": null,
      "population": 527,
      "latitude": "47.82735130",
      "longitude": "5.42334280",
      "timezone": "Europe/Paris",
      "wikiDataId": "Q1101976",
      "country_code": "FR",
      "state_code": "52",
      "state_id": 5020,
      "country_id": 75
    },
    {
      "id": 155711,
      "name": "کورل",
      "name_default": "Curel",
      "native": "Curel",
      "type": "city",
      "level": null,
      "parent_id": null,
      "population": 407,
      "latitude": "48.49913400",
      "longitude": "5.12525580",
      "timezone": "Europe/Paris",
      "wikiDataId": "Q1101571",
      "country_code": "FR",
      "state_code": "52",
      "state_id": 5020,
      "country_id": 75
    },
    {
      "id": 155712,
      "name": "کورمونت",
      "name_default": "Curmont",
      "native": "Curmont",
      "type": "adm4",
      "level": null,
      "parent_id": null,
      "population": 12,
      "latitude": "48.25485950",
      "longitude": "4.93168510",
      "timezone": "Europe/Paris",
      "wikiDataId": "Q1101471",
      "country_code": "FR",
      "state_code": "52",
      "state_id": 5020,
      "country_id": 75
    },
    {
      "id": 155713,
      "name": "کوزی",
      "name_default": "Cusey",
      "native": "Cusey",
      "type": "city",
      "level": null,
      "parent_id": null,
      "population": 286,
      "latitude": "47.62218810",
      "longitude": "5.31457190",
      "timezone": "Europe/Paris",
      "wikiDataId": "Q1101468",
      "country_code": "FR",
      "state_code": "52",
      "state_id": 5020,
      "country_id": 75
    },
    {
      "id": 155714,
      "name": "کیوها",
      "name_default": "Cuves",
      "native": "Cuves",
      "type": "city",
      "level": null,
      "parent_id": null,
      "population": 263,
      "latitude": "48.09516660",
      "longitude": "5.41048170",
      "timezone": "Europe/Paris",
      "wikiDataId": "Q1100993",
      "country_code": "FR",
      "state_code": "52",
      "state_id": 5020,
      "country_id": 75
    },
    {
      "id": 155715,
      "name": "دیلانکورت",
      "name_default": "Daillancourt",
      "native": "Daillancourt",
      "type": "adm4",
      "level": null,
      "parent_id": null,
      "population": 61,
      "latitude": "48.29727430",
      "longitude": "4.89335880",
      "timezone": "Europe/Paris",
      "wikiDataId": "Q1101566",
      "country_code": "FR",
      "state_code": "52",
      "state_id": 5020,
      "country_id": 75
    },
    {
      "id": 155716,
      "name": "دیلکورت",
      "name_default": "Daillecourt",
      "native": "Daillecourt",
      "type": "city",
      "level": null,
      "parent_id": null,
      "population": 72,
      "latitude": "48.07091800",
      "longitude": "5.48541460",
      "timezone": "Europe/Paris",
      "wikiDataId": "Q1100960",
      "country_code": "FR",
      "state_code": "52",
      "state_id": 5020,
      "country_id": 75
    },
    {
      "id": 155717,
      "name": "دامارتین-سور-موز",
      "name_default": "Dammartin-sur-Meuse",
      "native": "Dammartin-sur-Meuse",
      "type": "city",
      "level": null,
      "parent_id": null,
      "population": 203,
      "latitude": "47.98014540",
      "longitude": "5.54011160",
      "timezone": "Europe/Paris",
      "wikiDataId": "Q1060450",
      "country_code": "FR",
      "state_code": "52",
      "state_id": 5020,
      "country_id": 75
    },
    {
      "id": 41418,
      "name": "دامپیر",
      "name_default": "Dampierre",
      "native": "Dampierre",
      "type": "city",
      "level": null,
      "parent_id": null,
      "population": 343,
      "latitude": "47.96097820",
      "longitude": "5.35983870",
      "timezone": "Europe/Paris",
      "wikiDataId": "Q1101983",
      "country_code": "FR",
      "state_code": "52",
      "state_id": 5020,
      "country_id": 75
    },
    {
      "id": 155719,
      "name": "دامرمونت",
      "name_default": "Damrémont",
      "native": "Damrémont",
      "type": "city",
      "level": null,
      "parent_id": null,
      "population": 198,
      "latitude": "47.94753010",
      "longitude": "5.62063790",
      "timezone": "Europe/Paris",
      "wikiDataId": "Q609825",
      "country_code": "FR",
      "state_code": "52",
      "state_id": 5020,
      "country_id": 75
    },
    {
      "id": 155720,
      "name": "رقص‌وار",
      "name_default": "Dancevoir",
      "native": "Dancevoir",
      "type": "city",
      "level": null,
      "parent_id": null,
      "population": 197,
      "latitude": "47.92997570",
      "longitude": "4.83475000",
      "timezone": "Europe/Paris",
      "wikiDataId": "Q1100948",
      "country_code": "FR",
      "state_code": "52",
      "state_id": 5020,
      "country_id": 75
    },
    {
      "id": 155721,
      "name": "دارمانز",
      "name_default": "Darmannes",
      "native": "Darmannes",
      "type": "city",
      "level": null,
      "parent_id": null,
      "population": 243,
      "latitude": "48.16602830",
      "longitude": "5.18359650",
      "timezone": "Europe/Paris",
      "wikiDataId": "Q282633",
      "country_code": "FR",
      "state_code": "52",
      "state_id": 5020,
      "country_id": 75
    },
    {
      "id": 155722,
      "name": "دینتویل",
      "name_default": "Dinteville",
      "native": "Dinteville",
      "type": "city",
      "level": null,
      "parent_id": null,
      "population": 66,
      "latitude": "48.03717850",
      "longitude": "4.75949350",
      "timezone": "Europe/Paris",
      "wikiDataId": "Q183501",
      "country_code": "FR",
      "state_code": "52",
      "state_id": 5020,
      "country_id": 75
    },
    {
      "id": 155723,
      "name": "دامبلین",
      "name_default": "Domblain",
      "native": "Domblain",
      "type": "city",
      "level": null,
      "parent_id": null,
      "population": 83,
      "latitude": "48.46556250",
      "longitude": "4.98032150",
      "timezone": "Europe/Paris",
      "wikiDataId": "Q1101929",
      "country_code": "FR",
      "state_code": "52",
      "state_id": 5020,
      "country_id": 75
    },
    {
      "id": 155724,
      "name": "دومارین",
      "name_default": "Dommarien",
      "native": "Dommarien",
      "type": "city",
      "level": null,
      "parent_id": null,
      "population": 176,
      "latitude": "47.69226170",
      "longitude": "5.31668620",
      "timezone": "Europe/Paris",
      "wikiDataId": "Q1386871",
      "country_code": "FR",
      "state_code": "52",
      "state_id": 5020,
      "country_id": 75
    },
    {
      "id": 155725,
      "name": "دومارتن لو فرانک",
      "name_default": "Dommartin-le-Franc",
      "native": "Dommartin-le-Franc",
      "type": "city",
      "level": null,
      "parent_id": null,
      "population": 243,
      "latitude": "48.42542100",
      "longitude": "4.90614030",
      "timezone": "Europe/Paris",
      "wikiDataId": "Q966034",
      "country_code": "FR",
      "state_code": "52",
      "state_id": 5020,
      "country_id": 75
    },
    {
      "id": 155726,
      "name": "دومارتن-لو-سن-پر",
      "name_default": "Dommartin-le-Saint-Père",
      "native": "Dommartin-le-Saint-Père",
      "type": "city",
      "level": null,
      "parent_id": null,
      "population": 273,
      "latitude": "48.40935390",
      "longitude": "4.87367550",
      "timezone": "Europe/Paris",
      "wikiDataId": "Q1102094",
      "country_code": "FR",
      "state_code": "52",
      "state_id": 5020,
      "country_id": 75
    },
    {
      "id": 155727,
      "name": "دومرمی-لاندوییل",
      "name_default": "Domremy-Landéville",
      "native": "Domremy-Landéville",
      "type": "city",
      "level": null,
      "parent_id": null,
      "population": 75,
      "latitude": "48.35793190",
      "longitude": "5.21644750",
      "timezone": "Europe/Paris",
      "wikiDataId": "Q965488",
      "country_code": "FR",
      "state_code": "52",
      "state_id": 5020,
      "country_id": 75
    },
    {
      "id": 155728,
      "name": "دونکورت-سور-موزه",
      "name_default": "Doncourt-sur-Meuse",
      "native": "Doncourt-sur-Meuse",
      "type": "city",
      "level": null,
      "parent_id": null,
      "population": 39,
      "latitude": "48.14015870",
      "longitude": "5.56146110",
      "timezone": "Europe/Paris",
      "wikiDataId": "Q654175",
      "country_code": "FR",
      "state_code": "52",
      "state_id": 5020,
      "country_id": 75
    },
    {
      "id": 155729,
      "name": "دونجوکس",
      "name_default": "Donjeux",
      "native": "Donjeux",
      "type": "city",
      "level": null,
      "parent_id": null,
      "population": 93,
      "latitude": "48.35077150",
      "longitude": "5.12228600",
      "timezone": "Europe/Paris",
      "wikiDataId": "Q1101648",
      "country_code": "FR",
      "state_code": "52",
      "state_id": 5020,
      "country_id": 75
    },
    {
      "id": 155731,
      "name": "دولوان-لو-شاتو",
      "name_default": "Doulevant-le-Château",
      "native": "Doulevant-le-Château",
      "type": "adm4",
      "level": null,
      "parent_id": null,
      "population": 367,
      "latitude": "48.37258030",
      "longitude": "4.87465300",
      "timezone": "Europe/Paris",
      "wikiDataId": "Q1100923",
      "country_code": "FR",
      "state_code": "52",
      "state_id": 5020,
      "country_id": 75
    },
    {
      "id": 155732,
      "name": "دولوان-لو-پتی",
      "name_default": "Doulevant-le-Petit",
      "native": "Doulevant-le-Petit",
      "type": "city",
      "level": null,
      "parent_id": null,
      "population": 16,
      "latitude": "48.44960830",
      "longitude": "4.90880550",
      "timezone": "Europe/Paris",
      "wikiDataId": "Q1100942",
      "country_code": "FR",
      "state_code": "52",
      "state_id": 5020,
      "country_id": 75
    },
    {
      "id": 155733,
      "name": "اچنای",
      "name_default": "Échenay",
      "native": "Échenay",
      "type": "city",
      "level": null,
      "parent_id": null,
      "population": 94,
      "latitude": "48.46415180",
      "longitude": "5.29418650",
      "timezone": "Europe/Paris",
      "wikiDataId": "Q1158164",
      "country_code": "FR",
      "state_code": "52",
      "state_id": 5020,
      "country_id": 75
    },
    {
      "id": 155734,
      "name": "Éclaron-Braucourt Sainte-Livière",
      "name_default": "Éclaron-Braucourt Sainte-Livière",
      "native": "Éclaron-Braucourt Sainte-Livière",
      "type": "city",
      "level": null,
      "parent_id": null,
      "population": null,
      "latitude": "48.56976940",
      "longitude": "4.75146290",
      "timezone": "Europe/Paris",
      "wikiDataId": "Q595001",
      "country_code": "FR",
      "state_code": "52",
      "state_id": 5020,
      "country_id": 75
    },
    {
      "id": 155735,
      "name": "اکو-لا-کومب",
      "name_default": "Ecot-la-Combe",
      "native": "Ecot-la-Combe",
      "type": "city",
      "level": null,
      "parent_id": null,
      "population": 39,
      "latitude": "48.20667070",
      "longitude": "5.35545180",
      "timezone": "Europe/Paris",
      "wikiDataId": "Q1329626",
      "country_code": "FR",
      "state_code": "52",
      "state_id": 5020,
      "country_id": 75
    },
    {
      "id": 155736,
      "name": "افینکورت",
      "name_default": "Effincourt",
      "native": "Effincourt",
      "type": "city",
      "level": null,
      "parent_id": null,
      "population": 56,
      "latitude": "48.49253830",
      "longitude": "5.22333410",
      "timezone": "Europe/Paris",
      "wikiDataId": "Q1329798",
      "country_code": "FR",
      "state_code": "52",
      "state_id": 5020,
      "country_id": 75
    },
    {
      "id": 155737,
      "name": "انفونول",
      "name_default": "Enfonvelle",
      "native": "Enfonvelle",
      "type": "city",
      "level": null,
      "parent_id": null,
      "population": 71,
      "latitude": "47.92284820",
      "longitude": "5.84364660",
      "timezone": "Europe/Paris",
      "wikiDataId": "Q1101029",
      "country_code": "FR",
      "state_code": "52",
      "state_id": 5020,
      "country_id": 75
    },
    {
      "id": 155738,
      "name": "اپیزون",
      "name_default": "Épizon",
      "native": "Épizon",
      "type": "city",
      "level": null,
      "parent_id": null,
      "population": 156,
      "latitude": "48.36227480",
      "longitude": "5.28765960",
      "timezone": "Europe/Paris",
      "wikiDataId": "Q1095613",
      "country_code": "FR",
      "state_code": "52",
      "state_id": 5020,
      "country_id": 75
    },
    {
      "id": 155739,
      "name": "اسنوو",
      "name_default": "Esnouveaux",
      "native": "Esnouveaux",
      "type": "city",
      "level": null,
      "parent_id": null,
      "population": 303,
      "latitude": "48.13316490",
      "longitude": "5.30037330",
      "timezone": "Europe/Paris",
      "wikiDataId": "Q1100853",
      "country_code": "FR",
      "state_code": "52",
      "state_id": 5020,
      "country_id": 75
    },
    {
      "id": 155740,
      "name": "اوفینیکس",
      "name_default": "Euffigneix",
      "native": "Euffigneix",
      "type": "city",
      "level": null,
      "parent_id": null,
      "population": 299,
      "latitude": "48.12704880",
      "longitude": "5.02268520",
      "timezone": "Europe/Paris",
      "wikiDataId": "Q1102033",
      "country_code": "FR",
      "state_code": "52",
      "state_id": 5020,
      "country_id": 75
    },
    {
      "id": 155742,
      "name": "فارینکورت",
      "name_default": "Farincourt",
      "native": "Farincourt",
      "type": "adm4",
      "level": null,
      "parent_id": null,
      "population": 35,
      "latitude": "47.69747240",
      "longitude": "5.66052420",
      "timezone": "Europe/Paris",
      "wikiDataId": "Q1330888",
      "country_code": "FR",
      "state_code": "52",
      "state_id": 5020,
      "country_id": 75
    },
    {
      "id": 155743,
      "name": "فاورولز",
      "name_default": "Faverolles",
      "native": "Faverolles",
      "type": "city",
      "level": null,
      "parent_id": null,
      "population": 173,
      "latitude": "47.95586620",
      "longitude": "5.18139380",
      "timezone": "Europe/Paris",
      "wikiDataId": "Q1330098",
      "country_code": "FR",
      "state_code": "52",
      "state_id": 5020,
      "country_id": 75
    },
    {
      "id": 155745,
      "name": "فایز",
      "name_default": "Fays",
      "native": "Fays",
      "type": "city",
      "level": null,
      "parent_id": null,
      "population": 62,
      "latitude": "48.47715660",
      "longitude": "5.01702410",
      "timezone": "Europe/Paris",
      "wikiDataId": "Q667154",
      "country_code": "FR",
      "state_code": "52",
      "state_id": 5020,
      "country_id": 75
    },
    {
      "id": 155746,
      "name": "فری‌یر-ا-لافولی",
      "name_default": "Ferrière-et-Lafolie",
      "native": "Ferrière-et-Lafolie",
      "type": "city",
      "level": null,
      "parent_id": null,
      "population": 51,
      "latitude": "48.39795850",
      "longitude": "5.02872880",
      "timezone": "Europe/Paris",
      "wikiDataId": "Q1329603",
      "country_code": "FR",
      "state_code": "52",
      "state_id": 5020,
      "country_id": 75
    },
    {
      "id": 155747,
      "name": "پرچمی",
      "name_default": "Flagey",
      "native": "Flagey",
      "type": "city",
      "level": null,
      "parent_id": null,
      "population": 70,
      "latitude": "47.78531030",
      "longitude": "5.22333310",
      "timezone": "Europe/Paris",
      "wikiDataId": "Q1330066",
      "country_code": "FR",
      "state_code": "52",
      "state_id": 5020,
      "country_id": 75
    },
    {
      "id": 155748,
      "name": "فلامره‌کورت",
      "name_default": "Flammerécourt",
      "native": "Flammerécourt",
      "type": "city",
      "level": null,
      "parent_id": null,
      "population": 71,
      "latitude": "48.36310990",
      "longitude": "4.99504130",
      "timezone": "Europe/Paris",
      "wikiDataId": "Q1329592",
      "country_code": "FR",
      "state_code": "52",
      "state_id": 5020,
      "country_id": 75
    },
    {
      "id": 155749,
      "name": "فونتن-سور-مارن",
      "name_default": "Fontaines-sur-Marne",
      "native": "Fontaines-sur-Marne",
      "type": "city",
      "level": null,
      "parent_id": null,
      "population": 146,
      "latitude": "48.55606530",
      "longitude": "5.09800750",
      "timezone": "Europe/Paris",
      "wikiDataId": "Q744404",
      "country_code": "FR",
      "state_code": "52",
      "state_id": 5020,
      "country_id": 75
    },
    {
      "id": 155750,
      "name": "فورسی",
      "name_default": "Forcey",
      "native": "Forcey",
      "type": "city",
      "level": null,
      "parent_id": null,
      "population": 60,
      "latitude": "48.15106090",
      "longitude": "5.34878360",
      "timezone": "Europe/Paris",
      "wikiDataId": "Q1101575",
      "country_code": "FR",
      "state_code": "52",
      "state_id": 5020,
      "country_id": 75
    },
    {
      "id": 155751,
      "name": "فولین",
      "name_default": "Foulain",
      "native": "Foulain",
      "type": "city",
      "level": null,
      "parent_id": null,
      "population": 681,
      "latitude": "48.02341440",
      "longitude": "5.08059780",
      "timezone": "Europe/Paris",
      "wikiDataId": "Q1102153",
      "country_code": "FR",
      "state_code": "52",
      "state_id": 5020,
      "country_id": 75
    },
    {
      "id": 155752,
      "name": "فرامپاس",
      "name_default": "Frampas",
      "native": "Frampas",
      "type": "city",
      "level": null,
      "parent_id": null,
      "population": 155,
      "latitude": "48.52019730",
      "longitude": "4.79234870",
      "timezone": "Europe/Paris",
      "wikiDataId": "Q1101588",
      "country_code": "FR",
      "state_code": "52",
      "state_id": 5020,
      "country_id": 75
    },
    {
      "id": 155753,
      "name": "فرکور",
      "name_default": "Frécourt",
      "native": "Frécourt",
      "type": "city",
      "level": null,
      "parent_id": null,
      "population": 88,
      "latitude": "47.94824400",
      "longitude": "5.43396940",
      "timezone": "Europe/Paris",
      "wikiDataId": "Q1387125",
      "country_code": "FR",
      "state_code": "52",
      "state_id": 5020,
      "country_id": 75
    },
    {
      "id": 155754,
      "name": "فرنس-سور-آپانس",
      "name_default": "Fresnes-sur-Apance",
      "native": "Fresnes-sur-Apance",
      "type": "city",
      "level": null,
      "parent_id": null,
      "population": 161,
      "latitude": "47.94256810",
      "longitude": "5.79363180",
      "timezone": "Europe/Paris",
      "wikiDataId": "Q1101551",
      "country_code": "FR",
      "state_code": "52",
      "state_id": 5020,
      "country_id": 75
    },
    {
      "id": 155756,
      "name": "فرونویل",
      "name_default": "Fronville",
      "native": "Fronville",
      "type": "city",
      "level": null,
      "parent_id": null,
      "population": 300,
      "latitude": "48.40046960",
      "longitude": "5.08972870",
      "timezone": "Europe/Paris",
      "wikiDataId": "Q368725",
      "country_code": "FR",
      "state_code": "52",
      "state_id": 5020,
      "country_id": 75
    },
    {
      "id": 155757,
      "name": "ژنوریه",
      "name_default": "Genevrières",
      "native": "Genevrières",
      "type": "city",
      "level": null,
      "parent_id": null,
      "population": 124,
      "latitude": "47.72341160",
      "longitude": "5.56109540",
      "timezone": "Europe/Paris",
      "wikiDataId": "Q678224",
      "country_code": "FR",
      "state_code": "52",
      "state_id": 5020,
      "country_id": 75
    },
    {
      "id": 155758,
      "name": "ژرمن‌ها",
      "name_default": "Germaines",
      "native": "Germaines",
      "type": "city",
      "level": null,
      "parent_id": null,
      "population": 50,
      "latitude": "47.79906490",
      "longitude": "5.00901320",
      "timezone": "Europe/Paris",
      "wikiDataId": "Q1102098",
      "country_code": "FR",
      "state_code": "52",
      "state_id": 5020,
      "country_id": 75
    },
    {
      "id": 155759,
      "name": "ژرمنویلیرز",
      "name_default": "Germainvilliers",
      "native": "Germainvilliers",
      "type": "city",
      "level": null,
      "parent_id": null,
      "population": 84,
      "latitude": "48.11538840",
      "longitude": "5.59607490",
      "timezone": "Europe/Paris",
      "wikiDataId": "Q1100892",
      "country_code": "FR",
      "state_code": "52",
      "state_id": 5020,
      "country_id": 75
    },
    {
      "id": 155760,
      "name": "آلمان",
      "name_default": "Germay",
      "native": "Germay",
      "type": "city",
      "level": null,
      "parent_id": null,
      "population": 49,
      "latitude": "48.40740010",
      "longitude": "5.33129750",
      "timezone": "Europe/Paris",
      "wikiDataId": "Q972058",
      "country_code": "FR",
      "state_code": "52",
      "state_id": 5020,
      "country_id": 75
    },
    {
      "id": 155761,
      "name": "جرمیسای",
      "name_default": "Germisay",
      "native": "Germisay",
      "type": "city",
      "level": null,
      "parent_id": null,
      "population": 17,
      "latitude": "48.39092360",
      "longitude": "5.32527420",
      "timezone": "Europe/Paris",
      "wikiDataId": "Q1101608",
      "country_code": "FR",
      "state_code": "52",
      "state_id": 5020,
      "country_id": 75
    },
    {
      "id": 155762,
      "name": "گی-سور-آخون",
      "name_default": "Giey-sur-Aujon",
      "native": "Giey-sur-Aujon",
      "type": "city",
      "level": null,
      "parent_id": null,
      "population": 145,
      "latitude": "47.90527530",
      "longitude": "5.01745440",
      "timezone": "Europe/Paris",
      "wikiDataId": "Q1100877",
      "country_code": "FR",
      "state_code": "52",
      "state_id": 5020,
      "country_id": 75
    },
    {
      "id": 155763,
      "name": "گیلانکورت",
      "name_default": "Gillancourt",
      "native": "Gillancourt",
      "type": "city",
      "level": null,
      "parent_id": null,
      "population": 126,
      "latitude": "48.15335260",
      "longitude": "4.95441460",
      "timezone": "Europe/Paris",
      "wikiDataId": "Q1332839",
      "country_code": "FR",
      "state_code": "52",
      "state_id": 5020,
      "country_id": 75
    },
    {
      "id": 155764,
      "name": "ژیلومه",
      "name_default": "Gillaumé",
      "native": "Gillaumé",
      "type": "city",
      "level": null,
      "parent_id": null,
      "population": 31,
      "latitude": "48.46854310",
      "longitude": "5.32664310",
      "timezone": "Europe/Paris",
      "wikiDataId": "Q1332919",
      "country_code": "FR",
      "state_code": "52",
      "state_id": 5020,
      "country_id": 75
    },
    {
      "id": 42094,
      "name": "گیلی",
      "name_default": "Gilley",
      "native": "Gilley",
      "type": "city",
      "level": null,
      "parent_id": null,
      "population": 1805,
      "latitude": "47.69170150",
      "longitude": "5.61223970",
      "timezone": "Europe/Paris",
      "wikiDataId": "Q596679",
      "country_code": "FR",
      "state_code": "52",
      "state_id": 5020,
      "country_id": 75
    },
    {
      "id": 155766,
      "name": "گرافیتی-کمین",
      "name_default": "Graffigny-Chemin",
      "native": "Graffigny-Chemin",
      "type": "city",
      "level": null,
      "parent_id": null,
      "population": 198,
      "latitude": "48.16830590",
      "longitude": "5.60728900",
      "timezone": "Europe/Paris",
      "wikiDataId": "Q1598554",
      "country_code": "FR",
      "state_code": "52",
      "state_id": 5020,
      "country_id": 75
    },
    {
      "id": 155767,
      "name": "گرندشمپ",
      "name_default": "Grandchamp",
      "native": "Grandchamp",
      "type": "city",
      "level": null,
      "parent_id": null,
      "population": 302,
      "latitude": "47.72231290",
      "longitude": "5.42566200",
      "timezone": "Europe/Paris",
      "wikiDataId": "Q1331479",
      "country_code": "FR",
      "state_code": "52",
      "state_id": 5020,
      "country_id": 75
    },
    {
      "id": 155768,
      "name": "گرنانت",
      "name_default": "Grenant",
      "native": "Grenant",
      "type": "city",
      "level": null,
      "parent_id": null,
      "population": 150,
      "latitude": "47.70722560",
      "longitude": "5.45146330",
      "timezone": "Europe/Paris",
      "wikiDataId": "Q1329504",
      "country_code": "FR",
      "state_code": "52",
      "state_id": 5020,
      "country_id": 75
    },
    {
      "id": 155769,
      "name": "گودمونت-ویلیرز",
      "name_default": "Gudmont-Villiers",
      "native": "Gudmont-Villiers",
      "type": "city",
      "level": null,
      "parent_id": null,
      "population": 279,
      "latitude": "48.33621300",
      "longitude": "5.07926390",
      "timezone": "Europe/Paris",
      "wikiDataId": "Q1325599",
      "country_code": "FR",
      "state_code": "52",
      "state_id": 5020,
      "country_id": 75
    },
    {
      "id": 155770,
      "name": "گیندرکورت-او-اورم",
      "name_default": "Guindrecourt-aux-Ormes",
      "native": "Guindrecourt-aux-Ormes",
      "type": "city",
      "level": null,
      "parent_id": null,
      "population": 94,
      "latitude": "48.45297720",
      "longitude": "5.01940090",
      "timezone": "Europe/Paris",
      "wikiDataId": "Q1329354",
      "country_code": "FR",
      "state_code": "52",
      "state_id": 5020,
      "country_id": 75
    },
    {
      "id": 155771,
      "name": "گیندرکورت-سور-بلز",
      "name_default": "Guindrecourt-sur-Blaise",
      "native": "Guindrecourt-sur-Blaise",
      "type": "city",
      "level": null,
      "parent_id": null,
      "population": 55,
      "latitude": "48.29844230",
      "longitude": "4.95858090",
      "timezone": "Europe/Paris",
      "wikiDataId": "Q1329340",
      "country_code": "FR",
      "state_code": "52",
      "state_id": 5020,
      "country_id": 75
    },
    {
      "id": 155772,
      "name": "گویونول",
      "name_default": "Guyonvelle",
      "native": "Guyonvelle",
      "type": "city",
      "level": null,
      "parent_id": null,
      "population": 90,
      "latitude": "47.85944450",
      "longitude": "5.68424970",
      "timezone": "Europe/Paris",
      "wikiDataId": "Q522208",
      "country_code": "FR",
      "state_code": "52",
      "state_id": 5020,
      "country_id": 75
    },
    {
      "id": 155773,
      "name": "هاکورت",
      "name_default": "Hâcourt",
      "native": "Hâcourt",
      "type": "city",
      "level": null,
      "parent_id": null,
      "population": 41,
      "latitude": "48.16058690",
      "longitude": "5.55908140",
      "timezone": "Europe/Paris",
      "wikiDataId": "Q1329569",
      "country_code": "FR",
      "state_code": "52",
      "state_id": 5020,
      "country_id": 75
    },
    {
      "id": 155774,
      "name": "هالینیکورت",
      "name_default": "Hallignicourt",
      "native": "Hallignicourt",
      "type": "city",
      "level": null,
      "parent_id": null,
      "population": 241,
      "latitude": "48.64738110",
      "longitude": "4.83143460",
      "timezone": "Europe/Paris",
      "wikiDataId": "Q544662",
      "country_code": "FR",
      "state_code": "52",
      "state_id": 5020,
      "country_id": 75
    },
    {
      "id": 155775,
      "name": "هاروویل-له-شانتور",
      "name_default": "Harréville-les-Chanteurs",
      "native": "Harréville-les-Chanteurs",
      "type": "adm4",
      "level": null,
      "parent_id": null,
      "population": 267,
      "latitude": "48.26707700",
      "longitude": "5.57667880",
      "timezone": "Europe/Paris",
      "wikiDataId": "Q1101625",
      "country_code": "FR",
      "state_code": "52",
      "state_id": 5020,
      "country_id": 75
    },
    {
      "id": 155776,
      "name": "اوت-آمانس",
      "name_default": "Haute-Amance",
      "native": "Haute-Amance",
      "type": "city",
      "level": null,
      "parent_id": null,
      "population": 959,
      "latitude": "47.84922990",
      "longitude": "5.44636080",
      "timezone": "Europe/Paris",
      "wikiDataId": "Q1100886",
      "country_code": "FR",
      "state_code": "52",
      "state_id": 5020,
      "country_id": 75
    },
    {
      "id": 155777,
      "name": "اوی-لو-گراند",
      "name_default": "Heuilley-le-Grand",
      "native": "Heuilley-le-Grand",
      "type": "city",
      "level": null,
      "parent_id": null,
      "population": 190,
      "latitude": "47.75642110",
      "longitude": "5.35520380",
      "timezone": "Europe/Paris",
      "wikiDataId": "Q1386903",
      "country_code": "FR",
      "state_code": "52",
      "state_id": 5020,
      "country_id": 75
    },
    {
      "id": 155778,
      "name": "هولیه کورت",
      "name_default": "Huilliécourt",
      "native": "Huilliécourt",
      "type": "city",
      "level": null,
      "parent_id": null,
      "population": 115,
      "latitude": "48.15936370",
      "longitude": "5.49064550",
      "timezone": "Europe/Paris",
      "wikiDataId": "Q1330125",
      "country_code": "FR",
      "state_code": "52",
      "state_id": 5020,
      "country_id": 75
    },
    {
      "id": 155779,
      "name": "هومبکورت",
      "name_default": "Humbécourt",
      "native": "Humbécourt",
      "type": "adm4",
      "level": null,
      "parent_id": null,
      "population": 755,
      "latitude": "48.57997770",
      "longitude": "4.88058760",
      "timezone": "Europe/Paris",
      "wikiDataId": "Q946195",
      "country_code": "FR",
      "state_code": "52",
      "state_id": 5020,
      "country_id": 75
    },
    {
      "id": 155780,
      "name": "هامبرویل",
      "name_default": "Humberville",
      "native": "Humberville",
      "type": "city",
      "level": null,
      "parent_id": null,
      "population": 58,
      "latitude": "48.29451110",
      "longitude": "5.35975040",
      "timezone": "Europe/Paris",
      "wikiDataId": "Q1331599",
      "country_code": "FR",
      "state_code": "52",
      "state_id": 5020,
      "country_id": 75
    },
    {
      "id": 155781,
      "name": "هومز-ژورکنای",
      "name_default": "Humes-Jorquenay",
      "native": "Humes-Jorquenay",
      "type": "city",
      "level": null,
      "parent_id": null,
      "population": 592,
      "latitude": "47.90270770",
      "longitude": "5.26091140",
      "timezone": "Europe/Paris",
      "wikiDataId": "Q1329665",
      "country_code": "FR",
      "state_code": "52",
      "state_id": 5020,
      "country_id": 75
    },
    {
      "id": 155782,
      "name": "ایلوود",
      "name_default": "Illoud",
      "native": "Illoud",
      "type": "city",
      "level": null,
      "parent_id": null,
      "population": 199,
      "latitude": "48.21660190",
      "longitude": "5.50966650",
      "timezone": "Europe/Paris",
      "wikiDataId": "Q968245",
      "country_code": "FR",
      "state_code": "52",
      "state_id": 5020,
      "country_id": 75
    },
    {
      "id": 155783,
      "name": "ایزن باسینی",
      "name_default": "Is-en-Bassigny",
      "native": "Is-en-Bassigny",
      "type": "city",
      "level": null,
      "parent_id": null,
      "population": 538,
      "latitude": "48.03599300",
      "longitude": "5.40391500",
      "timezone": "Europe/Paris",
      "wikiDataId": "Q1331411",
      "country_code": "FR",
      "state_code": "52",
      "state_id": 5020,
      "country_id": 75
    },
    {
      "id": 155784,
      "name": "ایزوم",
      "name_default": "Isômes",
      "native": "Isômes",
      "type": "city",
      "level": null,
      "parent_id": null,
      "population": 147,
      "latitude": "47.63553020",
      "longitude": "5.28259770",
      "timezone": "Europe/Paris",
      "wikiDataId": "Q1331115",
      "country_code": "FR",
      "state_code": "52",
      "state_id": 5020,
      "country_id": 75
    },
    {
      "id": 155786,
      "name": "جونچری",
      "name_default": "Jonchery",
      "native": "Jonchery",
      "type": "city",
      "level": null,
      "parent_id": null,
      "population": 960,
      "latitude": "48.14954500",
      "longitude": "5.03102390",
      "timezone": "Europe/Paris",
      "wikiDataId": "Q1331391",
      "country_code": "FR",
      "state_code": "52",
      "state_id": 5020,
      "country_id": 75
    },
    {
      "id": 155787,
      "name": "ژوزنکورت",
      "name_default": "Juzennecourt",
      "native": "Juzennecourt",
      "type": "adm4",
      "level": null,
      "parent_id": null,
      "population": 199,
      "latitude": "48.20193170",
      "longitude": "4.93709400",
      "timezone": "Europe/Paris",
      "wikiDataId": "Q1330083",
      "country_code": "FR",
      "state_code": "52",
      "state_id": 5020,
      "country_id": 75
    },
    {
      "id": 155788,
      "name": "لا ژنوروی",
      "name_default": "La Genevroye",
      "native": "La Genevroye",
      "type": "city",
      "level": null,
      "parent_id": null,
      "population": 29,
      "latitude": "48.27634460",
      "longitude": "5.04524190",
      "timezone": "Europe/Paris",
      "wikiDataId": "Q1157492",
      "country_code": "FR",
      "state_code": "52",
      "state_id": 5020,
      "country_id": 75
    },
    {
      "id": 155807,
      "name": "پورت دو در",
      "name_default": "La Porte du Der",
      "native": "La Porte du Der",
      "type": "city",
      "level": null,
      "parent_id": null,
      "population": null,
      "latitude": "48.47727400",
      "longitude": "4.72506070",
      "timezone": "Europe/Paris",
      "wikiDataId": "Q21979617",
      "country_code": "FR",
      "state_code": "52",
      "state_id": 5020,
      "country_id": 75
    },
    {
      "id": 155789,
      "name": "لاشاپل-آن-بلزی",
      "name_default": "Lachapelle-en-Blaisy",
      "native": "Lachapelle-en-Blaisy",
      "type": "city",
      "level": null,
      "parent_id": null,
      "population": 84,
      "latitude": "48.20699960",
      "longitude": "4.92140070",
      "timezone": "Europe/Paris",
      "wikiDataId": "Q1331612",
      "country_code": "FR",
      "state_code": "52",
      "state_id": 5020,
      "country_id": 75
    },
    {
      "id": 155790,
      "name": "لافاوش",
      "name_default": "Lafauche",
      "native": "Lafauche",
      "type": "city",
      "level": null,
      "parent_id": null,
      "population": 74,
      "latitude": "48.30393090",
      "longitude": "5.47017390",
      "timezone": "Europe/Paris",
      "wikiDataId": "Q1329483",
      "country_code": "FR",
      "state_code": "52",
      "state_id": 5020,
      "country_id": 75
    },
    {
      "id": 155791,
      "name": "لافرت-سور-آمانس",
      "name_default": "Laferté-sur-Amance",
      "native": "Laferté-sur-Amance",
      "type": "city",
      "level": null,
      "parent_id": null,
      "population": 108,
      "latitude": "47.83411950",
      "longitude": "5.67509670",
      "timezone": "Europe/Paris",
      "wikiDataId": "Q1330879",
      "country_code": "FR",
      "state_code": "52",
      "state_id": 5020,
      "country_id": 75
    },
    {
      "id": 155792,
      "name": "لافرت-سور-اوبه",
      "name_default": "Laferté-sur-Aube",
      "native": "Laferté-sur-Aube",
      "type": "adm3",
      "level": null,
      "parent_id": null,
      "population": 310,
      "latitude": "48.09601060",
      "longitude": "4.69694760",
      "timezone": "Europe/Paris",
      "wikiDataId": "Q1330229",
      "country_code": "FR",
      "state_code": "52",
      "state_id": 5020,
      "country_id": 75
    },
    {
      "id": 155793,
      "name": "لامانچین",
      "name_default": "Lamancine",
      "native": "Lamancine",
      "type": "city",
      "level": null,
      "parent_id": null,
      "population": 124,
      "latitude": "48.21118010",
      "longitude": "5.09502950",
      "timezone": "Europe/Paris",
      "wikiDataId": "Q1329709",
      "country_code": "FR",
      "state_code": "52",
      "state_id": 5020,
      "country_id": 75
    },
    {
      "id": 155794,
      "name": "لانِوِل",
      "name_default": "Laneuvelle",
      "native": "Laneuvelle",
      "type": "city",
      "level": null,
      "parent_id": null,
      "population": 64,
      "latitude": "47.93542250",
      "longitude": "5.62778440",
      "timezone": "Europe/Paris",
      "wikiDataId": "Q1329684",
      "country_code": "FR",
      "state_code": "52",
      "state_id": 5020,
      "country_id": 75
    },
    {
      "id": 155795,
      "name": "لانویل-آ-رمی",
      "name_default": "Laneuville-à-Rémy",
      "native": "Laneuville-à-Rémy",
      "type": "city",
      "level": null,
      "parent_id": null,
      "population": 66,
      "latitude": "48.47308750",
      "longitude": "4.86052000",
      "timezone": "Europe/Paris",
      "wikiDataId": "Q1723692",
      "country_code": "FR",
      "state_code": "52",
      "state_id": 5020,
      "country_id": 75
    },
    {
      "id": 155796,
      "name": "لانویل-او-پونت",
      "name_default": "Laneuville-au-Pont",
      "native": "Laneuville-au-Pont",
      "type": "city",
      "level": null,
      "parent_id": null,
      "population": 233,
      "latitude": "48.62694140",
      "longitude": "4.84664660",
      "timezone": "Europe/Paris",
      "wikiDataId": "Q517836",
      "country_code": "FR",
      "state_code": "52",
      "state_id": 5020,
      "country_id": 75
    },
    {
      "id": 155798,
      "name": "لانکوس-سور-رونیون",
      "name_default": "Lanques-sur-Rognon",
      "native": "Lanques-sur-Rognon",
      "type": "city",
      "level": null,
      "parent_id": null,
      "population": 212,
      "latitude": "48.08303240",
      "longitude": "5.32255170",
      "timezone": "Europe/Paris",
      "wikiDataId": "Q1331579",
      "country_code": "FR",
      "state_code": "52",
      "state_id": 5020,
      "country_id": 75
    },
    {
      "id": 155799,
      "name": "لانتی-سور-اوبه",
      "name_default": "Lanty-sur-Aube",
      "native": "Lanty-sur-Aube",
      "type": "adm3",
      "level": null,
      "parent_id": null,
      "population": 114,
      "latitude": "48.02518980",
      "longitude": "4.70654310",
      "timezone": "Europe/Paris",
      "wikiDataId": "Q1331813",
      "country_code": "FR",
      "state_code": "52",
      "state_id": 5020,
      "country_id": 75
    },
    {
      "id": 155800,
      "name": "لاریویر-آرنونکورت",
      "name_default": "Larivière-Arnoncourt",
      "native": "Larivière-Arnoncourt",
      "type": "adm3",
      "level": null,
      "parent_id": null,
      "population": 122,
      "latitude": "48.02104840",
      "longitude": "5.68728930",
      "timezone": "Europe/Paris",
      "wikiDataId": "Q430564",
      "country_code": "FR",
      "state_code": "52",
      "state_id": 5020,
      "country_id": 75
    },
    {
      "id": 155801,
      "name": "لاترسی-اورموی-سور-آوب",
      "name_default": "Latrecey-Ormoy-sur-Aube",
      "native": "Latrecey-Ormoy-sur-Aube",
      "type": "city",
      "level": null,
      "parent_id": null,
      "population": 275,
      "latitude": "47.99042260",
      "longitude": "4.76772670",
      "timezone": "Europe/Paris",
      "wikiDataId": "Q924628",
      "country_code": "FR",
      "state_code": "52",
      "state_id": 5020,
      "country_id": 75
    },
    {
      "id": 155802,
      "name": "لاورنی",
      "name_default": "Lavernoy",
      "native": "Lavernoy",
      "type": "city",
      "level": null,
      "parent_id": null,
      "population": 75,
      "latitude": "47.91545060",
      "longitude": "5.55590600",
      "timezone": "Europe/Paris",
      "wikiDataId": "Q662471",
      "country_code": "FR",
      "state_code": "52",
      "state_id": 5020,
      "country_id": 75
    },
    {
      "id": 155803,
      "name": "لاویل-او-بوآ",
      "name_default": "Laville-aux-Bois",
      "native": "Laville-aux-Bois",
      "type": "city",
      "level": null,
      "parent_id": null,
      "population": 238,
      "latitude": "48.09019120",
      "longitude": "5.19527530",
      "timezone": "Europe/Paris",
      "wikiDataId": "Q1329644",
      "country_code": "FR",
      "state_code": "52",
      "state_id": 5020,
      "country_id": 75
    },
    {
      "id": 155804,
      "name": "لاویلنوو",
      "name_default": "Lavilleneuve",
      "native": "Lavilleneuve",
      "type": "city",
      "level": null,
      "parent_id": null,
      "population": 57,
      "latitude": "48.03787050",
      "longitude": "5.49782730",
      "timezone": "Europe/Paris",
      "wikiDataId": "Q667597",
      "country_code": "FR",
      "state_code": "52",
      "state_id": 5020,
      "country_id": 75
    },
    {
      "id": 155805,
      "name": "لاویلنوو-او-رو",
      "name_default": "Lavilleneuve-au-Roi",
      "native": "Lavilleneuve-au-Roi",
      "type": "adm4",
      "level": null,
      "parent_id": null,
      "population": 68,
      "latitude": "48.16186770",
      "longitude": "4.89325960",
      "timezone": "Europe/Paris",
      "wikiDataId": "Q3219823",
      "country_code": "FR",
      "state_code": "52",
      "state_id": 5020,
      "country_id": 75
    },
    {
      "id": 155806,
      "name": "لو شاتله-سور-موزه",
      "name_default": "Le Châtelet-sur-Meuse",
      "native": "Le Châtelet-sur-Meuse",
      "type": "city",
      "level": null,
      "parent_id": null,
      "population": 156,
      "latitude": "47.97140070",
      "longitude": "5.60843310",
      "timezone": "Europe/Paris",
      "wikiDataId": "Q42014",
      "country_code": "FR",
      "state_code": "52",
      "state_id": 5020,
      "country_id": 75
    },
    {
      "id": 155808,
      "name": "لو مونتساوگونا",
      "name_default": "Le Montsaugeonnais",
      "native": "Le Montsaugeonnais",
      "type": "city",
      "level": null,
      "parent_id": null,
      "population": 1140,
      "latitude": "47.66421090",
      "longitude": "5.24629220",
      "timezone": "Europe/Paris",
      "wikiDataId": "Q21979615",
      "country_code": "FR",
      "state_code": "52",
      "state_id": 5020,
      "country_id": 75
    },
    {
      "id": 155809,
      "name": "لو پیلی",
      "name_default": "Le Pailly",
      "native": "Le Pailly",
      "type": "city",
      "level": null,
      "parent_id": null,
      "population": 272,
      "latitude": "47.78735040",
      "longitude": "5.39442630",
      "timezone": "Europe/Paris",
      "wikiDataId": "Q1167490",
      "country_code": "FR",
      "state_code": "52",
      "state_id": 5020,
      "country_id": 75
    },
    {
      "id": 155810,
      "name": "لو وال-دسنوم",
      "name_default": "Le Val-d'Esnoms",
      "native": "Le Val-d'Esnoms",
      "type": "city",
      "level": null,
      "parent_id": null,
      "population": 367,
      "latitude": "47.68612880",
      "longitude": "5.17887510",
      "timezone": "Europe/Paris",
      "wikiDataId": "Q1157264",
      "country_code": "FR",
      "state_code": "52",
      "state_id": 5020,
      "country_id": 75
    },
    {
      "id": 155811,
      "name": "لسی",
      "name_default": "Lecey",
      "native": "Lecey",
      "type": "city",
      "level": null,
      "parent_id": null,
      "population": 193,
      "latitude": "47.86069910",
      "longitude": "5.39436730",
      "timezone": "Europe/Paris",
      "wikiDataId": "Q1389397",
      "country_code": "FR",
      "state_code": "52",
      "state_id": 5020,
      "country_id": 75
    },
    {
      "id": 155812,
      "name": "لفوندز",
      "name_default": "Leffonds",
      "native": "Leffonds",
      "type": "city",
      "level": null,
      "parent_id": null,
      "population": 344,
      "latitude": "47.97910970",
      "longitude": "5.10514730",
      "timezone": "Europe/Paris",
      "wikiDataId": "Q631219",
      "country_code": "FR",
      "state_code": "52",
      "state_id": 5020,
      "country_id": 75
    },
    {
      "id": 43399,
      "name": "لس لوژ",
      "name_default": "Les Loges",
      "native": "Les Loges",
      "type": "city",
      "level": null,
      "parent_id": null,
      "population": 123,
      "latitude": "47.77091890",
      "longitude": "5.43999360",
      "timezone": "Europe/Paris",
      "wikiDataId": "Q1386942",
      "country_code": "FR",
      "state_code": "52",
      "state_id": 5020,
      "country_id": 75
    },
    {
      "id": 155814,
      "name": "لشر-سور-لو-بلیزرون",
      "name_default": "Leschères-sur-le-Blaiseron",
      "native": "Leschères-sur-le-Blaiseron",
      "type": "city",
      "level": null,
      "parent_id": null,
      "population": 88,
      "latitude": "48.33227190",
      "longitude": "4.98729420",
      "timezone": "Europe/Paris",
      "wikiDataId": "Q525339",
      "country_code": "FR",
      "state_code": "52",
      "state_id": 5020,
      "country_id": 75
    },
    {
      "id": 155815,
      "name": "لوچی",
      "name_default": "Leuchey",
      "native": "Leuchey",
      "type": "city",
      "level": null,
      "parent_id": null,
      "population": 72,
      "latitude": "47.72882880",
      "longitude": "5.19522020",
      "timezone": "Europe/Paris",
      "wikiDataId": "Q728857",
      "country_code": "FR",
      "state_code": "52",
      "state_id": 5020,
      "country_id": 75
    },
    {
      "id": 155816,
      "name": "لورویل",
      "name_default": "Leurville",
      "native": "Leurville",
      "type": "city",
      "level": null,
      "parent_id": null,
      "population": 77,
      "latitude": "48.33739830",
      "longitude": "5.34456230",
      "timezone": "Europe/Paris",
      "wikiDataId": "Q1331786",
      "country_code": "FR",
      "state_code": "52",
      "state_id": 5020,
      "country_id": 75
    },
    {
      "id": 155817,
      "name": "لوکور",
      "name_default": "Levécourt",
      "native": "Levécourt",
      "type": "adm4",
      "level": null,
      "parent_id": null,
      "population": 91,
      "latitude": "48.13468800",
      "longitude": "5.53822550",
      "timezone": "Europe/Paris",
      "wikiDataId": "Q1339186",
      "country_code": "FR",
      "state_code": "52",
      "state_id": 5020,
      "country_id": 75
    },
    {
      "id": 155818,
      "name": "لزویل",
      "name_default": "Lezéville",
      "native": "Lezéville",
      "type": "city",
      "level": null,
      "parent_id": null,
      "population": 108,
      "latitude": "48.42612920",
      "longitude": "5.31536230",
      "timezone": "Europe/Paris",
      "wikiDataId": "Q1331876",
      "country_code": "FR",
      "state_code": "52",
      "state_id": 5020,
      "country_id": 75
    },
    {
      "id": 155819,
      "name": "لیفول لو پتی",
      "name_default": "Liffol-le-Petit",
      "native": "Liffol-le-Petit",
      "type": "city",
      "level": null,
      "parent_id": null,
      "population": 320,
      "latitude": "48.28954560",
      "longitude": "5.50319300",
      "timezone": "Europe/Paris",
      "wikiDataId": "Q1339311",
      "country_code": "FR",
      "state_code": "52",
      "state_id": 5020,
      "country_id": 75
    },
    {
      "id": 43553,
      "name": "لانگ‌شامپ",
      "name_default": "Longchamp",
      "native": "Longchamp",
      "type": "city",
      "level": null,
      "parent_id": null,
      "population": 59,
      "latitude": "48.12751100",
      "longitude": "5.41954620",
      "timezone": "Europe/Paris",
      "wikiDataId": "Q1339236",
      "country_code": "FR",
      "state_code": "52",
      "state_id": 5020,
      "country_id": 75
    },
    {
      "id": 155821,
      "name": "لونگو-پرسی",
      "name_default": "Longeau-Percey",
      "native": "Longeau-Percey",
      "type": "city",
      "level": null,
      "parent_id": null,
      "population": 695,
      "latitude": "47.76162950",
      "longitude": "5.30188170",
      "timezone": "Europe/Paris",
      "wikiDataId": "Q1339206",
      "country_code": "FR",
      "state_code": "52",
      "state_id": 5020,
      "country_id": 75
    },
    {
      "id": 155822,
      "name": "لوومونت",
      "name_default": "Louvemont",
      "native": "Louvemont",
      "type": "city",
      "level": null,
      "parent_id": null,
      "population": 697,
      "latitude": "48.54505530",
      "longitude": "4.85255050",
      "timezone": "Europe/Paris",
      "wikiDataId": "Q1331855",
      "country_code": "FR",
      "state_code": "52",
      "state_id": 5020,
      "country_id": 75
    },
    {
      "id": 155823,
      "name": "لوویر",
      "name_default": "Louvières",
      "native": "Louvières",
      "type": "city",
      "level": null,
      "parent_id": null,
      "population": 90,
      "latitude": "48.02738590",
      "longitude": "5.26121600",
      "timezone": "Europe/Paris",
      "wikiDataId": "Q1386864",
      "country_code": "FR",
      "state_code": "52",
      "state_id": 5020,
      "country_id": 75
    },