{
  "locale": "zh-CN",
  "country": {
    "id": 225,
    "code": "TR",
    "iso3": "TUR",
    "numeric_code": "792",
    "name": "土耳其",
    "name_default": "Turkey",
    "native": "Türkiye",
    "capital": "Ankara",
    "phonecode": "90",
    "currency": "TRY",
    "currency_name": "Turkish lira",
    "currency_symbol": "₺",
    "tld": ".tr",
    "population": 85664944,
    "gdp": 1437406,
    "region": "Asia",
    "region_id": 3,
    "subregion": "Western Asia",
    "subregion_id": 11,
    "nationality": "Turkish",
    "timezones": [
      {
        "zoneName": "Europe/Istanbul",
        "gmtOffset": 10800,
        "gmtOffsetName": "UTC+03:00",
        "abbreviation": "EET",
        "tzName": "Eastern European Time"
      }
    ],
    "latitude": "39.00000000",
    "longitude": "35.00000000",
    "emoji": "🇹🇷",
    "emojiU": "U+1F1F9 U+1F1F7"
  },
  "state": {
    "id": 2187,
    "code": "09",
    "iso2": "09",
    "iso3166_2": "TR-09",
    "fips_code": "09",
    "name": "艾登",
    "name_default": "Aydın",
    "native": "Aydın",
    "type": "province",
    "level": "1",
    "parent_id": null,
    "population": 259027,
    "latitude": "37.74057980",
    "longitude": "28.06764040",
    "timezone": "Europe/Istanbul",
    "wikiDataId": "Q79846",
    "country_code": "TR"
  },
  "cities": [
    {
      "id": 107381,
      "name": "博兹多安",
      "name_default": "Bozdoğan",
      "native": "Bozdoğan",
      "type": "adm2",
      "level": null,
      "parent_id": null,
      "population": 8378,
      "latitude": "37.67134000",
      "longitude": "28.31395000",
      "timezone": "Europe/Istanbul",
      "wikiDataId": "Q10259759",
      "country_code": "TR",
      "state_code": "09",
      "state_id": 2187,
      "country_id": 225
    },
    {
      "id": 107402,
      "name": "布哈肯特",
      "name_default": "Buharkent",
      "native": "Buharkent",
      "type": "adm2",
      "level": null,
      "parent_id": null,
      "population": 7723,
      "latitude": "37.96397000",
      "longitude": "28.74270000",
      "timezone": "Europe/Istanbul",
      "wikiDataId": "Q581187",
      "country_code": "TR",
      "state_code": "09",
      "state_id": 2187,
      "country_id": 225
    },
    {
      "id": 108834,
      "name": "恰内",
      "name_default": "Çine",
      "native": "Çine",
      "type": "adm2",
      "level": null,
      "parent_id": null,
      "population": 21327,
      "latitude": "37.61266000",
      "longitude": "28.05912000",
      "timezone": "Europe/Istanbul",
      "wikiDataId": "Q2900960",
      "country_code": "TR",
      "state_code": "09",
      "state_id": 2187,
      "country_id": 225
    },
    {
      "id": 107493,
      "name": "迪迪姆",
      "name_default": "Didim",
      "native": "Sözlü sipariş",
      "type": "city",
      "level": null,
      "parent_id": null,
      "population": 85055,
      "latitude": "37.39305000",
      "longitude": "27.29357000",
      "timezone": "Europe/Istanbul",
      "wikiDataId": "Q1207056",
      "country_code": "TR",
      "state_code": "09",
      "state_id": 2187,
      "country_id": 225
    },
    {
      "id": 107553,
      "name": "埃费勒",
      "name_default": "Efeler",
      "native": "Efeler",
      "type": "adm1",
      "level": null,
      "parent_id": null,
      "population": 300225,
      "latitude": "37.83835000",
      "longitude": "27.84557000",
      "timezone": "Europe/Istanbul",
      "wikiDataId": "Q16836589",
      "country_code": "TR",
      "state_code": "09",
      "state_id": 2187,
      "country_id": 225
    },
    {
      "id": 107668,
      "name": "格尔门奇克",
      "name_default": "Germencik",
      "native": "Germencik",
      "type": "adm2",
      "level": null,
      "parent_id": null,
      "population": 11217,
      "latitude": "37.87056000",
      "longitude": "27.60283000",
      "timezone": "Europe/Istanbul",
      "wikiDataId": "Q963493",
      "country_code": "TR",
      "state_code": "09",
      "state_id": 2187,
      "country_id": 225
    },
    {
      "id": 108897,
      "name": "因吉尔利奥娃",
      "name_default": "İncirliova",
      "native": "İncirliova",
      "type": "adm2",
      "level": null,
      "parent_id": null,
      "population": 18572,
      "latitude": "37.85222000",
      "longitude": "27.72361000",
      "timezone": "Europe/Istanbul",
      "wikiDataId": "Q2673990",
      "country_code": "TR",
      "state_code": "09",
      "state_id": 2187,
      "country_id": 225
    },
    {
      "id": 107893,
      "name": "卡拉卡苏",
      "name_default": "Karacasu",
      "native": "Karacasu",
      "type": "adm2",
      "level": null,
      "parent_id": null,
      "population": 18706,
      "latitude": "37.74731000",
      "longitude": "28.59402000",
      "timezone": "Europe/Istanbul",
      "wikiDataId": "Q189697",
      "country_code": "TR",
      "state_code": "09",
      "state_id": 2187,
      "country_id": 225
    },
    {
      "id": 107929,
      "name": "卡尔普兹卢",
      "name_default": "Karpuzlu",
      "native": "Karpuzlu",
      "type": "adm2",
      "level": null,
      "parent_id": null,
      "population": 2166,
      "latitude": "37.55861000",
      "longitude": "27.83528000",
      "timezone": "Europe/Istanbul",
      "wikiDataId": "Q1023304",
      "country_code": "TR",
      "state_code": "09",
      "state_id": 2187,
      "country_id": 225
    },
    {
      "id": 108036,
      "name": "科恰尔勒",
      "name_default": "Koçarlı",
      "native": "Koçarlı",
      "type": "adm2",
      "level": null,
      "parent_id": null,
      "population": 8594,
      "latitude": "37.76113000",
      "longitude": "27.70583000",
      "timezone": "Europe/Istanbul",
      "wikiDataId": "Q477171",
      "country_code": "TR",
      "state_code": "09",
      "state_id": 2187,
      "country_id": 225
    },
    {
      "id": 108084,
      "name": "柯什克",
      "name_default": "Köşk",
      "native": "Köşk",
      "type": "adm2",
      "level": null,
      "parent_id": null,
      "population": 9676,
      "latitude": "37.85333000",
      "longitude": "28.05167000",
      "timezone": "Europe/Istanbul",
      "wikiDataId": "Q993688",
      "country_code": "TR",
      "state_code": "09",
      "state_id": 2187,
      "country_id": 225
    },
    {
      "id": 108067,
      "name": "库萨达斯",
      "name_default": "Kuşadası",
      "native": "Kuşadası",
      "type": "adm2",
      "level": null,
      "parent_id": null,
      "population": 63177,
      "latitude": "37.86014000",
      "longitude": "27.25713000",
      "timezone": "Europe/Istanbul",
      "wikiDataId": "Q211952",
      "country_code": "TR",
      "state_code": "09",
      "state_id": 2187,
      "country_id": 225
    },
    {
      "id": 108063,
      "name": "库尤恰克",
      "name_default": "Kuyucak",
      "native": "Kuyucak",
      "type": "adm2",
      "level": null,
      "parent_id": null,
      "population": 7017,
      "latitude": "37.91330000",
      "longitude": "28.45917000",
      "timezone": "Europe/Istanbul",
      "wikiDataId": "Q1482869",
      "country_code": "TR",
      "state_code": "09",
      "state_id": 2187,
      "country_id": 225
    },
    {
      "id": 108243,
      "name": "纳齐利",
      "name_default": "Nazilli",
      "native": "Nazilli",
      "type": "city",
      "level": null,
      "parent_id": null,
      "population": 162041,
      "latitude": "37.93570000",
      "longitude": "28.30609000",
      "timezone": "Europe/Istanbul",
      "wikiDataId": "Q2252014",
      "country_code": "TR",
      "state_code": "09",
      "state_id": 2187,
      "country_id": 225
    },
    {
      "id": 108515,
      "name": "索克",
      "name_default": "Söke",
      "native": "Söke",
      "type": "adm2",
      "level": null,
      "parent_id": null,
      "population": 68230,
      "latitude": "37.74820000",
      "longitude": "27.40614000",
      "timezone": "Europe/Istanbul",
      "wikiDataId": "Q1004566",
      "country_code": "TR",
      "state_code": "09",
      "state_id": 2187,
      "country_id": 225
    },
    {
      "id": 108497,
      "name": "苏丹希萨尔",
      "name_default": "Sultanhisar",
      "native": "Sultanhisar",
      "type": "adm2",
      "level": null,
      "parent_id": null,
      "population": 6259,
      "latitude": "37.88989000",
      "longitude": "28.15436000",
      "timezone": "Europe/Istanbul",
      "wikiDataId": "Q657912",
      "country_code": "TR",
      "state_code": "09",
      "state_id": 2187,
      "country_id": 225
    },
    {
      "id": 108704,
      "name": "耶尼帕扎尔",
      "name_default": "Yenipazar",
      "native": "Yenipazar",
      "type": "adm2",
      "level": null,
      "parent_id": null,
      "population": 6513,
      "latitude": "37.82332000",
      "longitude": "28.19573000",
      "timezone": "Europe/Istanbul",
      "wikiDataId": "Q1865363",
      "country_code": "TR",
      "state_code": "09",
      "state_id": 2187,
      "country_id": 225
    }
  ]
}
