{
  "locale": "fr",
  "country": {
    "id": 177,
    "code": "PT",
    "iso3": "PRT",
    "numeric_code": "620",
    "name": "Portugal",
    "name_default": "Portugal",
    "native": "Portugal",
    "capital": "Lisbon",
    "phonecode": "351",
    "currency": "EUR",
    "currency_name": "Euro",
    "currency_symbol": "€",
    "tld": ".pt",
    "population": 10749635,
    "gdp": 321440,
    "region": "Europe",
    "region_id": 4,
    "subregion": "Southern Europe",
    "subregion_id": 16,
    "nationality": "Portuguese",
    "timezones": [
      {
        "zoneName": "Atlantic/Azores",
        "gmtOffset": -3600,
        "gmtOffsetName": "UTC-01:00",
        "abbreviation": "AZOT",
        "tzName": "Azores Standard Time"
      },
      {
        "zoneName": "Atlantic/Madeira",
        "gmtOffset": 0,
        "gmtOffsetName": "UTC±00",
        "abbreviation": "WET",
        "tzName": "Western European Time"
      },
      {
        "zoneName": "Europe/Lisbon",
        "gmtOffset": 0,
        "gmtOffsetName": "UTC±00",
        "abbreviation": "WET",
        "tzName": "Western European Time"
      }
    ],
    "latitude": "39.50000000",
    "longitude": "-8.00000000",
    "emoji": "🇵🇹",
    "emojiU": "U+1F1F5 U+1F1F9"
  },
  "state": {
    "id": 2244,
    "code": "03",
    "iso2": "03",
    "iso3166_2": "PT-03",
    "fips_code": "04",
    "name": "Braga",
    "name_default": "Braga",
    "native": "Braga",
    "type": "district",
    "level": "2",
    "parent_id": null,
    "population": 193324,
    "latitude": "41.55038800",
    "longitude": "-8.42613010",
    "timezone": "Europe/Lisbon",
    "wikiDataId": "Q326203",
    "country_code": "PT"
  },
  "cities": [
    {
      "id": 88909,
      "name": "Adaúfe",
      "name_default": "Adaúfe",
      "native": "Aduairfe",
      "type": "city",
      "level": null,
      "parent_id": null,
      "population": 3850,
      "latitude": "41.58732000",
      "longitude": "-8.39817000",
      "timezone": "Europe/Lisbon",
      "wikiDataId": "Q49343987",
      "country_code": "PT",
      "state_code": "03",
      "state_id": 2244,
      "country_id": 177
    },
    {
      "id": 88962,
      "name": "Amares",
      "name_default": "Amares",
      "native": "Amares",
      "type": "adm2",
      "level": null,
      "parent_id": null,
      "population": 18889,
      "latitude": "41.64718000",
      "longitude": "-8.35558000",
      "timezone": "Europe/Lisbon",
      "wikiDataId": "Q455012",
      "country_code": "PT",
      "state_code": "03",
      "state_id": 2244,
      "country_id": 177
    },
    {
      "id": 88974,
      "name": "Pouilles",
      "name_default": "Apúlia",
      "native": "Apúlia",
      "type": "city",
      "level": null,
      "parent_id": null,
      "population": 4394,
      "latitude": "41.48512000",
      "longitude": "-8.76413000",
      "timezone": "Europe/Lisbon",
      "wikiDataId": "Q622686",
      "country_code": "PT",
      "state_code": "03",
      "state_id": 2244,
      "country_id": 177
    },
    {
      "id": 88975,
      "name": "Apúlia e Fão",
      "name_default": "Apúlia e Fão",
      "native": "Apúlia e Fão",
      "type": "city",
      "level": null,
      "parent_id": null,
      "population": 7301,
      "latitude": "41.51194000",
      "longitude": "-8.77288000",
      "timezone": "Europe/Lisbon",
      "wikiDataId": "Q622686",
      "country_code": "PT",
      "state_code": "03",
      "state_id": 2244,
      "country_id": 177
    },
    {
      "id": 88979,
      "name": "Arcos",
      "name_default": "Arcos",
      "native": "Arcos",
      "type": "city",
      "level": null,
      "parent_id": null,
      "population": 6805,
      "latitude": "41.52185000",
      "longitude": "-8.42151000",
      "timezone": "Europe/Lisbon",
      "wikiDataId": "Q241974",
      "country_code": "PT",
      "state_code": "03",
      "state_id": 2244,
      "country_id": 177
    },
    {
      "id": 88997,
      "name": "Arões",
      "name_default": "Arões",
      "native": "Arões",
      "type": "city",
      "level": null,
      "parent_id": null,
      "population": 4855,
      "latitude": "41.45553000",
      "longitude": "-8.21419000",
      "timezone": "Europe/Lisbon",
      "wikiDataId": "Q49344656",
      "country_code": "PT",
      "state_code": "03",
      "state_id": 2244,
      "country_id": 177
    },
    {
      "id": 89004,
      "name": "Aveleda",
      "name_default": "Aveleda",
      "native": "Aveleda",
      "type": "city",
      "level": null,
      "parent_id": null,
      "population": 6671,
      "latitude": "41.52113000",
      "longitude": "-8.46682000",
      "timezone": "Europe/Lisbon",
      "wikiDataId": "Q3344926",
      "country_code": "PT",
      "state_code": "03",
      "state_id": 2244,
      "country_id": 177
    },
    {
      "id": 89018,
      "name": "Barcelos",
      "name_default": "Barcelos",
      "native": "Barcelos",
      "type": "adm2",
      "level": null,
      "parent_id": null,
      "population": 19085,
      "latitude": "41.53174000",
      "longitude": "-8.61843000",
      "timezone": "Europe/Lisbon",
      "wikiDataId": "Q31910871",
      "country_code": "PT",
      "state_code": "03",
      "state_id": 2244,
      "country_id": 177
    },
    {
      "id": 89019,
      "name": "Barqueiros",
      "name_default": "Barqueiros",
      "native": "Barqueiros",
      "type": "city",
      "level": null,
      "parent_id": null,
      "population": 1916,
      "latitude": "41.49111000",
      "longitude": "-8.73192000",
      "timezone": "Europe/Lisbon",
      "wikiDataId": "Q31910871",
      "country_code": "PT",
      "state_code": "03",
      "state_id": 2244,
      "country_id": 177
    },
    {
      "id": 89046,
      "name": "Braga",
      "name_default": "Braga",
      "native": "Braga",
      "type": "adm1",
      "level": null,
      "parent_id": null,
      "population": 193324,
      "latitude": "41.55032000",
      "longitude": "-8.42005000",
      "timezone": "Europe/Lisbon",
      "wikiDataId": "Q3344946",
      "country_code": "PT",
      "state_code": "03",
      "state_id": 2244,
      "country_id": 177
    },
    {
      "id": 89049,
      "name": "Brito",
      "name_default": "Brito",
      "native": "Brito",
      "type": "city",
      "level": null,
      "parent_id": null,
      "population": 4774,
      "latitude": "41.45821000",
      "longitude": "-8.36103000",
      "timezone": "Europe/Lisbon",
      "wikiDataId": "Q49347217",
      "country_code": "PT",
      "state_code": "03",
      "state_id": 2244,
      "country_id": 177
    },
    {
      "id": 89055,
      "name": "Cabeceiras de Basto",
      "name_default": "Cabeceiras de Basto",
      "native": "Cabeceiras de Basto",
      "type": "adm2",
      "level": null,
      "parent_id": null,
      "population": 16710,
      "latitude": "41.52079000",
      "longitude": "-7.97198000",
      "timezone": "Europe/Lisbon",
      "wikiDataId": "Q551048",
      "country_code": "PT",
      "state_code": "03",
      "state_id": 2244,
      "country_id": 177
    },
    {
      "id": 89064,
      "name": "Caldas das Taipas",
      "name_default": "Caldas das Taipas",
      "native": "Caldas das Taipas",
      "type": "city",
      "level": null,
      "parent_id": null,
      "population": null,
      "latitude": "41.48465000",
      "longitude": "-8.34850000",
      "timezone": "Europe/Lisbon",
      "wikiDataId": "Q49347629",
      "country_code": "PT",
      "state_code": "03",
      "state_id": 2244,
      "country_id": 177
    },
    {
      "id": 89065,
      "name": "Caldas de Vizela",
      "name_default": "Caldas de Vizela",
      "native": "Caldas de Vizela",
      "type": "city",
      "level": null,
      "parent_id": null,
      "population": 10239,
      "latitude": "41.38212000",
      "longitude": "-8.30890000",
      "timezone": "Europe/Lisbon",
      "wikiDataId": "Q34789245",
      "country_code": "PT",
      "state_code": "03",
      "state_id": 2244,
      "country_id": 177
    },
    {
      "id": 89066,
      "name": "Caldelas",
      "name_default": "Caldelas",
      "native": "Caldelas",
      "type": "city",
      "level": null,
      "parent_id": null,
      "population": 6304,
      "latitude": "41.67101000",
      "longitude": "-8.38148000",
      "timezone": "Europe/Lisbon",
      "wikiDataId": "Q34789250",
      "country_code": "PT",
      "state_code": "03",
      "state_id": 2244,
      "country_id": 177
    },
    {
      "id": 89067,
      "name": "Calendrier",
      "name_default": "Calendário",
      "native": "Calendário",
      "type": "city",
      "level": null,
      "parent_id": null,
      "population": 11357,
      "latitude": "41.40361000",
      "longitude": "-8.52967000",
      "timezone": "Europe/Lisbon",
      "wikiDataId": "Q34789263",
      "country_code": "PT",
      "state_code": "03",
      "state_id": 2244,
      "country_id": 177
    },
    {
      "id": 89081,
      "name": "Candoso",
      "name_default": "Candoso",
      "native": "Doce",
      "type": "city",
      "level": null,
      "parent_id": null,
      "population": 3893,
      "latitude": "41.42768000",
      "longitude": "-8.32166000",
      "timezone": "Europe/Lisbon",
      "wikiDataId": "Q34789683",
      "country_code": "PT",
      "state_code": "03",
      "state_id": 2244,
      "country_id": 177
    },
    {
      "id": 89114,
      "name": "Celorico de Basto",
      "name_default": "Celorico de Basto",
      "native": "Celorico de Basto",
      "type": "city",
      "level": null,
      "parent_id": null,
      "population": 20098,
      "latitude": "41.40278000",
      "longitude": "-8.03346000",
      "timezone": "Europe/Lisbon",
      "wikiDataId": "Q551653",
      "country_code": "PT",
      "state_code": "03",
      "state_id": 2244,
      "country_id": 177
    },
    {
      "id": 89120,
      "name": "Chavão",
      "name_default": "Chavão",
      "native": "Chavão",
      "type": "city",
      "level": null,
      "parent_id": null,
      "population": 2364,
      "latitude": "41.45235000",
      "longitude": "-8.60194000",
      "timezone": "Europe/Lisbon",
      "wikiDataId": "Q504580",
      "country_code": "PT",
      "state_code": "03",
      "state_id": 2244,
      "country_id": 177
    },
    {
      "id": 89135,
      "name": "Cristelo",
      "name_default": "Cristelo",
      "native": "Cristelo",
      "type": "city",
      "level": null,
      "parent_id": null,
      "population": 1657,
      "latitude": "41.47964000",
      "longitude": "-8.69785000",
      "timezone": "Europe/Lisbon",
      "wikiDataId": "Q1005138",
      "country_code": "PT",
      "state_code": "03",
      "state_id": 2244,
      "country_id": 177
    },
    {
      "id": 89151,
      "name": "Esporões",
      "name_default": "Esporões",
      "native": "Esporões",
      "type": "city",
      "level": null,
      "parent_id": null,
      "population": 1713,
      "latitude": "41.51006000",
      "longitude": "-8.41729000",
      "timezone": "Europe/Lisbon",
      "wikiDataId": "Q13225053",
      "country_code": "PT",
      "state_code": "03",
      "state_id": 2244,
      "country_id": 177
    },
    {
      "id": 89152,
      "name": "Esposende",
      "name_default": "Esposende",
      "native": "Esposende",
      "type": "adm2",
      "level": null,
      "parent_id": null,
      "population": 34254,
      "latitude": "41.53610000",
      "longitude": "-8.78201000",
      "timezone": "Europe/Lisbon",
      "wikiDataId": "Q49349843",
      "country_code": "PT",
      "state_code": "03",
      "state_id": 2244,
      "country_id": 177
    },
    {
      "id": 89160,
      "name": "Fafe",
      "name_default": "Fafe",
      "native": "Fafe",
      "type": "adm2",
      "level": null,
      "parent_id": null,
      "population": 50633,
      "latitude": "41.46837000",
      "longitude": "-8.15863000",
      "timezone": "Europe/Lisbon",
      "wikiDataId": "Q551080",
      "country_code": "PT",
      "state_code": "03",
      "state_id": 2244,
      "country_id": 177
    },
    {
      "id": 89166,
      "name": "Faria",
      "name_default": "Faria",
      "native": "FARIA",
      "type": "city",
      "level": null,
      "parent_id": null,
      "population": 2066,
      "latitude": "41.48298000",
      "longitude": "-8.67152000",
      "timezone": "Europe/Lisbon",
      "wikiDataId": "Q49350043",
      "country_code": "PT",
      "state_code": "03",
      "state_id": 2244,
      "country_id": 177
    },
    {
      "id": 89179,
      "name": "Ferreiros",
      "name_default": "Ferreiros",
      "native": "Blacksmiths",
      "type": "city",
      "level": null,
      "parent_id": null,
      "population": 7870,
      "latitude": "41.35000000",
      "longitude": "-8.55000000",
      "timezone": "Europe/Lisbon",
      "wikiDataId": "Q49350137",
      "country_code": "PT",
      "state_code": "03",
      "state_id": 2244,
      "country_id": 177
    },
    {
      "id": 89191,
      "name": "Fradelos",
      "name_default": "Fradelos",
      "native": "Derogos",
      "type": "city",
      "level": null,
      "parent_id": null,
      "population": 1580,
      "latitude": "41.36846000",
      "longitude": "-8.59887000",
      "timezone": "Europe/Lisbon",
      "wikiDataId": "Q49350450",
      "country_code": "PT",
      "state_code": "03",
      "state_id": 2244,
      "country_id": 177
    },
    {
      "id": 89196,
      "name": "Frossos",
      "name_default": "Frossos",
      "native": "Frossos",
      "type": "city",
      "level": null,
      "parent_id": null,
      "population": 3726,
      "latitude": "41.56590000",
      "longitude": "-8.45134000",
      "timezone": "Europe/Lisbon",
      "wikiDataId": "Q647467",
      "country_code": "PT",
      "state_code": "03",
      "state_id": 2244,
      "country_id": 177
    },
    {
      "id": 89205,
      "name": "Galegos",
      "name_default": "Galegos",
      "native": "Galian",
      "type": "city",
      "level": null,
      "parent_id": null,
      "population": 5404,
      "latitude": "41.56268000",
      "longitude": "-8.57204000",
      "timezone": "Europe/Lisbon",
      "wikiDataId": "Q49350805",
      "country_code": "PT",
      "state_code": "03",
      "state_id": 2244,
      "country_id": 177
    },
    {
      "id": 89207,
      "name": "Gandra",
      "name_default": "Gandra",
      "native": "Gandra",
      "type": "city",
      "level": null,
      "parent_id": null,
      "population": 1323,
      "latitude": "41.52185000",
      "longitude": "-8.76185000",
      "timezone": "Europe/Lisbon",
      "wikiDataId": "Q1023200",
      "country_code": "PT",
      "state_code": "03",
      "state_id": 2244,
      "country_id": 177
    },
    {
      "id": 89212,
      "name": "Gondizalves",
      "name_default": "Gondizalves",
      "native": "Gondizalves",
      "type": "city",
      "level": null,
      "parent_id": null,
      "population": 9148,
      "latitude": "41.54158000",
      "longitude": "-8.45570000",
      "timezone": "Europe/Lisbon",
      "wikiDataId": "Q1012522",
      "country_code": "PT",
      "state_code": "03",
      "state_id": 2244,
      "country_id": 177
    },
    {
      "id": 89216,
      "name": "Guéral",
      "name_default": "Gueral",
      "native": "Gueral",
      "type": "city",
      "level": null,
      "parent_id": null,
      "population": 2568,
      "latitude": "41.45859000",
      "longitude": "-8.62946000",
      "timezone": "Europe/Lisbon",
      "wikiDataId": "Q986019",
      "country_code": "PT",
      "state_code": "03",
      "state_id": 2244,
      "country_id": 177
    },
    {
      "id": 89219,
      "name": "Guimarães",
      "name_default": "Guimarães",
      "native": "Guimarães",
      "type": "adm2",
      "level": null,
      "parent_id": null,
      "population": 156830,
      "latitude": "41.44384000",
      "longitude": "-8.28918000",
      "timezone": "Europe/Lisbon",
      "wikiDataId": "Q170903",
      "country_code": "PT",
      "state_code": "03",
      "state_id": 2244,
      "country_id": 177
    },
    {
      "id": 89220,
      "name": "Guisande",
      "name_default": "Guisande",
      "native": "Ensopado",
      "type": "city",
      "level": null,
      "parent_id": null,
      "population": 1053,
      "latitude": "41.48264000",
      "longitude": "-8.44564000",
      "timezone": "Europe/Lisbon",
      "wikiDataId": "Q170903",
      "country_code": "PT",
      "state_code": "03",
      "state_id": 2244,
      "country_id": 177
    },
    {
      "id": 89225,
      "name": "Joane",
      "name_default": "Joane",
      "native": "Joane",
      "type": "city",
      "level": null,
      "parent_id": null,
      "population": 7528,
      "latitude": "41.43906000",
      "longitude": "-8.40846000",
      "timezone": "Europe/Lisbon",
      "wikiDataId": "Q1690801",
      "country_code": "PT",
      "state_code": "03",
      "state_id": 2244,
      "country_id": 177
    },
    {
      "id": 89227,
      "name": "Lac",
      "name_default": "Lago",
      "native": "Lago",
      "type": "city",
      "level": null,
      "parent_id": null,
      "population": 1824,
      "latitude": "41.62148000",
      "longitude": "-8.41258000",
      "timezone": "Europe/Lisbon",
      "wikiDataId": "Q49355583",
      "country_code": "PT",
      "state_code": "03",
      "state_id": 2244,
      "country_id": 177
    },
    {
      "id": 89248,
      "name": "Lordelo",
      "name_default": "Lordelo",
      "native": "Lordelo",
      "type": "city",
      "level": null,
      "parent_id": null,
      "population": 4560,
      "latitude": "41.37411000",
      "longitude": "-8.38016000",
      "timezone": "Europe/Lisbon",
      "wikiDataId": "Q994626",
      "country_code": "PT",
      "state_code": "03",
      "state_id": 2244,
      "country_id": 177
    },
    {
      "id": 89264,
      "name": "Macieira de Rates",
      "name_default": "Macieira de Rates",
      "native": "Macieira de Rates",
      "type": "city",
      "level": null,
      "parent_id": null,
      "population": 1907,
      "latitude": "41.44092000",
      "longitude": "-8.63426000",
      "timezone": "Europe/Lisbon",
      "wikiDataId": "Q35722148",
      "country_code": "PT",
      "state_code": "03",
      "state_id": 2244,
      "country_id": 177
    },
    {
      "id": 89279,
      "name": "Marinhas",
      "name_default": "Marinhas",
      "native": "Marinhas",
      "type": "city",
      "level": null,
      "parent_id": null,
      "population": 6052,
      "latitude": "41.55906000",
      "longitude": "-8.78297000",
      "timezone": "Europe/Lisbon",
      "wikiDataId": "Q35724951",
      "country_code": "PT",
      "state_code": "03",
      "state_id": 2244,
      "country_id": 177
    },
    {
      "id": 89280,
      "name": "Mariz",
      "name_default": "Mariz",
      "native": "Mariz",
      "type": "city",
      "level": null,
      "parent_id": null,
      "population": 1208,
      "latitude": "41.52823000",
      "longitude": "-8.67081000",
      "timezone": "Europe/Lisbon",
      "wikiDataId": "Q35724951",
      "country_code": "PT",
      "state_code": "03",
      "state_id": 2244,
      "country_id": 177
    },
    {
      "id": 89293,
      "name": "Merelim",
      "name_default": "Merelim",
      "native": "Merelim",
      "type": "city",
      "level": null,
      "parent_id": null,
      "population": 5363,
      "latitude": "41.58568000",
      "longitude": "-8.46555000",
      "timezone": "Europe/Lisbon",
      "wikiDataId": "Q1432562",
      "country_code": "PT",
      "state_code": "03",
      "state_id": 2244,
      "country_id": 177
    },
    {
      "id": 89330,
      "name": "Moreira de Conegos",
      "name_default": "Moreira de Conegos",
      "native": "Moreira de Conego",
      "type": "city",
      "level": null,
      "parent_id": null,
      "population": 5828,
      "latitude": "41.38680000",
      "longitude": "-8.33940000",
      "timezone": "Europe/Lisbon",
      "wikiDataId": "Q1947515",
      "country_code": "PT",
      "state_code": "03",
      "state_id": 2244,
      "country_id": 177
    },
    {
      "id": 89343,
      "name": "Negreiros",
      "name_default": "Negreiros",
      "native": "Negreiros",
      "type": "city",
      "level": null,
      "parent_id": null,
      "population": 2364,
      "latitude": "41.43552000",
      "longitude": "-8.61398000",
      "timezone": "Europe/Lisbon",
      "wikiDataId": "Q497179",
      "country_code": "PT",
      "state_code": "03",
      "state_id": 2244,
      "country_id": 177
    },
    {
      "id": 89362,
      "name": "Oliveira",
      "name_default": "Oliveira",
      "native": "Oliveira",
      "type": "city",
      "level": null,
      "parent_id": null,
      "population": 6222,
      "latitude": "41.47819000",
      "longitude": "-8.46965000",
      "timezone": "Europe/Lisbon",
      "wikiDataId": "Q49358935",
      "country_code": "PT",
      "state_code": "03",
      "state_id": 2244,
      "country_id": 177
    },
    {
      "id": 89402,
      "name": "Perelhal",
      "name_default": "Perelhal",
      "native": "Perelhal",
      "type": "city",
      "level": null,
      "parent_id": null,
      "population": 1700,
      "latitude": "41.53075000",
      "longitude": "-8.68982000",
      "timezone": "Europe/Lisbon",
      "wikiDataId": "Q40234338",
      "country_code": "PT",
      "state_code": "03",
      "state_id": 2244,
      "country_id": 177
    },
    {
      "id": 89415,
      "name": "Pont",
      "name_default": "Ponte",
      "native": "Ponte",
      "type": "city",
      "level": null,
      "parent_id": null,
      "population": 7041,
      "latitude": "41.47057000",
      "longitude": "-8.32990000",
      "timezone": "Europe/Lisbon",
      "wikiDataId": "Q49361870",
      "country_code": "PT",
      "state_code": "03",
      "state_id": 2244,
      "country_id": 177
    },
    {
      "id": 89442,
      "name": "Póvoa de Lanhoso",
      "name_default": "Póvoa de Lanhoso",
      "native": "Póvoa de Lanhoso",
      "type": "city",
      "level": null,
      "parent_id": null,
      "population": 5008,
      "latitude": "41.57599000",
      "longitude": "-8.27008000",
      "timezone": "Europe/Lisbon",
      "wikiDataId": "Q49362874",
      "country_code": "PT",
      "state_code": "03",
      "state_id": 2244,
      "country_id": 177
    },
    {
      "id": 89435,
      "name": "Prado",
      "name_default": "Prado",
      "native": "Prado",
      "type": "city",
      "level": null,
      "parent_id": null,
      "population": 4518,
      "latitude": "41.60246000",
      "longitude": "-8.46297000",
      "timezone": "Europe/Lisbon",
      "wikiDataId": "Q49362263",
      "country_code": "PT",
      "state_code": "03",
      "state_id": 2244,
      "country_id": 177
    },
    {
      "id": 89453,
      "name": "Réel",
      "name_default": "Real",
      "native": "Real",
      "type": "city",
      "level": null,
      "parent_id": null,
      "population": 11700,
      "latitude": "41.55841000",
      "longitude": "-8.44330000",
      "timezone": "Europe/Lisbon",
      "wikiDataId": "Q49363374",
      "country_code": "PT",
      "state_code": "03",
      "state_id": 2244,
      "country_id": 177
    },
    {
      "id": 89458,
      "name": "Refojos de Basto",
      "name_default": "Refojos de Basto",
      "native": "Refóios de Basting",
      "type": "city",
      "level": null,
      "parent_id": null,
      "population": 5037,
      "latitude": "41.51318000",
      "longitude": "-7.99517000",
      "timezone": "Europe/Lisbon",
      "wikiDataId": "Q49363569",
      "country_code": "PT",
      "state_code": "03",
      "state_id": 2244,
      "country_id": 177
    },
    {
      "id": 89461,
      "name": "Rendufe",
      "name_default": "Rendufe",
      "native": "Rendufe",
      "type": "city",
      "level": null,
      "parent_id": null,
      "population": 1126,
      "latitude": "41.62898000",
      "longitude": "-8.40858000",
      "timezone": "Europe/Lisbon",
      "wikiDataId": "Q1997694",
      "country_code": "PT",
      "state_code": "03",
      "state_id": 2244,
      "country_id": 177
    },
    {
      "id": 89464,
      "name": "Riba de Ave",
      "name_default": "Riba de Ave",
      "native": "Ave Riba",
      "type": "city",
      "level": null,
      "parent_id": null,
      "population": 3425,
      "latitude": "41.39648000",
      "longitude": "-8.38685000",
      "timezone": "Europe/Lisbon",
      "wikiDataId": "Q2023873",
      "country_code": "PT",
      "state_code": "03",
      "state_id": 2244,
      "country_id": 177
    },
    {
      "id": 89470,
      "name": "Ribeirão",
      "name_default": "Ribeirão",
      "native": "Ribeirão",
      "type": "city",
      "level": null,
      "parent_id": null,
      "population": 9061,
      "latitude": "41.36081000",
      "longitude": "-8.56774000",
      "timezone": "Europe/Lisbon",
      "wikiDataId": "Q49363713",
      "country_code": "PT",
      "state_code": "03",
      "state_id": 2244,
      "country_id": 177
    },
    {
      "id": 89477,
      "name": "Ronfe",
      "name_default": "Ronfe",
      "native": "Ronfe",
      "type": "city",
      "level": null,
      "parent_id": null,
      "population": 4496,
      "latitude": "41.44146000",
      "longitude": "-8.38412000",
      "timezone": "Europe/Lisbon",
      "wikiDataId": "Q49364106",
      "country_code": "PT",
      "state_code": "03",
      "state_id": 2244,
      "country_id": 177
    },
    {
      "id": 89490,
      "name": "Sande",
      "name_default": "Sande",
      "native": "Sande",
      "type": "city",
      "level": null,
      "parent_id": null,
      "population": 7789,
      "latitude": "41.70190000",
      "longitude": "-8.39246000",
      "timezone": "Europe/Lisbon",
      "wikiDataId": "Q49366935",
      "country_code": "PT",
      "state_code": "03",
      "state_id": 2244,
      "country_id": 177
    },
    {
      "id": 89524,
      "name": "Selho",
      "name_default": "Selho",
      "native": "Selho",
      "type": "city",
      "level": null,
      "parent_id": null,
      "population": 10223,
      "latitude": "41.41938000",
      "longitude": "-8.34599000",
      "timezone": "Europe/Lisbon",
      "wikiDataId": "Q49367336",
      "country_code": "PT",
      "state_code": "03",
      "state_id": 2244,
      "country_id": 177
    },
    {
      "id": 89525,
      "name": "Semelhe",
      "name_default": "Semelhe",
      "native": "Semelhe",
      "type": "city",
      "level": null,
      "parent_id": null,
      "population": 11700,
      "latitude": "41.55437000",
      "longitude": "-8.46281000",
      "timezone": "Europe/Lisbon",
      "wikiDataId": "Q49367336",
      "country_code": "PT",
      "state_code": "03",
      "state_id": 2244,
      "country_id": 177
    },
    {
      "id": 89536,
      "name": "Serzedelo",
      "name_default": "Serzedelo",
      "native": "Serzedelo",
      "type": "city",
      "level": null,
      "parent_id": null,
      "population": 4020,
      "latitude": "41.40128000",
      "longitude": "-8.36888000",
      "timezone": "Europe/Lisbon",
      "wikiDataId": "Q49367430",
      "country_code": "PT",
      "state_code": "03",
      "state_id": 2244,
      "country_id": 177
    },
    {
      "id": 89537,
      "name": "Serzedo",
      "name_default": "Serzedo",
      "native": "Queijo",
      "type": "city",
      "level": null,
      "parent_id": null,
      "population": 8000,
      "latitude": "41.40502000",
      "longitude": "-8.22926000",
      "timezone": "Europe/Lisbon",
      "wikiDataId": "Q49367433",
      "country_code": "PT",
      "state_code": "03",
      "state_id": 2244,
      "country_id": 177
    },
    {
      "id": 89598,
      "name": "Tebosa",
      "name_default": "Tebosa",
      "native": "Tebosa",
      "type": "city",
      "level": null,
      "parent_id": null,
      "population": 1096,
      "latitude": "41.48253000",
      "longitude": "-8.48399000",
      "timezone": "Europe/Lisbon",
      "wikiDataId": "Q372840",
      "country_code": "PT",
      "state_code": "03",
      "state_id": 2244,
      "country_id": 177
    },
    {
      "id": 89601,
      "name": "Terras de Bouro",
      "name_default": "Terras de Bouro",
      "native": "Terras de Bouro",
      "type": "adm2",
      "level": null,
      "parent_id": null,
      "population": 7253,
      "latitude": "41.73914000",
      "longitude": "-8.19109000",
      "timezone": "Europe/Lisbon",
      "wikiDataId": "Q551639",
      "country_code": "PT",
      "state_code": "03",
      "state_id": 2244,
      "country_id": 177
    },
    {
      "id": 89618,
      "name": "Urgence",
      "name_default": "Urgeses",
      "native": "Desejos",
      "type": "city",
      "level": null,
      "parent_id": null,
      "population": 5457,
      "latitude": "41.42720000",
      "longitude": "-8.29796000",
      "timezone": "Europe/Lisbon",
      "wikiDataId": "Q33510757",
      "country_code": "PT",
      "state_code": "03",
      "state_id": 2244,
      "country_id": 177
    },
    {
      "id": 89689,
      "name": "Varzea",
      "name_default": "Várzea",
      "native": "Várzea",
      "type": "city",
      "level": null,
      "parent_id": null,
      "population": 1934,
      "latitude": "41.51512000",
      "longitude": "-8.58400000",
      "timezone": "Europe/Lisbon",
      "wikiDataId": "Q33512640",
      "country_code": "PT",
      "state_code": "03",
      "state_id": 2244,
      "country_id": 177
    },
    {
      "id": 89644,
      "name": "Vieira do Minho",
      "name_default": "Vieira do Minho",
      "native": "Vieira do Minho",
      "type": "adm2",
      "level": null,
      "parent_id": null,
      "population": 2372,
      "latitude": "41.63557000",
      "longitude": "-8.13244000",
      "timezone": "Europe/Lisbon",
      "wikiDataId": "Q551109",
      "country_code": "PT",
      "state_code": "03",
      "state_id": 2244,
      "country_id": 177
    },
    {
      "id": 89647,
      "name": "Vila Cova",
      "name_default": "Vila Cova",
      "native": "Vila Cova",
      "type": "city",
      "level": null,
      "parent_id": null,
      "population": 2564,
      "latitude": "41.55107000",
      "longitude": "-8.71645000",
      "timezone": "Europe/Lisbon",
      "wikiDataId": "Q33511815",
      "country_code": "PT",
      "state_code": "03",
      "state_id": 2244,
      "country_id": 177
    },
    {
      "id": 89651,
      "name": "Vila Frescainha",
      "name_default": "Vila Frescainha",
      "native": "Vila Frescainha",
      "type": "city",
      "level": null,
      "parent_id": null,
      "population": 4018,
      "latitude": "41.53846000",
      "longitude": "-8.63971000",
      "timezone": "Europe/Lisbon",
      "wikiDataId": "Q33511837",
      "country_code": "PT",
      "state_code": "03",
      "state_id": 2244,
      "country_id": 177
    },
    {
      "id": 89656,
      "name": "Vila Nova de Famalicão",
      "name_default": "Vila Nova de Famalicão",
      "native": "Vila Nova de Famalicão",
      "type": "adm2",
      "level": null,
      "parent_id": null,
      "population": 9496,
      "latitude": "41.40797000",
      "longitude": "-8.51978000",
      "timezone": "Europe/Lisbon",
      "wikiDataId": "Q551658",
      "country_code": "PT",
      "state_code": "03",
      "state_id": 2244,
      "country_id": 177
    },
    {
      "id": 89665,
      "name": "Vila Seca",
      "name_default": "Vila Seca",
      "native": "Vila Seca",
      "type": "city",
      "level": null,
      "parent_id": null,
      "population": 1064,
      "latitude": "41.50031000",
      "longitude": "-8.68525000",
      "timezone": "Europe/Lisbon",
      "wikiDataId": "Q750578",
      "country_code": "PT",
      "state_code": "03",
      "state_id": 2244,
      "country_id": 177
    },
    {
      "id": 89668,
      "name": "Vila Verde",
      "name_default": "Vila Verde",
      "native": "Vila Verde",
      "type": "adm2",
      "level": null,
      "parent_id": null,
      "population": 4389,
      "latitude": "41.64869000",
      "longitude": "-8.43628000",
      "timezone": "Europe/Lisbon",
      "wikiDataId": "Q551676",
      "country_code": "PT",
      "state_code": "03",
      "state_id": 2244,
      "country_id": 177
    },
    {
      "id": 89679,
      "name": "Vilaça",
      "name_default": "Vilaça",
      "native": "Vilaça",
      "type": "city",
      "level": null,
      "parent_id": null,
      "population": 1580,
      "latitude": "41.51787000",
      "longitude": "-8.48357000",
      "timezone": "Europe/Lisbon",
      "wikiDataId": "Q1147364",
      "country_code": "PT",
      "state_code": "03",
      "state_id": 2244,
      "country_id": 177
    },
    {
      "id": 89676,
      "name": "Vilar de Figos",
      "name_default": "Vilar de Figos",
      "native": "Vilar de Figos",
      "type": "city",
      "level": null,
      "parent_id": null,
      "population": 2066,
      "latitude": "41.47555000",
      "longitude": "-8.65382000",
      "timezone": "Europe/Lisbon",
      "wikiDataId": "Q33511867",
      "country_code": "PT",
      "state_code": "03",
      "state_id": 2244,
      "country_id": 177
    },
    {
      "id": 89686,
      "name": "Vizela",
      "name_default": "Vizela",
      "native": "Vizela",
      "type": "adm2",
      "level": null,
      "parent_id": null,
      "population": 23736,
      "latitude": "41.37529000",
      "longitude": "-8.29310000",
      "timezone": "Europe/Lisbon",
      "wikiDataId": "Q551955",
      "country_code": "PT",
      "state_code": "03",
      "state_id": 2244,
      "country_id": 177
    }
  ]
}
