{
  "locale": "zh-CN",
  "country": {
    "id": 101,
    "code": "IN",
    "iso3": "IND",
    "numeric_code": "356",
    "name": "印度",
    "name_default": "India",
    "native": "भारत",
    "capital": "New Delhi",
    "phonecode": "91",
    "currency": "INR",
    "currency_name": "Indian rupee",
    "currency_symbol": "₹",
    "tld": ".in",
    "population": 1417492000,
    "gdp": 4187017,
    "region": "Asia",
    "region_id": 3,
    "subregion": "Southern Asia",
    "subregion_id": 14,
    "nationality": "Indian",
    "timezones": [
      {
        "zoneName": "Asia/Kolkata",
        "gmtOffset": 19800,
        "gmtOffsetName": "UTC+05:30",
        "abbreviation": "IST",
        "tzName": "Indian Standard Time"
      }
    ],
    "latitude": "20.00000000",
    "longitude": "77.00000000",
    "emoji": "🇮🇳",
    "emojiU": "U+1F1EE U+1F1F3"
  },
  "state": {
    "id": 4012,
    "code": "TG",
    "iso2": "TG",
    "iso3166_2": "IN-TG",
    "fips_code": "40",
    "name": "特伦甘纳邦",
    "name_default": "Telangana",
    "native": "तेलंगाना",
    "type": "state",
    "level": null,
    "parent_id": null,
    "population": 38499000,
    "latitude": "17.84959190",
    "longitude": "79.11516630",
    "timezone": "Asia/Kolkata",
    "wikiDataId": "Q677037",
    "country_code": "IN"
  },
  "cities": [
    {
      "id": 134451,
      "name": "阿迪拉巴德",
      "name_default": "Adilabad",
      "native": "आदिलाबाद",
      "type": "city",
      "level": null,
      "parent_id": null,
      "population": 117167,
      "latitude": "19.50000000",
      "longitude": "78.50000000",
      "timezone": "Asia/Kolkata",
      "wikiDataId": "Q15211",
      "country_code": "IN",
      "state_code": "TG",
      "state_id": 4012,
      "country_id": 101
    },
    {
      "id": 134454,
      "name": "阿拉姆普尔",
      "name_default": "Alampur",
      "native": "आलमपुर",
      "type": "city",
      "level": null,
      "parent_id": null,
      "population": 14060,
      "latitude": "15.87987000",
      "longitude": "78.13352000",
      "timezone": "Asia/Kolkata",
      "wikiDataId": "Q606343",
      "country_code": "IN",
      "state_code": "TG",
      "state_id": 4012,
      "country_id": 101
    },
    {
      "id": 57701,
      "name": "安多尔",
      "name_default": "Andol",
      "native": "एंडोल",
      "type": "city",
      "level": null,
      "parent_id": null,
      "population": 24645,
      "latitude": "17.81458000",
      "longitude": "78.07713000",
      "timezone": "Asia/Kolkata",
      "wikiDataId": "Q11360899",
      "country_code": "IN",
      "state_code": "TG",
      "state_id": 4012,
      "country_id": 101
    },
    {
      "id": 57754,
      "name": "阿西法巴德",
      "name_default": "Asifabad",
      "native": "आसिफाबाद",
      "type": "adm2",
      "level": null,
      "parent_id": null,
      "population": 23059,
      "latitude": "19.35851000",
      "longitude": "79.28415000",
      "timezone": "Asia/Kolkata",
      "wikiDataId": "Q582291",
      "country_code": "IN",
      "state_code": "TG",
      "state_id": 4012,
      "country_id": 101
    },
    {
      "id": 58120,
      "name": "巴拉普尔",
      "name_default": "Balapur",
      "native": "बालापुर",
      "type": "city",
      "level": null,
      "parent_id": null,
      "population": 8280,
      "latitude": "17.31018000",
      "longitude": "78.49969000",
      "timezone": "Asia/Kolkata",
      "wikiDataId": "Q641904",
      "country_code": "IN",
      "state_code": "TG",
      "state_id": 4012,
      "country_id": 101
    },
    {
      "id": 58133,
      "name": "班斯瓦达",
      "name_default": "Banswada",
      "native": "बांसवाड़ा",
      "type": "city",
      "level": null,
      "parent_id": null,
      "population": 28384,
      "latitude": "18.37725000",
      "longitude": "77.88007000",
      "timezone": "Asia/Kolkata",
      "wikiDataId": "Q3428196",
      "country_code": "IN",
      "state_code": "TG",
      "state_id": 4012,
      "country_id": 101
    },
    {
      "id": 57923,
      "name": "贝兰帕利",
      "name_default": "Bellampalli",
      "native": "बेल्लमपल्ली",
      "type": "city",
      "level": null,
      "parent_id": null,
      "population": 55841,
      "latitude": "19.05577000",
      "longitude": "79.49300000",
      "timezone": "Asia/Kolkata",
      "wikiDataId": "Q759677",
      "country_code": "IN",
      "state_code": "TG",
      "state_id": 4012,
      "country_id": 101
    },
    {
      "id": 57955,
      "name": "巴德拉恰拉姆",
      "name_default": "Bhadrachalam",
      "native": "भद्राचलम",
      "type": "city",
      "level": null,
      "parent_id": null,
      "population": 50087,
      "latitude": "17.66846000",
      "longitude": "80.88887000",
      "timezone": "Asia/Kolkata",
      "wikiDataId": "Q759204",
      "country_code": "IN",
      "state_code": "TG",
      "state_id": 4012,
      "country_id": 101
    },
    {
      "id": 57952,
      "name": "巴德拉德里·科塔古德姆",
      "name_default": "Bhadradri Kothagudem",
      "native": "भद्राद्री कोठागुडेम",
      "type": "adm2",
      "level": null,
      "parent_id": null,
      "population": 79819,
      "latitude": "17.55460000",
      "longitude": "80.61976000",
      "timezone": "Asia/Kolkata",
      "wikiDataId": "Q759217",
      "country_code": "IN",
      "state_code": "TG",
      "state_id": 4012,
      "country_id": 101
    },
    {
      "id": 57960,
      "name": "巴伊萨",
      "name_default": "Bhaisa",
      "native": "भैसा",
      "type": "city",
      "level": null,
      "parent_id": null,
      "population": 49764,
      "latitude": "19.11285000",
      "longitude": "77.96336000",
      "timezone": "Asia/Kolkata",
      "wikiDataId": "Q759999",
      "country_code": "IN",
      "state_code": "TG",
      "state_id": 4012,
      "country_id": 101
    },
    {
      "id": 57994,
      "name": "邦吉尔",
      "name_default": "Bhongir",
      "native": "भोंगीर",
      "type": "adm2",
      "level": null,
      "parent_id": null,
      "population": 53339,
      "latitude": "17.51544000",
      "longitude": "78.88563000",
      "timezone": "Asia/Kolkata",
      "wikiDataId": "Q797132",
      "country_code": "IN",
      "state_code": "TG",
      "state_id": 4012,
      "country_id": 101
    },
    {
      "id": 58071,
      "name": "博丹",
      "name_default": "Bodhan",
      "native": "बोधन",
      "type": "city",
      "level": null,
      "parent_id": null,
      "population": 77573,
      "latitude": "18.66208000",
      "longitude": "77.88581000",
      "timezone": "Asia/Kolkata",
      "wikiDataId": "Q859167",
      "country_code": "IN",
      "state_code": "TG",
      "state_id": 4012,
      "country_id": 101
    },
    {
      "id": 58194,
      "name": "钱杜尔",
      "name_default": "Chandur",
      "native": "चंदूर",
      "type": "city",
      "level": null,
      "parent_id": null,
      "population": 11220,
      "latitude": "17.87455000",
      "longitude": "78.10017000",
      "timezone": "Asia/Kolkata",
      "wikiDataId": "Q721388",
      "country_code": "IN",
      "state_code": "TG",
      "state_id": 4012,
      "country_id": 101
    },
    {
      "id": 131607,
      "name": "查塔孔达",
      "name_default": "Chatakonda",
      "native": "चटाकोंडा",
      "type": "city",
      "level": null,
      "parent_id": null,
      "population": 2701,
      "latitude": "17.55303000",
      "longitude": "80.64770000",
      "timezone": "Asia/Kolkata",
      "wikiDataId": "Q721302",
      "country_code": "IN",
      "state_code": "TG",
      "state_id": 4012,
      "country_id": 101
    },
    {
      "id": 131660,
      "name": "达斯纳普尔",
      "name_default": "Dasnapur",
      "native": "दसनापुर",
      "type": "city",
      "level": null,
      "parent_id": null,
      "population": 22216,
      "latitude": "19.65399000",
      "longitude": "78.51213000",
      "timezone": "Asia/Kolkata",
      "wikiDataId": "Q1193652",
      "country_code": "IN",
      "state_code": "TG",
      "state_id": 4012,
      "country_id": 101
    },
    {
      "id": 131703,
      "name": "德瓦孔达",
      "name_default": "Devarkonda",
      "native": "देवाराकोंदा",
      "type": "city",
      "level": null,
      "parent_id": null,
      "population": 29731,
      "latitude": "16.69186000",
      "longitude": "78.92073000",
      "timezone": "Asia/Kolkata",
      "wikiDataId": "Q2087756",
      "country_code": "IN",
      "state_code": "TG",
      "state_id": 4012,
      "country_id": 101
    },
    {
      "id": 131789,
      "name": "多纳卡尔",
      "name_default": "Dornakal",
      "native": "डोर्नकल",
      "type": "city",
      "level": null,
      "parent_id": null,
      "population": 14425,
      "latitude": "17.44475000",
      "longitude": "80.14905000",
      "timezone": "Asia/Kolkata",
      "wikiDataId": "Q1387087",
      "country_code": "IN",
      "state_code": "TG",
      "state_id": 4012,
      "country_id": 101
    },
    {
      "id": 131857,
      "name": "法鲁克纳加尔",
      "name_default": "Farrukhnagar",
      "native": "फर्रुखनगर",
      "type": "city",
      "level": null,
      "parent_id": null,
      "population": 45675,
      "latitude": "17.07787000",
      "longitude": "78.20339000",
      "timezone": "Asia/Kolkata",
      "wikiDataId": "Q1525398",
      "country_code": "IN",
      "state_code": "TG",
      "state_id": 4012,
      "country_id": 101
    },
    {
      "id": 131887,
      "name": "加迪·安纳拉姆",
      "name_default": "Gaddi Annaram",
      "native": "गद्दी अन्नाराम",
      "type": "city",
      "level": null,
      "parent_id": null,
      "population": 53622,
      "latitude": "17.36687000",
      "longitude": "78.52420000",
      "timezone": "Asia/Kolkata",
      "wikiDataId": "Q1523012",
      "country_code": "IN",
      "state_code": "TG",
      "state_id": 4012,
      "country_id": 101
    },
    {
      "id": 131890,
      "name": "加德瓦尔",
      "name_default": "Gadwal",
      "native": "गडवाल",
      "type": "adm2",
      "level": null,
      "parent_id": null,
      "population": 63177,
      "latitude": "16.23504000",
      "longitude": "77.79556000",
      "timezone": "Asia/Kolkata",
      "wikiDataId": "Q1525224",
      "country_code": "IN",
      "state_code": "TG",
      "state_id": 4012,
      "country_id": 101
    },
    {
      "id": 131939,
      "name": "加特克萨尔",
      "name_default": "Ghatkesar",
      "native": "घटकेसर",
      "type": "city",
      "level": null,
      "parent_id": null,
      "population": 19763,
      "latitude": "17.45081000",
      "longitude": "78.68366000",
      "timezone": "Asia/Kolkata",
      "wikiDataId": "Q1706460",
      "country_code": "IN",
      "state_code": "TG",
      "state_id": 4012,
      "country_id": 101
    },
    {
      "id": 131989,
      "name": "戈帕鲁尔",
      "name_default": "Gopalur",
      "native": "गोपालुर",
      "type": "city",
      "level": null,
      "parent_id": null,
      "population": 3324,
      "latitude": "16.61220000",
      "longitude": "77.80728000",
      "timezone": "Asia/Kolkata",
      "wikiDataId": "Q1747725",
      "country_code": "IN",
      "state_code": "TG",
      "state_id": 4012,
      "country_id": 101
    },
    {
      "id": 132052,
      "name": "古杜尔",
      "name_default": "Gudur",
      "native": "गुडूर",
      "type": "city",
      "level": null,
      "parent_id": null,
      "population": 5647,
      "latitude": "17.49174000",
      "longitude": "78.82302000",
      "timezone": "Asia/Kolkata",
      "wikiDataId": "Q1708134",
      "country_code": "IN",
      "state_code": "TG",
      "state_id": 4012,
      "country_id": 101
    },
    {
      "id": 132132,
      "name": "海得拉巴",
      "name_default": "Hyderabad",
      "native": "हैदराबाद",
      "type": "adm1",
      "level": null,
      "parent_id": null,
      "population": 6993262,
      "latitude": "17.38405000",
      "longitude": "78.45636000",
      "timezone": "Asia/Kolkata",
      "wikiDataId": "Q1361",
      "country_code": "IN",
      "state_code": "TG",
      "state_id": 4012,
      "country_id": 101
    },
    {
      "id": 132193,
      "name": "贾格蒂亚尔",
      "name_default": "Jagtial",
      "native": "जगित्याल",
      "type": "adm2",
      "level": null,
      "parent_id": null,
      "population": 103930,
      "latitude": "18.79473000",
      "longitude": "78.91661000",
      "timezone": "Asia/Kolkata",
      "wikiDataId": "Q2016650",
      "country_code": "IN",
      "state_code": "TG",
      "state_id": 4012,
      "country_id": 101
    },
    {
      "id": 132238,
      "name": "詹冈",
      "name_default": "Jangaon",
      "native": "जनगांव",
      "type": "adm2",
      "level": null,
      "parent_id": null,
      "population": 52394,
      "latitude": "17.72602000",
      "longitude": "79.15236000",
      "timezone": "Asia/Kolkata",
      "wikiDataId": "Q2483796",
      "country_code": "IN",
      "state_code": "TG",
      "state_id": 4012,
      "country_id": 101
    },
    {
      "id": 132257,
      "name": "贾亚尚卡尔·布帕拉帕利",
      "name_default": "Jayashankar Bhupalapally",
      "native": "जयशंकर भूपालपल्ली",
      "type": "city",
      "level": null,
      "parent_id": null,
      "population": null,
      "latitude": "18.19678000",
      "longitude": "79.93976000",
      "timezone": "Asia/Kolkata",
      "wikiDataId": "Q2317504",
      "country_code": "IN",
      "state_code": "TG",
      "state_id": 4012,
      "country_id": 101
    },
    {
      "id": 132290,
      "name": "乔古兰巴·加德瓦尔",
      "name_default": "Jogulamba Gadwal",
      "native": "जोगुलम्बा गडवाल",
      "type": "adm2",
      "level": null,
      "parent_id": null,
      "population": null,
      "latitude": "16.23401000",
      "longitude": "77.80564000",
      "timezone": "Asia/Kolkata",
      "wikiDataId": "Q2087722",
      "country_code": "IN",
      "state_code": "TG",
      "state_id": 4012,
      "country_id": 101
    },
    {
      "id": 132331,
      "name": "卡嘎兹纳加尔",
      "name_default": "Kagaznagar",
      "native": "कागजनगर",
      "type": "adm3",
      "level": null,
      "parent_id": null,
      "population": 57583,
      "latitude": "19.33159000",
      "longitude": "79.46605000",
      "timezone": "Asia/Kolkata",
      "wikiDataId": "Q2290801",
      "country_code": "IN",
      "state_code": "TG",
      "state_id": 4012,
      "country_id": 101
    },
    {
      "id": 132696,
      "name": "卡马雷迪",
      "name_default": "Kamareddi",
      "native": "कामारेड्डी",
      "type": "adm2",
      "level": null,
      "parent_id": null,
      "population": 80315,
      "latitude": "18.32001000",
      "longitude": "78.34177000",
      "timezone": "Asia/Kolkata",
      "wikiDataId": "Q2480576",
      "country_code": "IN",
      "state_code": "TG",
      "state_id": 4012,
      "country_id": 101
    },
    {
      "id": 132363,
      "name": "卡马雷迪",
      "name_default": "Kamareddy",
      "native": "कामारेड्डी",
      "type": "adm2",
      "level": null,
      "parent_id": null,
      "population": 80315,
      "latitude": "18.32567000",
      "longitude": "78.33416000",
      "timezone": "Asia/Kolkata",
      "wikiDataId": "Q2564042",
      "country_code": "IN",
      "state_code": "TG",
      "state_id": 4012,
      "country_id": 101
    },
    {
      "id": 132415,
      "name": "卡林讷格尔",
      "name_default": "Karimnagar",
      "native": "करीमनगर",
      "type": "city",
      "level": null,
      "parent_id": null,
      "population": 289821,
      "latitude": "18.33844000",
      "longitude": "79.22938000",
      "timezone": "Asia/Kolkata",
      "wikiDataId": "Q15373",
      "country_code": "IN",
      "state_code": "TG",
      "state_id": 4012,
      "country_id": 101
    },
    {
      "id": 132464,
      "name": "坎曼",
      "name_default": "Khammam",
      "native": "खम्मम",
      "type": "city",
      "level": null,
      "parent_id": null,
      "population": 196283,
      "latitude": "17.50000000",
      "longitude": "80.33333000",
      "timezone": "Asia/Kolkata",
      "wikiDataId": "Q15371",
      "country_code": "IN",
      "state_code": "TG",
      "state_id": 4012,
      "country_id": 101
    },
    {
      "id": 132546,
      "name": "科达尔",
      "name_default": "Kodar",
      "native": "कोडर",
      "type": "city",
      "level": null,
      "parent_id": null,
      "population": 64234,
      "latitude": "16.99850000",
      "longitude": "79.96560000",
      "timezone": "Asia/Kolkata",
      "wikiDataId": "Q1006282",
      "country_code": "IN",
      "state_code": "TG",
      "state_id": 4012,
      "country_id": 101
    },
    {
      "id": 132580,
      "name": "科拉特拉",
      "name_default": "Koratla",
      "native": "कोराटला",
      "type": "city",
      "level": null,
      "parent_id": null,
      "population": 66504,
      "latitude": "18.82154000",
      "longitude": "78.71186000",
      "timezone": "Asia/Kolkata",
      "wikiDataId": "Q2235879",
      "country_code": "IN",
      "state_code": "TG",
      "state_id": 4012,
      "country_id": 101
    },
    {
      "id": 132599,
      "name": "科萨佩特",
      "name_default": "Kothapet",
      "native": "कोठापेट",
      "type": "city",
      "level": null,
      "parent_id": null,
      "population": 4266,
      "latitude": "19.35176000",
      "longitude": "79.48323000",
      "timezone": "Asia/Kolkata",
      "wikiDataId": "Q2233986",
      "country_code": "IN",
      "state_code": "TG",
      "state_id": 4012,
      "country_id": 101
    },
    {
      "id": 132606,
      "name": "科塔古德姆",
      "name_default": "Kottagudem",
      "native": "कोट्टागुडेम",
      "type": "adm2",
      "level": null,
      "parent_id": null,
      "population": 79819,
      "latitude": "17.55106000",
      "longitude": "80.61779000",
      "timezone": "Asia/Kolkata",
      "wikiDataId": "Q2238988",
      "country_code": "IN",
      "state_code": "TG",
      "state_id": 4012,
      "country_id": 101
    },
    {
      "id": 132608,
      "name": "科塔帕利",
      "name_default": "Kottapalli",
      "native": "कोट्टापल्ली",
      "type": "city",
      "level": null,
      "parent_id": null,
      "population": 9899,
      "latitude": "18.49543000",
      "longitude": "79.09430000",
      "timezone": "Asia/Kolkata",
      "wikiDataId": "Q583767",
      "country_code": "IN",
      "state_code": "TG",
      "state_id": 4012,
      "country_id": 101
    },
    {
      "id": 132737,
      "name": "库卡特帕利",
      "name_default": "Kukatpally",
      "native": "कुकटपल्ली",
      "type": "adm3",
      "level": null,
      "parent_id": null,
      "population": 341709,
      "latitude": "17.48486000",
      "longitude": "78.41376000",
      "timezone": "Asia/Kolkata",
      "wikiDataId": "Q794818",
      "country_code": "IN",
      "state_code": "TG",
      "state_id": 4012,
      "country_id": 101
    },
    {
      "id": 132674,
      "name": "基亚坦帕勒",
      "name_default": "Kyathampalle",
      "native": "क्याथमपल्ले",
      "type": "city",
      "level": null,
      "parent_id": null,
      "population": 42275,
      "latitude": "19.66781000",
      "longitude": "78.52890000",
      "timezone": "Asia/Kolkata",
      "wikiDataId": "Q2233371",
      "country_code": "IN",
      "state_code": "TG",
      "state_id": 4012,
      "country_id": 101
    },
    {
      "id": 132751,
      "name": "拉克舍蒂佩特",
      "name_default": "Lakshettipet",
      "native": "लक्षेट्टीपेट",
      "type": "city",
      "level": null,
      "parent_id": null,
      "population": 11322,
      "latitude": "18.86667000",
      "longitude": "79.21667000",
      "timezone": "Asia/Kolkata",
      "wikiDataId": "Q10784153",
      "country_code": "IN",
      "state_code": "TG",
      "state_id": 4012,
      "country_id": 101
    },
    {
      "id": 132753,
      "name": "拉尔巴哈杜尔纳加尔",
      "name_default": "Lal Bahadur Nagar",
      "native": "लाल बहादुर नगर",
      "type": "city",
      "level": null,
      "parent_id": null,
      "population": 261987,
      "latitude": "17.34769000",
      "longitude": "78.55757000",
      "timezone": "Asia/Kolkata",
      "wikiDataId": "Q2237516",
      "country_code": "IN",
      "state_code": "TG",
      "state_id": 4012,
      "country_id": 101
    },
    {
      "id": 132824,
      "name": "马哈布巴巴德",
      "name_default": "Mahabubabad",
      "native": "महबुबाबाद",
      "type": "adm2",
      "level": null,
      "parent_id": null,
      "population": 42851,
      "latitude": "17.60040000",
      "longitude": "80.00543000",
      "timezone": "Asia/Kolkata",
      "wikiDataId": "Q1748623",
      "country_code": "IN",
      "state_code": "TG",
      "state_id": 4012,
      "country_id": 101
    },
    {
      "id": 132828,
      "name": "马布那加尔",
      "name_default": "Mahbubnagar",
      "native": "महबूबनगर",
      "type": "city",
      "level": null,
      "parent_id": null,
      "population": null,
      "latitude": "16.63171000",
      "longitude": "77.75556000",
      "timezone": "Asia/Kolkata",
      "wikiDataId": "Q15380",
      "country_code": "IN",
      "state_code": "TG",
      "state_id": 4012,
      "country_id": 101
    },
    {
      "id": 132870,
      "name": "马尔卡吉里",
      "name_default": "Malkajgiri",
      "native": "मल्काजगिरि लोक सभा निर्वाचन क्षेत्र",
      "type": "city",
      "level": null,
      "parent_id": null,
      "population": 150000,
      "latitude": "17.44781000",
      "longitude": "78.52633000",
      "timezone": "Asia/Kolkata",
      "wikiDataId": "Q640210",
      "country_code": "IN",
      "state_code": "TG",
      "state_id": 4012,
      "country_id": 101
    },
    {
      "id": 132887,
      "name": "曼切拉尔",
      "name_default": "Mancheral",
      "native": "मंचेरल",
      "type": "city",
      "level": null,
      "parent_id": null,
      "population": 89935,
      "latitude": "18.87074000",
      "longitude": "79.42863000",
      "timezone": "Asia/Kolkata",
      "wikiDataId": "Q720842",
      "country_code": "IN",
      "state_code": "TG",
      "state_id": 4012,
      "country_id": 101
    },
    {
      "id": 132888,
      "name": "曼达马里",
      "name_default": "Mandamarri",
      "native": "मंदामरी",
      "type": "city",
      "level": null,
      "parent_id": null,
      "population": 66176,
      "latitude": "18.96506000",
      "longitude": "79.47475000",
      "timezone": "Asia/Kolkata",
      "wikiDataId": "Q2483821",
      "country_code": "IN",
      "state_code": "TG",
      "state_id": 4012,
      "country_id": 101
    },
    {
      "id": 132927,
      "name": "曼塔尼",
      "name_default": "Manthani",
      "native": "मंथनी",
      "type": "city",
      "level": null,
      "parent_id": null,
      "population": 17927,
      "latitude": "18.65087000",
      "longitude": "79.66501000",
      "timezone": "Asia/Kolkata",
      "wikiDataId": "Q6752062",
      "country_code": "IN",
      "state_code": "TG",
      "state_id": 4012,
      "country_id": 101
    },
    {
      "id": 132928,
      "name": "马努古鲁",
      "name_default": "Manuguru",
      "native": "मनुगुरु",
      "type": "city",
      "level": null,
      "parent_id": null,
      "population": 32091,
      "latitude": "17.98102000",
      "longitude": "80.75470000",
      "timezone": "Asia/Kolkata",
      "wikiDataId": "Q2483781",
      "country_code": "IN",
      "state_code": "TG",
      "state_id": 4012,
      "country_id": 101
    },
    {
      "id": 132955,
      "name": "梅达克",
      "name_default": "Medak",
      "native": "मेडक",
      "type": "city",
      "level": null,
      "parent_id": null,
      "population": 46880,
      "latitude": "17.75000000",
      "longitude": "78.25000000",
      "timezone": "Asia/Kolkata",
      "wikiDataId": "Q15386",
      "country_code": "IN",
      "state_code": "TG",
      "state_id": 4012,
      "country_id": 101
    },
    {
      "id": 132956,
      "name": "梅查尔",
      "name_default": "Medchal",
      "native": "मेडचाल",
      "type": "city",
      "level": null,
      "parent_id": null,
      "population": 35611,
      "latitude": "17.62972000",
      "longitude": "78.48139000",
      "timezone": "Asia/Kolkata",
      "wikiDataId": "Q3430279",
      "country_code": "IN",
      "state_code": "TG",
      "state_id": 4012,
      "country_id": 101
    },
    {
      "id": 132957,
      "name": "梅查尔·马尔卡吉里",
      "name_default": "Medchal Malkajgiri",
      "native": "मेडचल मलकाजगिरी",
      "type": "city",
      "level": null,
      "parent_id": null,
      "population": null,
      "latitude": "17.60644000",
      "longitude": "78.54007000",
      "timezone": "Asia/Kolkata",
      "wikiDataId": "Q3430279",
      "country_code": "IN",
      "state_code": "TG",
      "state_id": 4012,
      "country_id": 101
    },
    {
      "id": 132975,
      "name": "米里亚尔古达",
      "name_default": "Mirialguda",
      "native": "मिरियालगुडा",
      "type": "city",
      "level": null,
      "parent_id": null,
      "population": 104918,
      "latitude": "16.87220000",
      "longitude": "79.56247000",
      "timezone": "Asia/Kolkata",
      "wikiDataId": "Q15528101",
      "country_code": "IN",
      "state_code": "TG",
      "state_id": 4012,
      "country_id": 101
    },
    {
      "id": 133255,
      "name": "纳加尔卡努尔",
      "name_default": "Nagar Karnul",
      "native": "नगर करनुल",
      "type": "adm2",
      "level": null,
      "parent_id": null,
      "population": 29439,
      "latitude": "16.48210000",
      "longitude": "78.32471000",
      "timezone": "Asia/Kolkata",
      "wikiDataId": "Q2475066",
      "country_code": "IN",
      "state_code": "TG",
      "state_id": 4012,
      "country_id": 101
    },
    {
      "id": 133132,
      "name": "纳尔贡达",
      "name_default": "Nalgonda",
      "native": "नलगोंडा",
      "type": "city",
      "level": null,
      "parent_id": null,
      "population": 154326,
      "latitude": "17.16667000",
      "longitude": "79.50000000",
      "timezone": "Asia/Kolkata",
      "wikiDataId": "Q15384",
      "country_code": "IN",
      "state_code": "TG",
      "state_id": 4012,
      "country_id": 101
    },
    {
      "id": 133277,
      "name": "纳拉扬佩特",
      "name_default": "Narayanpet",
      "native": "नारायणपेट",
      "type": "adm2",
      "level": null,
      "parent_id": null,
      "population": 41752,
      "latitude": "16.74799000",
      "longitude": "77.49540000",
      "timezone": "Asia/Kolkata",
      "wikiDataId": "Q1925454",
      "country_code": "IN",
      "state_code": "TG",
      "state_id": 4012,
      "country_id": 101
    },
    {
      "id": 133274,
      "name": "纳尔辛吉",
      "name_default": "Narsingi",
      "native": "नरसिंगी",
      "type": "city",
      "level": null,
      "parent_id": null,
      "population": 7488,
      "latitude": "18.04468000",
      "longitude": "78.42516000",
      "timezone": "Asia/Kolkata",
      "wikiDataId": "Q2228677",
      "country_code": "IN",
      "state_code": "TG",
      "state_id": 4012,
      "country_id": 101
    },
    {
      "id": 133278,
      "name": "纳斯普尔",
      "name_default": "Naspur",
      "native": "नासपुर",
      "type": "city",
      "level": null,
      "parent_id": null,
      "population": 31244,
      "latitude": "18.84577000",
      "longitude": "79.46165000",
      "timezone": "Asia/Kolkata",
      "wikiDataId": "Q2563445",
      "country_code": "IN",
      "state_code": "TG",
      "state_id": 4012,
      "country_id": 101
    },
    {
      "id": 133221,
      "name": "尼尔马尔",
      "name_default": "Nirmal",
      "native": "निर्मल",
      "type": "adm2",
      "level": null,
      "parent_id": null,
      "population": 88433,
      "latitude": "19.09685000",
      "longitude": "78.34407000",
      "timezone": "Asia/Kolkata",
      "wikiDataId": "Q2087729",
      "country_code": "IN",
      "state_code": "TG",
      "state_id": 4012,
      "country_id": 101
    },
    {
      "id": 133226,
      "name": "尼扎马巴德",
      "name_default": "Nizamabad",
      "native": "निजामाबाद",
      "type": "city",
      "level": null,
      "parent_id": null,
      "population": 13895,
      "latitude": "18.75000000",
      "longitude": "78.25000000",
      "timezone": "Asia/Kolkata",
      "wikiDataId": "Q15391",
      "country_code": "IN",
      "state_code": "TG",
      "state_id": 4012,
      "country_id": 101
    },
    {
      "id": 133535,
      "name": "帕隆查",
      "name_default": "Paloncha",
      "native": "पलोंचा",
      "type": "city",
      "level": null,
      "parent_id": null,
      "population": 75224,
      "latitude": "17.60184000",
      "longitude": "80.70509000",
      "timezone": "Asia/Kolkata",
      "wikiDataId": "Q3415029",
      "country_code": "IN",
      "state_code": "TG",
      "state_id": 4012,
      "country_id": 101
    },
    {
      "id": 133338,
      "name": "帕尔万查",
      "name_default": "Palwancha",
      "native": "पलवांचा",
      "type": "city",
      "level": null,
      "parent_id": null,
      "population": 80199,
      "latitude": "17.58152000",
      "longitude": "80.67651000",
      "timezone": "Asia/Kolkata",
      "wikiDataId": "Q772160",
      "country_code": "IN",
      "state_code": "TG",
      "state_id": 4012,
      "country_id": 101
    },
    {
      "id": 133377,
      "name": "帕坦切鲁",
      "name_default": "Patancheru",
      "native": "पाटनचेरु",
      "type": "city",
      "level": null,
      "parent_id": null,
      "population": 46821,
      "latitude": "17.53334000",
      "longitude": "78.26450000",
      "timezone": "Asia/Kolkata",
      "wikiDataId": "Q720824",
      "country_code": "IN",
      "state_code": "TG",
      "state_id": 4012,
      "country_id": 101
    },
    {
      "id": 133401,
      "name": "佩达帕利",
      "name_default": "Peddapalli",
      "native": "पेद्दापल्ली",
      "type": "adm2",
      "level": null,
      "parent_id": null,
      "population": 41171,
      "latitude": "18.61357000",
      "longitude": "79.37442000",
      "timezone": "Asia/Kolkata",
      "wikiDataId": "Q7159047",
      "country_code": "IN",
      "state_code": "TG",
      "state_id": 4012,
      "country_id": 101
    },
    {
      "id": 133574,
      "name": "库斯布拉普尔",
      "name_default": "Quthbullapur",
      "native": "कुथबुल्लापुर",
      "type": "city",
      "level": null,
      "parent_id": null,
      "population": 225816,
      "latitude": "17.50107000",
      "longitude": "78.45818000",
      "timezone": "Asia/Kolkata",
      "wikiDataId": "Q2734444",
      "country_code": "IN",
      "state_code": "TG",
      "state_id": 4012,
      "country_id": 101
    },
    {
      "id": 133592,
      "name": "拉贾娜·西尔西拉",
      "name_default": "Rajanna Sircilla",
      "native": "राजन्ना सिरसिला",
      "type": "adm2",
      "level": null,
      "parent_id": null,
      "population": null,
      "latitude": "18.38629000",
      "longitude": "78.81560000",
      "timezone": "Asia/Kolkata",
      "wikiDataId": "Q1815223",
      "country_code": "IN",
      "state_code": "TG",
      "state_id": 4012,
      "country_id": 101
    },
    {
      "id": 133597,
      "name": "拉玛甘达姆",
      "name_default": "Ramagundam",
      "native": "रामगुंडम",
      "type": "city",
      "level": null,
      "parent_id": null,
      "population": 242979,
      "latitude": "18.75500000",
      "longitude": "79.47400000",
      "timezone": "Asia/Kolkata",
      "wikiDataId": "Q1780338",
      "country_code": "IN",
      "state_code": "TG",
      "state_id": 4012,
      "country_id": 101
    },
    {
      "id": 133699,
      "name": "拉姆高达",
      "name_default": "Ramgundam",
      "native": "रामगुंडम",
      "type": "city",
      "level": null,
      "parent_id": null,
      "population": 452261,
      "latitude": "18.80084000",
      "longitude": "79.45206000",
      "timezone": "Asia/Kolkata",
      "wikiDataId": "Q2119813",
      "country_code": "IN",
      "state_code": "TG",
      "state_id": 4012,
      "country_id": 101
    },
    {
      "id": 133607,
      "name": "兰加雷迪",
      "name_default": "Rangareddi",
      "native": "रंगारेड्डी",
      "type": "city",
      "level": null,
      "parent_id": null,
      "population": null,
      "latitude": "17.27883000",
      "longitude": "78.16844000",
      "timezone": "Asia/Kolkata",
      "wikiDataId": "Q15388",
      "country_code": "IN",
      "state_code": "TG",
      "state_id": 4012,
      "country_id": 101
    },
    {
      "id": 133745,
      "name": "萨达西奥佩特",
      "name_default": "Sadaseopet",
      "native": "सदासेओपेट",
      "type": "city",
      "level": null,
      "parent_id": null,
      "population": 47920,
      "latitude": "17.61925000",
      "longitude": "77.95263000",
      "timezone": "Asia/Kolkata",
      "wikiDataId": "Q2229196",
      "country_code": "IN",
      "state_code": "TG",
      "state_id": 4012,
      "country_id": 101
    },
    {
      "id": 133787,
      "name": "桑加雷迪",
      "name_default": "Sangareddi",
      "native": "संगारेड्डी",
      "type": "adm2",
      "level": null,
      "parent_id": null,
      "population": 72344,
      "latitude": "17.62477000",
      "longitude": "78.08669000",
      "timezone": "Asia/Kolkata",
      "wikiDataId": "Q614055",
      "country_code": "IN",
      "state_code": "TG",
      "state_id": 4012,
      "country_id": 101
    },
    {
      "id": 133818,
      "name": "萨图帕利",
      "name_default": "Sathupalli",
      "native": "सथुपल्ली",
      "type": "city",
      "level": null,
      "parent_id": null,
      "population": 40000,
      "latitude": "17.24968000",
      "longitude": "80.86899000",
      "timezone": "Asia/Kolkata",
      "wikiDataId": "Q2715680",
      "country_code": "IN",
      "state_code": "TG",
      "state_id": 4012,
      "country_id": 101
    },
    {
      "id": 133834,
      "name": "塞康德拉巴德",
      "name_default": "Secunderabad",
      "native": "सिकंदराबाद",
      "type": "city",
      "level": null,
      "parent_id": null,
      "population": 213698,
      "latitude": "17.50427000",
      "longitude": "78.54263000",
      "timezone": "Asia/Kolkata",
      "wikiDataId": "Q1003502",
      "country_code": "IN",
      "state_code": "TG",
      "state_id": 4012,
      "country_id": 101
    },
    {
      "id": 133849,
      "name": "塞里林坎帕勒",
      "name_default": "Serilingampalle",
      "native": "सेरिलिंगमपल्ले",
      "type": "city",
      "level": null,
      "parent_id": null,
      "population": 150525,
      "latitude": "17.49313000",
      "longitude": "78.30196000",
      "timezone": "Asia/Kolkata",
      "wikiDataId": "Q2726292",
      "country_code": "IN",
      "state_code": "TG",
      "state_id": 4012,
      "country_id": 101
    },
    {
      "id": 133919,
      "name": "西迪佩特",
      "name_default": "Siddipet",
      "native": "सिद्दीपेट",
      "type": "adm2",
      "level": null,
      "parent_id": null,
      "population": 66737,
      "latitude": "18.10483000",
      "longitude": "78.84858000",
      "timezone": "Asia/Kolkata",
      "wikiDataId": "Q2572203",
      "country_code": "IN",
      "state_code": "TG",
      "state_id": 4012,
      "country_id": 101
    },
    {
      "id": 133951,
      "name": "新加坡",
      "name_default": "Singapur",
      "native": "सिंगापुर",
      "type": "city",
      "level": null,
      "parent_id": null,
      "population": 24457,
      "latitude": "17.46982000",
      "longitude": "78.12574000",
      "timezone": "Asia/Kolkata",
      "wikiDataId": "Q255780",
      "country_code": "IN",
      "state_code": "TG",
      "state_id": 4012,
      "country_id": 101
    },
    {
      "id": 133960,
      "name": "西尔普尔",
      "name_default": "Sirpur",
      "native": "सिरपुर",
      "type": "city",
      "level": null,
      "parent_id": null,
      "population": 10116,
      "latitude": "19.47953000",
      "longitude": "79.57558000",
      "timezone": "Asia/Kolkata",
      "wikiDataId": "Q7530597",
      "country_code": "IN",
      "state_code": "TG",
      "state_id": 4012,
      "country_id": 101
    },
    {
      "id": 133964,
      "name": "西尔西拉",
      "name_default": "Sirsilla",
      "native": "सिरसिल्ला",
      "type": "adm2",
      "level": null,
      "parent_id": null,
      "population": 83186,
      "latitude": "18.38865000",
      "longitude": "78.81048000",
      "timezone": "Asia/Kolkata",
      "wikiDataId": "Q2563435",
      "country_code": "IN",
      "state_code": "TG",
      "state_id": 4012,
      "country_id": 101
    },
    {
      "id": 134031,
      "name": "斯里拉姆讷格尔",
      "name_default": "Sriramnagar",
      "native": "श्रीरामनगर",
      "type": "city",
      "level": null,
      "parent_id": null,
      "population": 19550,
      "latitude": "17.26652000",
      "longitude": "78.25544000",
      "timezone": "Asia/Kolkata",
      "wikiDataId": "Q2547993",
      "country_code": "IN",
      "state_code": "TG",
      "state_id": 4012,
      "country_id": 101
    },
    {
      "id": 134054,
      "name": "苏里亚佩特",
      "name_default": "Suriapet",
      "native": "सुरियापेट",
      "type": "adm2",
      "level": null,
      "parent_id": null,
      "population": 111729,
      "latitude": "17.14054000",
      "longitude": "79.62045000",
      "timezone": "Asia/Kolkata",
      "wikiDataId": "Q2573090",
      "country_code": "IN",
      "state_code": "TG",
      "state_id": 4012,
      "country_id": 101
    },
    {
      "id": 134237,
      "name": "坦杜尔",
      "name_default": "Tandur",
      "native": "तंदूर",
      "type": "city",
      "level": null,
      "parent_id": null,
      "population": 65115,
      "latitude": "17.24849000",
      "longitude": "77.57698000",
      "timezone": "Asia/Kolkata",
      "wikiDataId": "Q720922",
      "country_code": "IN",
      "state_code": "TG",
      "state_id": 4012,
      "country_id": 101
    },
    {
      "id": 134287,
      "name": "乌帕尔·卡兰",
      "name_default": "Uppal Kalan",
      "native": "उप्पल कलां",
      "type": "city",
      "level": null,
      "parent_id": null,
      "population": 118259,
      "latitude": "17.40577000",
      "longitude": "78.55911000",
      "timezone": "Asia/Kolkata",
      "wikiDataId": "Q2734950",
      "country_code": "IN",
      "state_code": "TG",
      "state_id": 4012,
      "country_id": 101
    },
    {
      "id": 134344,
      "name": "维马尔瓦达",
      "name_default": "Vemalwada",
      "native": "वेमलवाड़ा",
      "type": "city",
      "level": null,
      "parent_id": null,
      "population": 33706,
      "latitude": "18.46523000",
      "longitude": "78.86894000",
      "timezone": "Asia/Kolkata",
      "wikiDataId": "Q2541007",
      "country_code": "IN",
      "state_code": "TG",
      "state_id": 4012,
      "country_id": 101
    },
    {
      "id": 134359,
      "name": "维卡拉巴德",
      "name_default": "Vikarabad",
      "native": "विकाराबाद",
      "type": "adm2",
      "level": null,
      "parent_id": null,
      "population": 53143,
      "latitude": "17.33810000",
      "longitude": "77.90441000",
      "timezone": "Asia/Kolkata",
      "wikiDataId": "Q568778",
      "country_code": "IN",
      "state_code": "TG",
      "state_id": 4012,
      "country_id": 101
    },
    {
      "id": 134394,
      "name": "万帕蒂",
      "name_default": "Wanparti",
      "native": "वानपार्टी",
      "type": "adm2",
      "level": null,
      "parent_id": null,
      "population": 60949,
      "latitude": "16.36738000",
      "longitude": "78.06889000",
      "timezone": "Asia/Kolkata",
      "wikiDataId": "Q2563513",
      "country_code": "IN",
      "state_code": "TG",
      "state_id": 4012,
      "country_id": 101
    },
    {
      "id": 134395,
      "name": "瓦朗加尔",
      "name_default": "Warangal",
      "native": "वारंगल",
      "type": "city",
      "level": null,
      "parent_id": null,
      "population": 704570,
      "latitude": "18.00000000",
      "longitude": "79.83333000",
      "timezone": "Asia/Kolkata",
      "wikiDataId": "Q15399",
      "country_code": "IN",
      "state_code": "TG",
      "state_id": 4012,
      "country_id": 101
    },
    {
      "id": 134432,
      "name": "耶兰杜",
      "name_default": "Yellandu",
      "native": "येल्लांडु",
      "type": "city",
      "level": null,
      "parent_id": null,
      "population": 35056,
      "latitude": "17.59064000",
      "longitude": "80.32146000",
      "timezone": "Asia/Kolkata",
      "wikiDataId": "Q721480",
      "country_code": "IN",
      "state_code": "TG",
      "state_id": 4012,
      "country_id": 101
    },
    {
      "id": 134440,
      "name": "扎希拉巴德",
      "name_default": "Zahirabad",
      "native": "ज़ाहिराबाद",
      "type": "city",
      "level": null,
      "parent_id": null,
      "population": 71166,
      "latitude": "17.68138000",
      "longitude": "77.60743000",
      "timezone": "Asia/Kolkata",
      "wikiDataId": "Q564781",
      "country_code": "IN",
      "state_code": "TG",
      "state_id": 4012,
      "country_id": 101
    }
  ]
}
