{
  "locale": "pl",
  "country": {
    "id": 103,
    "code": "IR",
    "iso3": "IRN",
    "numeric_code": "364",
    "name": "Iran",
    "name_default": "Iran",
    "native": "ایران",
    "capital": "Tehran",
    "phonecode": "98",
    "currency": "IRR",
    "currency_name": "Iranian rial",
    "currency_symbol": "﷼",
    "tld": ".ir",
    "population": 85961000,
    "gdp": 341013,
    "region": "Asia",
    "region_id": 3,
    "subregion": "Southern Asia",
    "subregion_id": 14,
    "nationality": "Iranian, Persian",
    "timezones": [
      {
        "zoneName": "Asia/Tehran",
        "gmtOffset": 12600,
        "gmtOffsetName": "UTC+03:30",
        "abbreviation": "IRDT",
        "tzName": "Iran Daylight Time"
      }
    ],
    "latitude": "32.00000000",
    "longitude": "53.00000000",
    "emoji": "🇮🇷",
    "emojiU": "U+1F1EE U+1F1F7"
  },
  "state": {
    "id": 3926,
    "code": "17",
    "iso2": "17",
    "iso3166_2": "IR-17",
    "fips_code": "05",
    "name": "Kohgiluyeh i Boyer-Ahmad",
    "name_default": "Kohgiluyeh and Boyer-Ahmad",
    "native": "کهگیلویه و بویراحمد",
    "type": "province",
    "level": null,
    "parent_id": null,
    "population": 713052,
    "latitude": "30.81434760",
    "longitude": "50.86614540",
    "timezone": "Asia/Tehran",
    "wikiDataId": "Q180068",
    "country_code": "IR"
  },
  "cities": [
    {
      "id": 134799,
      "name": "Bahmai",
      "name_default": "Bahmai",
      "native": "بهائی",
      "type": "adm2",
      "level": null,
      "parent_id": null,
      "population": 38136,
      "latitude": "31.05000000",
      "longitude": "50.08333000",
      "timezone": "Asia/Tehran",
      "wikiDataId": "Q1278157",
      "country_code": "IR",
      "state_code": "17",
      "state_id": 3926,
      "country_id": 103
    },
    {
      "id": 134823,
      "name": "Basht",
      "name_default": "Basht",
      "native": "بخت",
      "type": "city",
      "level": null,
      "parent_id": null,
      "population": 10764,
      "latitude": "30.45000000",
      "longitude": "51.11667000",
      "timezone": "Asia/Tehran",
      "wikiDataId": "Q888371",
      "country_code": "IR",
      "state_code": "17",
      "state_id": 3926,
      "country_id": 103
    },
    {
      "id": 134832,
      "name": "Charam",
      "name_default": "Charam",
      "native": "کارام",
      "type": "city",
      "level": null,
      "parent_id": null,
      "population": null,
      "latitude": "30.76667000",
      "longitude": "50.85000000",
      "timezone": "Asia/Tehran",
      "wikiDataId": "Q888941",
      "country_code": "IR",
      "state_code": "17",
      "state_id": 3926,
      "country_id": 103
    },
    {
      "id": 150825,
      "name": "Chitab",
      "name_default": "Chitab",
      "native": "کیتاب",
      "type": "city",
      "level": null,
      "parent_id": null,
      "population": 1164,
      "latitude": "30.79500000",
      "longitude": "51.32555600",
      "timezone": "Asia/Tehran",
      "wikiDataId": "Q4360547",
      "country_code": "IR",
      "state_code": "17",
      "state_id": 3926,
      "country_id": 103
    },
    {
      "id": 150830,
      "name": "Choram",
      "name_default": "Choram",
      "native": "فریاده",
      "type": "adm2",
      "level": null,
      "parent_id": null,
      "population": 15218,
      "latitude": "30.75374640",
      "longitude": "50.73295340",
      "timezone": "Asia/Tehran",
      "wikiDataId": null,
      "country_code": "IR",
      "state_code": "17",
      "state_id": 3926,
      "country_id": 103
    },
    {
      "id": 134616,
      "name": "Dehdasht",
      "name_default": "Dehdasht",
      "native": "دهشت",
      "type": "adm2",
      "level": null,
      "parent_id": null,
      "population": 57036,
      "latitude": "30.79490000",
      "longitude": "50.56457000",
      "timezone": "Asia/Tehran",
      "wikiDataId": "Q888365",
      "country_code": "IR",
      "state_code": "17",
      "state_id": 3926,
      "country_id": 103
    },
    {
      "id": 150834,
      "name": "Dishmok",
      "name_default": "Dishmok",
      "native": "دلهره",
      "type": "city",
      "level": null,
      "parent_id": null,
      "population": 5791,
      "latitude": "31.29920680",
      "longitude": "50.39264550",
      "timezone": "Asia/Tehran",
      "wikiDataId": "Q2421547",
      "country_code": "IR",
      "state_code": "17",
      "state_id": 3926,
      "country_id": 103
    },
    {
      "id": 134622,
      "name": "Dogonbadan",
      "name_default": "Dogonbadan",
      "native": "طولانی",
      "type": "city",
      "level": null,
      "parent_id": null,
      "population": 96728,
      "latitude": "30.35860000",
      "longitude": "50.79810000",
      "timezone": "Asia/Tehran",
      "wikiDataId": "Q719982",
      "country_code": "IR",
      "state_code": "17",
      "state_id": 3926,
      "country_id": 103
    },
    {
      "id": 134878,
      "name": "Gachsaran",
      "name_default": "Gachsaran",
      "native": "گچساران",
      "type": "city",
      "level": null,
      "parent_id": null,
      "population": 124096,
      "latitude": "30.33333000",
      "longitude": "50.75000000",
      "timezone": "Asia/Tehran",
      "wikiDataId": "Q721034",
      "country_code": "IR",
      "state_code": "17",
      "state_id": 3926,
      "country_id": 103
    },
    {
      "id": 150826,
      "name": "Garab-e Sofla",
      "name_default": "Garab-e Sofla",
      "native": "کاراب صوفلا",
      "type": "city",
      "level": null,
      "parent_id": null,
      "population": null,
      "latitude": "30.94722200",
      "longitude": "50.88777800",
      "timezone": "Asia/Tehran",
      "wikiDataId": "Q1770030",
      "country_code": "IR",
      "state_code": "17",
      "state_id": 3926,
      "country_id": 103
    },
    {
      "id": 134928,
      "name": "Kohgiluyeh",
      "name_default": "Kohgiluyeh",
      "native": "کوهگلوی",
      "type": "city",
      "level": null,
      "parent_id": null,
      "population": 131351,
      "latitude": "31.03333000",
      "longitude": "50.45000000",
      "timezone": "Asia/Tehran",
      "wikiDataId": "Q1264551",
      "country_code": "IR",
      "state_code": "17",
      "state_id": 3926,
      "country_id": 103
    },
    {
      "id": 134688,
      "name": "Landeh",
      "name_default": "Landeh",
      "native": "زمین",
      "type": "adm2",
      "level": null,
      "parent_id": null,
      "population": 12772,
      "latitude": "30.97994000",
      "longitude": "50.42469000",
      "timezone": "Asia/Tehran",
      "wikiDataId": "Q721060",
      "country_code": "IR",
      "state_code": "17",
      "state_id": 3926,
      "country_id": 103
    },
    {
      "id": 150837,
      "name": "Lendeh",
      "name_default": "Lendeh",
      "native": "وام",
      "type": "adm2",
      "level": null,
      "parent_id": null,
      "population": null,
      "latitude": "30.97781800",
      "longitude": "50.40324550",
      "timezone": "Asia/Tehran",
      "wikiDataId": "Q888376",
      "country_code": "IR",
      "state_code": "17",
      "state_id": 3926,
      "country_id": 103
    },
    {
      "id": 150829,
      "name": "Likak",
      "name_default": "Likak",
      "native": "مایع کردن",
      "type": "adm2",
      "level": null,
      "parent_id": null,
      "population": 19857,
      "latitude": "30.89500000",
      "longitude": "50.09305600",
      "timezone": "Asia/Tehran",
      "wikiDataId": "Q2630625",
      "country_code": "IR",
      "state_code": "17",
      "state_id": 3926,
      "country_id": 103
    },
    {
      "id": 150827,
      "name": "Madavan",
      "name_default": "Madavan",
      "native": "ماداوان",
      "type": "city",
      "level": null,
      "parent_id": null,
      "population": null,
      "latitude": "30.71844720",
      "longitude": "51.53613560",
      "timezone": "Asia/Tehran",
      "wikiDataId": "Q16462415",
      "country_code": "IR",
      "state_code": "17",
      "state_id": 3926,
      "country_id": 103
    },
    {
      "id": 150828,
      "name": "Margoon",
      "name_default": "Margoon",
      "native": "حاشیه",
      "type": "city",
      "level": null,
      "parent_id": null,
      "population": null,
      "latitude": "30.99314390",
      "longitude": "51.06901290",
      "timezone": "Asia/Tehran",
      "wikiDataId": "Q16462841",
      "country_code": "IR",
      "state_code": "17",
      "state_id": 3926,
      "country_id": 103
    },
    {
      "id": 150832,
      "name": "Pataveh",
      "name_default": "Pataveh",
      "native": "پاتاوه",
      "type": "city",
      "level": null,
      "parent_id": null,
      "population": 2284,
      "latitude": "30.95669820",
      "longitude": "51.26478200",
      "timezone": "Asia/Tehran",
      "wikiDataId": "Q1770065",
      "country_code": "IR",
      "state_code": "17",
      "state_id": 3926,
      "country_id": 103
    },
    {
      "id": 150836,
      "name": "Qaleh Raisi",
      "name_default": "Qaleh Raisi",
      "native": "رئیس جمهور قله",
      "type": "city",
      "level": null,
      "parent_id": null,
      "population": null,
      "latitude": "31.19000000",
      "longitude": "50.44194400",
      "timezone": "Asia/Tehran",
      "wikiDataId": "Q1770060",
      "country_code": "IR",
      "state_code": "17",
      "state_id": 3926,
      "country_id": 103
    },
    {
      "id": 150831,
      "name": "sarfariyab",
      "name_default": "sarfariyab",
      "native": "سارفاری",
      "type": "city",
      "level": null,
      "parent_id": null,
      "population": null,
      "latitude": "30.80720400",
      "longitude": "50.84650350",
      "timezone": "Asia/Tehran",
      "wikiDataId": null,
      "country_code": "IR",
      "state_code": "17",
      "state_id": 3926,
      "country_id": 103
    },
    {
      "id": 150833,
      "name": "Sisacht",
      "name_default": "Sisakht",
      "native": "سیزاکت",
      "type": "adm2",
      "level": null,
      "parent_id": null,
      "population": 7855,
      "latitude": "30.85631130",
      "longitude": "51.43766630",
      "timezone": "Asia/Tehran",
      "wikiDataId": "Q533476",
      "country_code": "IR",
      "state_code": "17",
      "state_id": 3926,
      "country_id": 103
    },
    {
      "id": 150835,
      "name": "Suk",
      "name_default": "Suq",
      "native": "بازار",
      "type": "city",
      "level": null,
      "parent_id": null,
      "population": null,
      "latitude": "30.85902050",
      "longitude": "50.45108550",
      "timezone": "Asia/Tehran",
      "wikiDataId": "Q219760",
      "country_code": "IR",
      "state_code": "17",
      "state_id": 3926,
      "country_id": 103
    },
    {
      "id": 135139,
      "name": "Jasuj",
      "name_default": "Yasuj",
      "native": "یاسوج",
      "type": "adm1",
      "level": null,
      "parent_id": null,
      "population": 96786,
      "latitude": "30.66824000",
      "longitude": "51.58796000",
      "timezone": "Asia/Tehran",
      "wikiDataId": "Q383129",
      "country_code": "IR",
      "state_code": "17",
      "state_id": 3926,
      "country_id": 103
    }
  ]
}
