{
  "locale": "pt-BR",
  "country": {
    "id": 142,
    "code": "MX",
    "iso3": "MEX",
    "numeric_code": "484",
    "name": "México",
    "name_default": "Mexico",
    "native": "México",
    "capital": "Ciudad de México",
    "phonecode": "52",
    "currency": "MXN",
    "currency_name": "Mexican peso",
    "currency_symbol": "$",
    "tld": ".mx",
    "population": 130575786,
    "gdp": 1692640,
    "region": "Americas",
    "region_id": 2,
    "subregion": "Northern America",
    "subregion_id": 6,
    "nationality": "Mexican",
    "timezones": [
      {
        "zoneName": "America/Bahia_Banderas",
        "gmtOffset": -21600,
        "gmtOffsetName": "UTC-06:00",
        "abbreviation": "CST",
        "tzName": "Central Standard Time (North America"
      },
      {
        "zoneName": "America/Cancun",
        "gmtOffset": -18000,
        "gmtOffsetName": "UTC-05:00",
        "abbreviation": "EST",
        "tzName": "Eastern Standard Time (North America"
      },
      {
        "zoneName": "America/Chihuahua",
        "gmtOffset": -25200,
        "gmtOffsetName": "UTC-07:00",
        "abbreviation": "MST",
        "tzName": "Mountain Standard Time (North America"
      },
      {
        "zoneName": "America/Hermosillo",
        "gmtOffset": -25200,
        "gmtOffsetName": "UTC-07:00",
        "abbreviation": "MST",
        "tzName": "Mountain Standard Time (North America"
      },
      {
        "zoneName": "America/Matamoros",
        "gmtOffset": -21600,
        "gmtOffsetName": "UTC-06:00",
        "abbreviation": "CST",
        "tzName": "Central Standard Time (North America"
      },
      {
        "zoneName": "America/Mazatlan",
        "gmtOffset": -25200,
        "gmtOffsetName": "UTC-07:00",
        "abbreviation": "MST",
        "tzName": "Mountain Standard Time (North America"
      },
      {
        "zoneName": "America/Merida",
        "gmtOffset": -21600,
        "gmtOffsetName": "UTC-06:00",
        "abbreviation": "CST",
        "tzName": "Central Standard Time (North America"
      },
      {
        "zoneName": "America/Mexico_City",
        "gmtOffset": -21600,
        "gmtOffsetName": "UTC-06:00",
        "abbreviation": "CST",
        "tzName": "Central Standard Time (North America"
      },
      {
        "zoneName": "America/Monterrey",
        "gmtOffset": -21600,
        "gmtOffsetName": "UTC-06:00",
        "abbreviation": "CST",
        "tzName": "Central Standard Time (North America"
      },
      {
        "zoneName": "America/Ojinaga",
        "gmtOffset": -25200,
        "gmtOffsetName": "UTC-07:00",
        "abbreviation": "MST",
        "tzName": "Mountain Standard Time (North America"
      },
      {
        "zoneName": "America/Tijuana",
        "gmtOffset": -28800,
        "gmtOffsetName": "UTC-08:00",
        "abbreviation": "PST",
        "tzName": "Pacific Standard Time (North America"
      }
    ],
    "latitude": "23.00000000",
    "longitude": "-102.00000000",
    "emoji": "🇲🇽",
    "emojiU": "U+1F1F2 U+1F1FD"
  },
  "state": {
    "id": 3448,
    "code": "OAX",
    "iso2": "OAX",
    "iso3166_2": "MX-OAX",
    "fips_code": "20",
    "name": "Oaxaca",
    "name_default": "Oaxaca",
    "native": "Oaxaca",
    "type": "state",
    "level": null,
    "parent_id": null,
    "population": 4132148,
    "latitude": "17.00000000",
    "longitude": "-96.50000000",
    "timezone": "America/Mexico_City",
    "wikiDataId": "Q34110",
    "country_code": "MX"
  },
  "cities": [
    {
      "id": 68052,
      "name": "Acatlán de Pérez Figueroa",
      "name_default": "Acatlán de Pérez Figueroa",
      "native": "Acatlán de Pérez Figueroa",
      "type": "city",
      "level": null,
      "parent_id": null,
      "population": 6040,
      "latitude": "18.53973000",
      "longitude": "-96.60568000",
      "timezone": "America/Mexico_City",
      "wikiDataId": "Q20261261",
      "country_code": "MX",
      "state_code": "OAX",
      "state_id": 3448,
      "country_id": 142
    },
    {
      "id": 68121,
      "name": "Água do Espinho",
      "name_default": "Agua del Espino",
      "native": "Agua del Espino",
      "type": "city",
      "level": null,
      "parent_id": null,
      "population": 1097,
      "latitude": "16.59095000",
      "longitude": "-96.80204000",
      "timezone": "America/Mexico_City",
      "wikiDataId": "Q20132597",
      "country_code": "MX",
      "state_code": "OAX",
      "state_id": 3448,
      "country_id": 142
    },
    {
      "id": 68155,
      "name": "Ahuehuetitlán",
      "name_default": "Ahuehuetitlán",
      "native": "Ahuehuetitlán",
      "type": "adm2",
      "level": null,
      "parent_id": null,
      "population": null,
      "latitude": "17.67130000",
      "longitude": "-98.32024000",
      "timezone": "America/Mexico_City",
      "wikiDataId": "Q3888604",
      "country_code": "MX",
      "state_code": "OAX",
      "state_id": 3448,
      "country_id": 142
    },
    {
      "id": 68173,
      "name": "Albarradas",
      "name_default": "Albarradas",
      "native": "Albarradas",
      "type": "adm2",
      "level": null,
      "parent_id": null,
      "population": null,
      "latitude": "17.06752000",
      "longitude": "-96.20012000",
      "timezone": "America/Mexico_City",
      "wikiDataId": "Q3311839",
      "country_code": "MX",
      "state_code": "OAX",
      "state_id": 3448,
      "country_id": 142
    },
    {
      "id": 68212,
      "name": "Almolonga",
      "name_default": "Almolonga",
      "native": "Almolonga",
      "type": "city",
      "level": null,
      "parent_id": null,
      "population": 1325,
      "latitude": "18.60848000",
      "longitude": "-96.66099000",
      "timezone": "America/Mexico_City",
      "wikiDataId": "Q20231735",
      "country_code": "MX",
      "state_code": "OAX",
      "state_id": 3448,
      "country_id": 142
    },
    {
      "id": 76394,
      "name": "Álvaro Obregón",
      "name_default": "Álvaro Obregón",
      "native": "Álvaro Obregón",
      "type": "city",
      "level": null,
      "parent_id": null,
      "population": 3558,
      "latitude": "16.29811000",
      "longitude": "-95.08392000",
      "timezone": "America/Mexico_City",
      "wikiDataId": "Q20133897",
      "country_code": "MX",
      "state_code": "OAX",
      "state_id": 3448,
      "country_id": 142
    },
    {
      "id": 68275,
      "name": "Animas Trujano",
      "name_default": "Animas Trujano",
      "native": "Animas Trujano",
      "type": "adm2",
      "level": null,
      "parent_id": null,
      "population": 3917,
      "latitude": "16.99086000",
      "longitude": "-96.71319000",
      "timezone": "America/Mexico_City",
      "wikiDataId": "Q4497315",
      "country_code": "MX",
      "state_code": "OAX",
      "state_id": 3448,
      "country_id": 142
    },
    {
      "id": 68310,
      "name": "Apoala",
      "name_default": "Apoala",
      "native": "Apoal",
      "type": "city",
      "level": null,
      "parent_id": null,
      "population": null,
      "latitude": "17.64845000",
      "longitude": "-97.13608000",
      "timezone": "America/Mexico_City",
      "wikiDataId": "Q3889599",
      "country_code": "MX",
      "state_code": "OAX",
      "state_id": 3448,
      "country_id": 142
    },
    {
      "id": 68356,
      "name": "Arroyo Chical (Novo Arroyo Chicali)",
      "name_default": "Arroyo Chical (Nuevo Arroyo Chicali)",
      "native": "Arroyo Chical (Nuevo Arroyo Chicali)",
      "type": "city",
      "level": null,
      "parent_id": null,
      "population": 1230,
      "latitude": "18.21611000",
      "longitude": "-96.33667000",
      "timezone": "America/Mexico_City",
      "wikiDataId": "Q20229021",
      "country_code": "MX",
      "state_code": "OAX",
      "state_id": 3448,
      "country_id": 142
    },
    {
      "id": 68357,
      "name": "Arroyo Choápam",
      "name_default": "Arroyo Choápam",
      "native": "Arroyo Choápam",
      "type": "city",
      "level": null,
      "parent_id": null,
      "population": 1576,
      "latitude": "17.97028000",
      "longitude": "-96.15722000",
      "timezone": "America/Mexico_City",
      "wikiDataId": "Q20229027",
      "country_code": "MX",
      "state_code": "OAX",
      "state_id": 3448,
      "country_id": 142
    },
    {
      "id": 68368,
      "name": "Arroyo de Banco",
      "name_default": "Arroyo de Banco",
      "native": "Arroyo de Banco",
      "type": "city",
      "level": null,
      "parent_id": null,
      "population": 1267,
      "latitude": "17.80312000",
      "longitude": "-96.34794000",
      "timezone": "America/Mexico_City",
      "wikiDataId": "Q20252516",
      "country_code": "MX",
      "state_code": "OAX",
      "state_id": 3448,
      "country_id": 142
    },
    {
      "id": 68369,
      "name": "Arroyo de Enmedio",
      "name_default": "Arroyo de Enmedio",
      "native": "Arroyo de Enmedio",
      "type": "city",
      "level": null,
      "parent_id": null,
      "population": 1541,
      "latitude": "18.49750000",
      "longitude": "-96.54722000",
      "timezone": "America/Mexico_City",
      "wikiDataId": "Q20137779",
      "country_code": "MX",
      "state_code": "OAX",
      "state_id": 3448,
      "country_id": 142
    },
    {
      "id": 68362,
      "name": "Arroyo Limón",
      "name_default": "Arroyo Limón",
      "native": "Arroyo Limón",
      "type": "city",
      "level": null,
      "parent_id": null,
      "population": 1389,
      "latitude": "17.90008000",
      "longitude": "-95.96175000",
      "timezone": "America/Mexico_City",
      "wikiDataId": "Q20229027",
      "country_code": "MX",
      "state_code": "OAX",
      "state_id": 3448,
      "country_id": 142
    },
    {
      "id": 68367,
      "name": "Arroyo Zapotillo",
      "name_default": "Arroyo Zapotillo",
      "native": "Arroyo Zapotillo",
      "type": "city",
      "level": null,
      "parent_id": null,
      "population": 1174,
      "latitude": "18.07639000",
      "longitude": "-96.54417000",
      "timezone": "America/Mexico_City",
      "wikiDataId": "Q20252516",
      "country_code": "MX",
      "state_code": "OAX",
      "state_id": 3448,
      "country_id": 142
    },
    {
      "id": 68383,
      "name": "Assunção Cacalotepec",
      "name_default": "Asunción Cacalotepec",
      "native": "Asunción Cacalotepec",
      "type": "city",
      "level": null,
      "parent_id": null,
      "population": 2027,
      "latitude": "17.03470000",
      "longitude": "-95.93361000",
      "timezone": "America/Mexico_City",
      "wikiDataId": "Q3172045",
      "country_code": "MX",
      "state_code": "OAX",
      "state_id": 3448,
      "country_id": 142
    },
    {
      "id": 68384,
      "name": "Assunção Ixtaltepec",
      "name_default": "Asunción Ixtaltepec",
      "native": "Asunción Ixtaltepec",
      "type": "city",
      "level": null,
      "parent_id": null,
      "population": 7203,
      "latitude": "16.50315000",
      "longitude": "-95.06121000",
      "timezone": "America/Mexico_City",
      "wikiDataId": "Q3845901",
      "country_code": "MX",
      "state_code": "OAX",
      "state_id": 3448,
      "country_id": 142
    },
    {
      "id": 68385,
      "name": "Assunção Nochixtlán",
      "name_default": "Asunción Nochixtlán",
      "native": "Asunción Nochixtlán",
      "type": "adm2",
      "level": null,
      "parent_id": null,
      "population": 13284,
      "latitude": "17.45916000",
      "longitude": "-97.22605000",
      "timezone": "America/Mexico_City",
      "wikiDataId": "Q2483481",
      "country_code": "MX",
      "state_code": "OAX",
      "state_id": 3448,
      "country_id": 142
    },
    {
      "id": 68386,
      "name": "Assunção Ocotlán",
      "name_default": "Asunción Ocotlán",
      "native": "Asunción Ocotlán",
      "type": "adm2",
      "level": null,
      "parent_id": null,
      "population": 2580,
      "latitude": "16.76195000",
      "longitude": "-96.72137000",
      "timezone": "America/Mexico_City",
      "wikiDataId": "Q3845852",
      "country_code": "MX",
      "state_code": "OAX",
      "state_id": 3448,
      "country_id": 142
    },
    {
      "id": 68387,
      "name": "Assunção Tlacolulita",
      "name_default": "Asunción Tlacolulita",
      "native": "Asunción Tlacolulita",
      "type": "city",
      "level": null,
      "parent_id": null,
      "population": null,
      "latitude": "16.22612000",
      "longitude": "-95.76620000",
      "timezone": "America/Mexico_City",
      "wikiDataId": "Q3846570",
      "country_code": "MX",
      "state_code": "OAX",
      "state_id": 3448,
      "country_id": 142
    },
    {
      "id": 68463,
      "name": "Ayoquezco de Aldama",
      "name_default": "Ayoquezco de Aldama",
      "native": "Ayoquezco de Aldama",
      "type": "adm2",
      "level": null,
      "parent_id": null,
      "population": 4418,
      "latitude": "16.68370000",
      "longitude": "-96.84287000",
      "timezone": "America/Mexico_City",
      "wikiDataId": "Q20235613",
      "country_code": "MX",
      "state_code": "OAX",
      "state_id": 3448,
      "country_id": 142
    },
    {
      "id": 68468,
      "name": "Ayotzintepec",
      "name_default": "Ayotzintepec",
      "native": "Ayotzintepec",
      "type": "city",
      "level": null,
      "parent_id": null,
      "population": 3609,
      "latitude": "17.67261000",
      "longitude": "-96.12855000",
      "timezone": "America/Mexico_City",
      "wikiDataId": "Q20139855",
      "country_code": "MX",
      "state_code": "OAX",
      "state_id": 3448,
      "country_id": 142
    },
    {
      "id": 68469,
      "name": "Ayutla",
      "name_default": "Ayutla",
      "native": "Ayutla",
      "type": "city",
      "level": null,
      "parent_id": null,
      "population": 3162,
      "latitude": "17.02756000",
      "longitude": "-96.07632000",
      "timezone": "America/Mexico_City",
      "wikiDataId": "Q556347",
      "country_code": "MX",
      "state_code": "OAX",
      "state_id": 3448,
      "country_id": 142
    },
    {
      "id": 68502,
      "name": "Baixos de Chila",
      "name_default": "Bajos de Chila",
      "native": "Bajos de Chila",
      "type": "city",
      "level": null,
      "parent_id": null,
      "population": 5425,
      "latitude": "15.92343000",
      "longitude": "-97.12113000",
      "timezone": "America/Mexico_City",
      "wikiDataId": "Q20140235",
      "country_code": "MX",
      "state_code": "OAX",
      "state_id": 3448,
      "country_id": 142
    },
    {
      "id": 68530,
      "name": "Bairro San Diego",
      "name_default": "Barrio San Diego",
      "native": "Barrio San Diego",
      "type": "city",
      "level": null,
      "parent_id": null,
      "population": 1317,
      "latitude": "17.27917000",
      "longitude": "-97.67417000",
      "timezone": "America/Mexico_City",
      "wikiDataId": "Q20274778",
      "country_code": "MX",
      "state_code": "OAX",
      "state_id": 3448,
      "country_id": 142
    },
    {
      "id": 68584,
      "name": "Benemérito Juárez",
      "name_default": "Benemérito Juárez",
      "native": "Benemérito Juárez",
      "type": "city",
      "level": null,
      "parent_id": null,
      "population": 3140,
      "latitude": "18.11944000",
      "longitude": "-96.00194000",
      "timezone": "America/Mexico_City",
      "wikiDataId": "Q20274830",
      "country_code": "MX",
      "state_code": "OAX",
      "state_id": 3448,
      "country_id": 142
    },
    {
      "id": 68593,
      "name": "Benito Juárez",
      "name_default": "Benito Juárez",
      "native": "Benito Juárez",
      "type": "city",
      "level": null,
      "parent_id": null,
      "population": 1305,
      "latitude": "15.88178000",
      "longitude": "-96.32405000",
      "timezone": "America/Mexico_City",
      "wikiDataId": "Q20144109",
      "country_code": "MX",
      "state_code": "OAX",
      "state_id": 3448,
      "country_id": 142
    },
    {
      "id": 68605,
      "name": "Benito Juárez II (San Martín)",
      "name_default": "Benito Juárez II (San Martín)",
      "native": "Benito Juárez II (San Martín)",
      "type": "city",
      "level": null,
      "parent_id": null,
      "population": 1553,
      "latitude": "18.14056000",
      "longitude": "-96.46139000",
      "timezone": "America/Mexico_City",
      "wikiDataId": "Q20261660",
      "country_code": "MX",
      "state_code": "OAX",
      "state_id": 3448,
      "country_id": 142
    },
    {
      "id": 68614,
      "name": "Betânia",
      "name_default": "Bethania",
      "native": "Hornear",
      "type": "city",
      "level": null,
      "parent_id": null,
      "population": 1866,
      "latitude": "17.91939000",
      "longitude": "-96.00459000",
      "timezone": "America/Mexico_City",
      "wikiDataId": "Q20144308",
      "country_code": "MX",
      "state_code": "OAX",
      "state_id": 3448,
      "country_id": 142
    },
    {
      "id": 68650,
      "name": "Brisas de Zicatela",
      "name_default": "Brisas de Zicatela",
      "native": "Brisas de Zicatela",
      "type": "city",
      "level": null,
      "parent_id": null,
      "population": 9771,
      "latitude": "15.83694000",
      "longitude": "-97.04194000",
      "timezone": "America/Mexico_City",
      "wikiDataId": "Q5734043",
      "country_code": "MX",
      "state_code": "OAX",
      "state_id": 3448,
      "country_id": 142
    },
    {
      "id": 68723,
      "name": "Cajonos",
      "name_default": "Cajonos",
      "native": "Cajonos",
      "type": "adm2",
      "level": null,
      "parent_id": null,
      "population": 354,
      "latitude": "17.16801000",
      "longitude": "-96.26174000",
      "timezone": "America/Mexico_City",
      "wikiDataId": "Q3889115",
      "country_code": "MX",
      "state_code": "OAX",
      "state_id": 3448,
      "country_id": 142
    },
    {
      "id": 68737,
      "name": "Calihualá",
      "name_default": "Calihualá",
      "native": "Calia",
      "type": "adm2",
      "level": null,
      "parent_id": null,
      "population": 643,
      "latitude": "17.53134000",
      "longitude": "-98.27792000",
      "timezone": "America/Mexico_City",
      "wikiDataId": "Q4576809",
      "country_code": "MX",
      "state_code": "OAX",
      "state_id": 3448,
      "country_id": 142
    },
    {
      "id": 68762,
      "name": "Camélia Roja",
      "name_default": "Camelia Roja",
      "native": "Camelia Roja",
      "type": "city",
      "level": null,
      "parent_id": null,
      "population": 1560,
      "latitude": "18.02833000",
      "longitude": "-96.20806000",
      "timezone": "America/Mexico_City",
      "wikiDataId": "Q20255161",
      "country_code": "MX",
      "state_code": "OAX",
      "state_id": 3448,
      "country_id": 142
    },
    {
      "id": 68767,
      "name": "Camotinchan",
      "name_default": "Camotinchan",
      "native": "Camotinchan",
      "type": "city",
      "level": null,
      "parent_id": null,
      "population": 1035,
      "latitude": "16.55873000",
      "longitude": "-98.12433000",
      "timezone": "America/Mexico_City",
      "wikiDataId": "Q3893085",
      "country_code": "MX",
      "state_code": "OAX",
      "state_id": 3448,
      "country_id": 142
    },
    {
      "id": 68790,
      "name": "Candelária Loxicha",
      "name_default": "Candelaria Loxicha",
      "native": "Candelaria Loxicha",
      "type": "adm2",
      "level": null,
      "parent_id": null,
      "population": 2072,
      "latitude": "15.92638000",
      "longitude": "-96.49268000",
      "timezone": "America/Mexico_City",
      "wikiDataId": "Q3845777",
      "country_code": "MX",
      "state_code": "OAX",
      "state_id": 3448,
      "country_id": 142
    },
    {
      "id": 68812,
      "name": "Capulálpam de Méndez",
      "name_default": "Capulálpam de Méndez",
      "native": "Capulálpam de Méndez",
      "type": "city",
      "level": null,
      "parent_id": null,
      "population": 1549,
      "latitude": "17.30972000",
      "longitude": "-96.44656000",
      "timezone": "America/Mexico_City",
      "wikiDataId": "Q590948",
      "country_code": "MX",
      "state_code": "OAX",
      "state_id": 3448,
      "country_id": 142
    },
    {
      "id": 68921,
      "name": "Cerro Armadillo Grande",
      "name_default": "Cerro Armadillo Grande",
      "native": "Cerro Armadillo Grande",
      "type": "city",
      "level": null,
      "parent_id": null,
      "population": 1266,
      "latitude": "17.86611000",
      "longitude": "-96.30861000",
      "timezone": "America/Mexico_City",
      "wikiDataId": "Q20275392",
      "country_code": "MX",
      "state_code": "OAX",
      "state_id": 3448,
      "country_id": 142
    },
    {
      "id": 68938,
      "name": "Cerro del Aire",
      "name_default": "Cerro del Aire",
      "native": "Cerro del Aire",
      "type": "city",
      "level": null,
      "parent_id": null,
      "population": 1535,
      "latitude": "16.11012000",
      "longitude": "-97.20438000",
      "timezone": "America/Mexico_City",
      "wikiDataId": "Q3311798",
      "country_code": "MX",
      "state_code": "OAX",
      "state_id": 3448,
      "country_id": 142
    },
    {
      "id": 68932,
      "name": "Cerro Quemado",
      "name_default": "Cerro Quemado",
      "native": "Cerro Quemado",
      "type": "city",
      "level": null,
      "parent_id": null,
      "population": 1122,
      "latitude": "18.15417000",
      "longitude": "-96.57500000",
      "timezone": "America/Mexico_City",
      "wikiDataId": "Q20257997",
      "country_code": "MX",
      "state_code": "OAX",
      "state_id": 3448,
      "country_id": 142
    },
    {
      "id": 68952,
      "name": "Chahuité",
      "name_default": "Chahuite",
      "native": "Chahuita",
      "type": "city",
      "level": null,
      "parent_id": null,
      "population": 9837,
      "latitude": "16.30000000",
      "longitude": "-94.18333000",
      "timezone": "America/Mexico_City",
      "wikiDataId": "Q20229969",
      "country_code": "MX",
      "state_code": "OAX",
      "state_id": 3448,
      "country_id": 142
    },
    {
      "id": 68953,
      "name": "Chahuites",
      "name_default": "Chahuites",
      "native": "Chahuitos",
      "type": "city",
      "level": null,
      "parent_id": null,
      "population": 11413,
      "latitude": "16.28842000",
      "longitude": "-94.19478000",
      "timezone": "America/Mexico_City",
      "wikiDataId": "Q20229969",
      "country_code": "MX",
      "state_code": "OAX",
      "state_id": 3448,
      "country_id": 142
    },
    {
      "id": 69015,
      "name": "Chicahua",
      "name_default": "Chicahua",
      "native": "Chicahua",
      "type": "city",
      "level": null,
      "parent_id": null,
      "population": 680,
      "latitude": "17.63667000",
      "longitude": "-97.19497000",
      "timezone": "America/Mexico_City",
      "wikiDataId": "Q3890564",
      "country_code": "MX",
      "state_code": "OAX",
      "state_id": 3448,
      "country_id": 142
    },
    {
      "id": 69017,
      "name": "Chicapa de Castro",
      "name_default": "Chicapa de Castro",
      "native": "Chicapa de Castro",
      "type": "city",
      "level": null,
      "parent_id": null,
      "population": 3143,
      "latitude": "16.43844000",
      "longitude": "-94.82206000",
      "timezone": "America/Mexico_City",
      "wikiDataId": "Q20229267",
      "country_code": "MX",
      "state_code": "OAX",
      "state_id": 3448,
      "country_id": 142
    },
    {
      "id": 69200,
      "name": "Ciénega de Zimatlán",
      "name_default": "Ciénega de Zimatlán",
      "native": "Ciénega de Zimatlán",
      "type": "adm2",
      "level": null,
      "parent_id": null,
      "population": 2753,
      "latitude": "16.89366000",
      "longitude": "-96.76801000",
      "timezone": "America/Mexico_City",
      "wikiDataId": "Q3845604",
      "country_code": "MX",
      "state_code": "OAX",
      "state_id": 3448,
      "country_id": 142
    },
    {
      "id": 69128,
      "name": "Cieneguilla",
      "name_default": "Cieneguilla",
      "native": "Cieneguilla",
      "type": "city",
      "level": null,
      "parent_id": null,
      "population": 1330,
      "latitude": "16.32353000",
      "longitude": "-97.31762000",
      "timezone": "America/Mexico_City",
      "wikiDataId": "Q20262248",
      "country_code": "MX",
      "state_code": "OAX",
      "state_id": 3448,
      "country_id": 142
    },
    {
      "id": 69189,
      "name": "Cidade de Huajuapan de León",
      "name_default": "Ciudad de Huajuapan de León",
      "native": "Ciudad de Huajuapan de León",
      "type": "adm2",
      "level": null,
      "parent_id": null,
      "population": 53043,
      "latitude": "17.80787000",
      "longitude": "-97.77956000",
      "timezone": "America/Mexico_City",
      "wikiDataId": "Q1005759",
      "country_code": "MX",
      "state_code": "OAX",
      "state_id": 3448,
      "country_id": 142
    },
    {
      "id": 69223,
      "name": "Coatacas Altas",
      "name_default": "Coatecas Altas",
      "native": "Coatecas Altas",
      "type": "adm2",
      "level": null,
      "parent_id": null,
      "population": 2851,
      "latitude": "16.53926000",
      "longitude": "-96.66878000",
      "timezone": "America/Mexico_City",
      "wikiDataId": "Q1754447",
      "country_code": "MX",
      "state_code": "OAX",
      "state_id": 3448,
      "country_id": 142
    },
    {
      "id": 69253,
      "name": "Coixtlahuaca",
      "name_default": "Coixtlahuaca",
      "native": "Coextlahuaca",
      "type": "adm2",
      "level": null,
      "parent_id": null,
      "population": null,
      "latitude": "17.72021000",
      "longitude": "-97.31880000",
      "timezone": "America/Mexico_City",
      "wikiDataId": "Q3891868",
      "country_code": "MX",
      "state_code": "OAX",
      "state_id": 3448,
      "country_id": 142
    },
    {
      "id": 69262,
      "name": "Collantes",
      "name_default": "Collantes",
      "native": "Cola",
      "type": "city",
      "level": null,
      "parent_id": null,
      "population": 2235,
      "latitude": "16.18810000",
      "longitude": "-97.97184000",
      "timezone": "America/Mexico_City",
      "wikiDataId": "Q3847092",
      "country_code": "MX",
      "state_code": "OAX",
      "state_id": 3448,
      "country_id": 142
    },
    {
      "id": 69315,
      "name": "Colônia Jordânia",
      "name_default": "Colonia Jordán",
      "native": "Colonia Jordán",
      "type": "city",
      "level": null,
      "parent_id": null,
      "population": 1182,
      "latitude": "16.38893000",
      "longitude": "-95.20203000",
      "timezone": "America/Mexico_City",
      "wikiDataId": "Q20129626",
      "country_code": "MX",
      "state_code": "OAX",
      "state_id": 3448,
      "country_id": 142
    },
    {
      "id": 69317,
      "name": "Colônia Juárez",
      "name_default": "Colonia Juárez",
      "native": "Colonia Juárez",
      "type": "city",
      "level": null,
      "parent_id": null,
      "population": 2803,
      "latitude": "16.20967000",
      "longitude": "-95.02722000",
      "timezone": "America/Mexico_City",
      "wikiDataId": "Q20262438",
      "country_code": "MX",
      "state_code": "OAX",
      "state_id": 3448,
      "country_id": 142
    },
    {
      "id": 69394,
      "name": "Colônia la Central",
      "name_default": "Colonia la Central",
      "native": "Colonia la Central",
      "type": "city",
      "level": null,
      "parent_id": null,
      "population": 1133,
      "latitude": "18.08666000",
      "longitude": "-96.51619000",
      "timezone": "America/Mexico_City",
      "wikiDataId": "Q20262442",
      "country_code": "MX",
      "state_code": "OAX",
      "state_id": 3448,
      "country_id": 142
    },
    {
      "id": 69352,
      "name": "Colônia Progresso",
      "name_default": "Colonia Progreso",
      "native": "Colonia Progreso",
      "type": "city",
      "level": null,
      "parent_id": null,
      "population": 2703,
      "latitude": "16.80111000",
      "longitude": "-95.07972000",
      "timezone": "America/Mexico_City",
      "wikiDataId": "Q20131553",
      "country_code": "MX",
      "state_code": "OAX",
      "state_id": 3448,
      "country_id": 142
    },
    {
      "id": 69358,
      "name": "Colônia Rincón Viejo",
      "name_default": "Colonia Rincón Viejo",
      "native": "Colonia Rincón Viejo",
      "type": "city",
      "level": null,
      "parent_id": null,
      "population": 8540,
      "latitude": "16.88678000",
      "longitude": "-95.04731000",
      "timezone": "America/Mexico_City",
      "wikiDataId": "Q20129060",
      "country_code": "MX",
      "state_code": "OAX",
      "state_id": 3448,
      "country_id": 142
    },
    {
      "id": 69366,
      "name": "Colônia San Luis",
      "name_default": "Colonia San Luis",
      "native": "Colonia San Luis",
      "type": "city",
      "level": null,
      "parent_id": null,
      "population": 1027,
      "latitude": "16.38000000",
      "longitude": "-95.24111000",
      "timezone": "America/Mexico_City",
      "wikiDataId": "Q20262484",
      "country_code": "MX",
      "state_code": "OAX",
      "state_id": 3448,
      "country_id": 142
    },
    {
      "id": 69439,
      "name": "Concepción Pápalo",
      "name_default": "Concepción Pápalo",
      "native": "Concepción Pápalo",
      "type": "city",
      "level": null,
      "parent_id": null,
      "population": 674,
      "latitude": "17.85391000",
      "longitude": "-96.84472000",
      "timezone": "America/Mexico_City",
      "wikiDataId": "Q10862721",
      "country_code": "MX",
      "state_code": "OAX",
      "state_id": 3448,
      "country_id": 142
    },
    {
      "id": 69461,
      "name": "Constância do Rosário",
      "name_default": "Constancia del Rosario",
      "native": "Constancia del Rosario",
      "type": "adm2",
      "level": null,
      "parent_id": null,
      "population": 1205,
      "latitude": "17.03820000",
      "longitude": "-97.94125000",
      "timezone": "America/Mexico_City",
      "wikiDataId": "Q5163604",
      "country_code": "MX",
      "state_code": "OAX",
      "state_id": 3448,
      "country_id": 142
    },
    {
      "id": 69466,
      "name": "Constituição Mexicana",
      "name_default": "Constitución Mexicana",
      "native": "Constitución Mexicana",
      "type": "city",
      "level": null,
      "parent_id": null,
      "population": 1222,
      "latitude": "17.34102000",
      "longitude": "-95.37326000",
      "timezone": "America/Mexico_City",
      "wikiDataId": "Q20211730",
      "country_code": "MX",
      "state_code": "OAX",
      "state_id": 3448,
      "country_id": 142
    },
    {
      "id": 69487,
      "name": "Curral de Piedra",
      "name_default": "Corral de Piedra",
      "native": "Corral de Piedra",
      "type": "city",
      "level": null,
      "parent_id": null,
      "population": 1066,
      "latitude": "18.24528000",
      "longitude": "-96.30556000",
      "timezone": "America/Mexico_City",
      "wikiDataId": "Q20134517",
      "country_code": "MX",
      "state_code": "OAX",
      "state_id": 3448,
      "country_id": 142
    },
    {
      "id": 69491,
      "name": "Corralero",
      "name_default": "Corralero",
      "native": "Corralero",
      "type": "city",
      "level": null,
      "parent_id": null,
      "population": 1735,
      "latitude": "16.23846000",
      "longitude": "-98.18952000",
      "timezone": "America/Mexico_City",
      "wikiDataId": "Q20134699",
      "country_code": "MX",
      "state_code": "OAX",
      "state_id": 3448,
      "country_id": 142
    },
    {
      "id": 69505,
      "name": "Cosoltepec",
      "name_default": "Cosoltepec",
      "native": "Cosoltepec",
      "type": "adm2",
      "level": null,
      "parent_id": null,
      "population": 379,
      "latitude": "18.14255000",
      "longitude": "-97.79084000",
      "timezone": "America/Mexico_City",
      "wikiDataId": "Q3893403",
      "country_code": "MX",
      "state_code": "OAX",
      "state_id": 3448,
      "country_id": 142
    },
    {
      "id": 69538,
      "name": "Crucecita",
      "name_default": "Crucecita",
      "native": "Cruz",
      "type": "city",
      "level": null,
      "parent_id": null,
      "population": 15130,
      "latitude": "15.76889000",
      "longitude": "-96.13500000",
      "timezone": "America/Mexico_City",
      "wikiDataId": "Q20262542",
      "country_code": "MX",
      "state_code": "OAX",
      "state_id": 3448,
      "country_id": 142
    },
    {
      "id": 69563,
      "name": "Cuapinolito (Azulillo)",
      "name_default": "Cuapinolito (Azulillo)",
      "native": "Cuapinolito (Azulillo)",
      "type": "city",
      "level": null,
      "parent_id": null,
      "population": 1259,
      "latitude": "15.82194000",
      "longitude": "-96.31833000",
      "timezone": "America/Mexico_City",
      "wikiDataId": "Q20262569",
      "country_code": "MX",
      "state_code": "OAX",
      "state_id": 3448,
      "country_id": 142
    },
    {
      "id": 69579,
      "name": "Cuauhtémoc",
      "name_default": "Cuauhtémoc",
      "native": "Cuauhtémoc",
      "type": "city",
      "level": null,
      "parent_id": null,
      "population": 2264,
      "latitude": "17.10149000",
      "longitude": "-94.88532000",
      "timezone": "America/Mexico_City",
      "wikiDataId": "Q20224559",
      "country_code": "MX",
      "state_code": "OAX",
      "state_id": 3448,
      "country_id": 142
    },
    {
      "id": 69625,
      "name": "Cuicatlán",
      "name_default": "Cuicatlan",
      "native": "Cuicatlán",
      "type": "city",
      "level": null,
      "parent_id": null,
      "population": 3908,
      "latitude": "17.80272000",
      "longitude": "-96.95939000",
      "timezone": "America/Mexico_City",
      "wikiDataId": "Q10812437",
      "country_code": "MX",
      "state_code": "OAX",
      "state_id": 3448,
      "country_id": 142
    },
    {
      "id": 69627,
      "name": "Cuilapan de Guerrero",
      "name_default": "Cuilapan de Guerrero",
      "native": "Cuilapan de Guerrero",
      "type": "adm2",
      "level": null,
      "parent_id": null,
      "population": 12360,
      "latitude": "16.97756000",
      "longitude": "-96.78081000",
      "timezone": "America/Mexico_City",
      "wikiDataId": "Q3625184",
      "country_code": "MX",
      "state_code": "OAX",
      "state_id": 3448,
      "country_id": 142
    },
    {
      "id": 69714,
      "name": "Donaji",
      "name_default": "Donaji",
      "native": "Donaji",
      "type": "city",
      "level": null,
      "parent_id": null,
      "population": 2362,
      "latitude": "17.22950000",
      "longitude": "-95.05295000",
      "timezone": "America/Mexico_City",
      "wikiDataId": "Q20258219",
      "country_code": "MX",
      "state_code": "OAX",
      "state_id": 3448,
      "country_id": 142
    },
    {
      "id": 69819,
      "name": "Ejutla de Crespo",
      "name_default": "Ejutla de Crespo",
      "native": "Ejutla de Crespo",
      "type": "adm2",
      "level": null,
      "parent_id": null,
      "population": 9748,
      "latitude": "16.56623000",
      "longitude": "-96.73123000",
      "timezone": "America/Mexico_City",
      "wikiDataId": "Q1144317",
      "country_code": "MX",
      "state_code": "OAX",
      "state_id": 3448,
      "country_id": 142
    },
    {
      "id": 69830,
      "name": "El Arador",
      "name_default": "El Arador",
      "native": "El Arador",
      "type": "city",
      "level": null,
      "parent_id": null,
      "population": 1533,
      "latitude": "16.54111000",
      "longitude": "-97.18194000",
      "timezone": "America/Mexico_City",
      "wikiDataId": "Q20262679",
      "country_code": "MX",
      "state_code": "OAX",
      "state_id": 3448,
      "country_id": 142
    },
    {
      "id": 69836,
      "name": "El Bajío",
      "name_default": "El Bajío",
      "native": "El Bajío",
      "type": "city",
      "level": null,
      "parent_id": null,
      "population": 1717,
      "latitude": "16.88917000",
      "longitude": "-95.03528000",
      "timezone": "America/Mexico_City",
      "wikiDataId": "Q20262710",
      "country_code": "MX",
      "state_code": "OAX",
      "state_id": 3448,
      "country_id": 142
    },
    {
      "id": 69842,
      "name": "El Barrio de la Soledad",
      "name_default": "El Barrio de la Soledad",
      "native": "El Barrio de la Soledad",
      "type": "city",
      "level": null,
      "parent_id": null,
      "population": 18944,
      "latitude": "16.80131000",
      "longitude": "-95.03909000",
      "timezone": "America/Mexico_City",
      "wikiDataId": "Q949138",
      "country_code": "MX",
      "state_code": "OAX",
      "state_id": 3448,
      "country_id": 142
    },
    {
      "id": 69856,
      "name": "El Camalote",
      "name_default": "El Camalote",
      "native": "El Camalote",
      "type": "city",
      "level": null,
      "parent_id": null,
      "population": 1046,
      "latitude": "15.87250000",
      "longitude": "-96.62361000",
      "timezone": "America/Mexico_City",
      "wikiDataId": "Q20230502",
      "country_code": "MX",
      "state_code": "OAX",
      "state_id": 3448,
      "country_id": 142
    },
    {
      "id": 69857,
      "name": "El Camarón",
      "name_default": "El Camarón",
      "native": "El Camarón",
      "type": "city",
      "level": null,
      "parent_id": null,
      "population": 2170,
      "latitude": "16.55745000",
      "longitude": "-96.02868000",
      "timezone": "America/Mexico_City",
      "wikiDataId": "Q20230502",
      "country_code": "MX",
      "state_code": "OAX",
      "state_id": 3448,
      "country_id": 142
    },
    {
      "id": 69867,
      "name": "El Capulín (La Nueva Pochota)",
      "name_default": "El Capulín (La Nueva Pochota)",
      "native": "El Capulín (La Nueva Pochota)",
      "type": "city",
      "level": null,
      "parent_id": null,
      "population": 1073,
      "latitude": "18.22972000",
      "longitude": "-96.27806000",
      "timezone": "America/Mexico_City",
      "wikiDataId": "Q20262807",
      "country_code": "MX",
      "state_code": "OAX",
      "state_id": 3448,
      "country_id": 142
    },
    {
      "id": 69881,
      "name": "O Carrizal",
      "name_default": "El Carrizal",
      "native": "El Carrizal",
      "type": "city",
      "level": null,
      "parent_id": null,
      "population": 116,
      "latitude": "16.06438000",
      "longitude": "-95.39308000",
      "timezone": "America/Mexico_City",
      "wikiDataId": "Q27767960",
      "country_code": "MX",
      "state_code": "OAX",
      "state_id": 3448,
      "country_id": 142
    },
    {
      "id": 69884,
      "name": "El Carrizo",
      "name_default": "El Carrizo",
      "native": "El Carrizo",
      "type": "city",
      "level": null,
      "parent_id": null,
      "population": 1723,
      "latitude": "16.25453000",
      "longitude": "-98.03080000",
      "timezone": "America/Mexico_City",
      "wikiDataId": "Q27767960",
      "country_code": "MX",
      "state_code": "OAX",
      "state_id": 3448,
      "country_id": 142
    },
    {
      "id": 69902,
      "name": "O Chocolate",
      "name_default": "El Chocolate",
      "native": "El Chocolate",
      "type": "city",
      "level": null,
      "parent_id": null,
      "population": 1101,
      "latitude": "16.93191000",
      "longitude": "-95.08946000",
      "timezone": "America/Mexico_City",
      "wikiDataId": "Q20206225",
      "country_code": "MX",
      "state_code": "OAX",
      "state_id": 3448,
      "country_id": 142
    },
    {
      "id": 69906,
      "name": "El Ciruelo",
      "name_default": "El Ciruelo",
      "native": "El Ciruelo",
      "type": "city",
      "level": null,
      "parent_id": null,
      "population": 2215,
      "latitude": "16.31780000",
      "longitude": "-98.25707000",
      "timezone": "America/Mexico_City",
      "wikiDataId": "Q20241854",
      "country_code": "MX",
      "state_code": "OAX",
      "state_id": 3448,
      "country_id": 142
    },
    {
      "id": 69933,
      "name": "El Coyul",
      "name_default": "El Coyul",
      "native": "El Coyul",
      "type": "city",
      "level": null,
      "parent_id": null,
      "population": 2204,
      "latitude": "15.91472000",
      "longitude": "-95.81028000",
      "timezone": "America/Mexico_City",
      "wikiDataId": "Q20262981",
      "country_code": "MX",
      "state_code": "OAX",
      "state_id": 3448,
      "country_id": 142
    },
    {
      "id": 69963,
      "name": "O Espinal",
      "name_default": "El Espinal",
      "native": "El Espinal",
      "type": "adm2",
      "level": null,
      "parent_id": null,
      "population": 7616,
      "latitude": "16.46751000",
      "longitude": "-95.04198000",
      "timezone": "America/Mexico_City",
      "wikiDataId": "Q4968496",
      "country_code": "MX",
      "state_code": "OAX",
      "state_id": 3448,
      "country_id": 142
    },
    {
      "id": 70044,
      "name": "O Moinho",
      "name_default": "El Molino",
      "native": "El Molino",
      "type": "city",
      "level": null,
      "parent_id": null,
      "population": 1907,
      "latitude": "17.77536000",
      "longitude": "-97.75227000",
      "timezone": "America/Mexico_City",
      "wikiDataId": "Q20238151",
      "country_code": "MX",
      "state_code": "OAX",
      "state_id": 3448,
      "country_id": 142
    },
    {
      "id": 70051,
      "name": "El Morro",
      "name_default": "El Morro",
      "native": "El Morro",
      "type": "city",
      "level": null,
      "parent_id": null,
      "population": 2625,
      "latitude": "16.09745000",
      "longitude": "-95.37906000",
      "timezone": "America/Mexico_City",
      "wikiDataId": "Q20242065",
      "country_code": "MX",
      "state_code": "OAX",
      "state_id": 3448,
      "country_id": 142
    },
    {
      "id": 70115,
      "name": "O Porvenir",
      "name_default": "El Porvenir",
      "native": "El Porvenir",
      "type": "city",
      "level": null,
      "parent_id": null,
      "population": 1580,
      "latitude": "17.47446000",
      "longitude": "-95.25596000",
      "timezone": "America/Mexico_City",
      "wikiDataId": "Q20280373",
      "country_code": "MX",
      "state_code": "OAX",
      "state_id": 3448,
      "country_id": 142
    },
    {
      "id": 70171,
      "name": "O Rosário",
      "name_default": "El Rosario",
      "native": "El Rosario",
      "type": "city",
      "level": null,
      "parent_id": null,
      "population": 11707,
      "latitude": "17.04271000",
      "longitude": "-96.69209000",
      "timezone": "America/Mexico_City",
      "wikiDataId": "Q41772392",
      "country_code": "MX",
      "state_code": "OAX",
      "state_id": 3448,
      "country_id": 142
    },
    {
      "id": 70274,
      "name": "Eloxochitlán de Flores Magón",
      "name_default": "Eloxochitlán de Flores Magón",
      "native": "Eloxochitlán de Flores Magón",
      "type": "adm2",
      "level": null,
      "parent_id": null,
      "population": 811,
      "latitude": "18.17724000",
      "longitude": "-96.87538000",
      "timezone": "America/Mexico_City",
      "wikiDataId": "Q2651860",
      "country_code": "MX",
      "state_code": "OAX",
      "state_id": 3448,
      "country_id": 142
    },
    {
      "id": 70301,
      "name": "Encinal Colorado",
      "name_default": "Encinal Colorado",
      "native": "Encinal Colorado",
      "type": "city",
      "level": null,
      "parent_id": null,
      "population": 1120,
      "latitude": "17.00995000",
      "longitude": "-95.10732000",
      "timezone": "America/Mexico_City",
      "wikiDataId": "Q20134655",
      "country_code": "MX",
      "state_code": "OAX",
      "state_id": 3448,
      "country_id": 142
    },
    {
      "id": 70347,
      "name": "Estação Mogoñé",
      "name_default": "Estación Mogoñé",
      "native": "Estación Mogoñé",
      "type": "city",
      "level": null,
      "parent_id": null,
      "population": 1466,
      "latitude": "16.99472000",
      "longitude": "-95.03667000",
      "timezone": "America/Mexico_City",
      "wikiDataId": "Q20135954",
      "country_code": "MX",
      "state_code": "OAX",
      "state_id": 3448,
      "country_id": 142
    },
    {
      "id": 70404,
      "name": "Flor Batávia",
      "name_default": "Flor Batavia",
      "native": "Flor Batavia",
      "type": "city",
      "level": null,
      "parent_id": null,
      "population": 1368,
      "latitude": "17.98475000",
      "longitude": "-96.51880000",
      "timezone": "America/Mexico_City",
      "wikiDataId": "Q20138339",
      "country_code": "MX",
      "state_code": "OAX",
      "state_id": 3448,
      "country_id": 142
    },
    {
      "id": 70414,
      "name": "Fracionamento Ciudad Yagul",
      "name_default": "Fraccionamiento Ciudad Yagul",
      "native": "Fraccionamiento Ciudad Yagul",
      "type": "city",
      "level": null,
      "parent_id": null,
      "population": 2408,
      "latitude": "16.97750000",
      "longitude": "-96.46194000",
      "timezone": "America/Mexico_City",
      "wikiDataId": "Q20263904",
      "country_code": "MX",
      "state_code": "OAX",
      "state_id": 3448,
      "country_id": 142
    },
    {
      "id": 70419,
      "name": "Fracionamento Ex-Hacienda Catano",
      "name_default": "Fraccionamiento Ex-Hacienda Catano",
      "native": "Fraccionamiento Ex-Hacienda Catano",
      "type": "city",
      "level": null,
      "parent_id": null,
      "population": 2403,
      "latitude": "17.22750000",
      "longitude": "-96.81556000",
      "timezone": "America/Mexico_City",
      "wikiDataId": "Q20138990",
      "country_code": "MX",
      "state_code": "OAX",
      "state_id": 3448,
      "country_id": 142
    },
    {
      "id": 70437,
      "name": "Fracionamento Real del Valle",
      "name_default": "Fraccionamiento Real del Valle",
      "native": "Fraccionamiento Real del Valle",
      "type": "city",
      "level": null,
      "parent_id": null,
      "population": 1821,
      "latitude": "16.93278000",
      "longitude": "-96.76778000",
      "timezone": "America/Mexico_City",
      "wikiDataId": "Q20282116",
      "country_code": "MX",
      "state_code": "OAX",
      "state_id": 3448,
      "country_id": 142
    },
    {
      "id": 70438,
      "name": "Fracionamento Riberas de San Jerónimo",
      "name_default": "Fraccionamiento Riberas de San Jerónimo",
      "native": "Fraccionamiento Riberas de San Jerónimo",
      "type": "city",
      "level": null,
      "parent_id": null,
      "population": 1191,
      "latitude": "17.11250000",
      "longitude": "-96.77722000",
      "timezone": "America/Mexico_City",
      "wikiDataId": "Q20139326",
      "country_code": "MX",
      "state_code": "OAX",
      "state_id": 3448,
      "country_id": 142
    },
    {
      "id": 70440,
      "name": "Fracionamento San Miguel",
      "name_default": "Fraccionamiento San Miguel",
      "native": "Fraccionamiento San Miguel",
      "type": "city",
      "level": null,
      "parent_id": null,
      "population": 1884,
      "latitude": "17.21278000",
      "longitude": "-96.78694000",
      "timezone": "America/Mexico_City",
      "wikiDataId": "Q20231602",
      "country_code": "MX",
      "state_code": "OAX",
      "state_id": 3448,
      "country_id": 142
    },
    {
      "id": 70470,
      "name": "Francisco Ibarra Ramos",
      "name_default": "Francisco Ibarra Ramos",
      "native": "Francisco Ibarra Ramos",
      "type": "city",
      "level": null,
      "parent_id": null,
      "population": 1132,
      "latitude": "17.97781000",
      "longitude": "-97.91748000",
      "timezone": "America/Mexico_City",
      "wikiDataId": "Q20139675",
      "country_code": "MX",
      "state_code": "OAX",
      "state_id": 3448,
      "country_id": 142
    },
    {
      "id": 70543,
      "name": "General Pascual Fentes",
      "name_default": "General Pascual Fentes",
      "native": "General Pascual Fentes",
      "type": "city",
      "level": null,
      "parent_id": null,
      "population": 1082,
      "latitude": "16.43472000",
      "longitude": "-94.26270000",
      "timezone": "America/Mexico_City",
      "wikiDataId": "Q20239615",
      "country_code": "MX",
      "state_code": "OAX",
      "state_id": 3448,
      "country_id": 142
    },
    {
      "id": 70582,
      "name": "Guadalupe Etla",
      "name_default": "Guadalupe Etla",
      "native": "Guadalupe etla",
      "type": "city",
      "level": null,
      "parent_id": null,
      "population": 1851,
      "latitude": "17.17268000",
      "longitude": "-96.81022000",
      "timezone": "America/Mexico_City",
      "wikiDataId": "Q20142672",
      "country_code": "MX",
      "state_code": "OAX",
      "state_id": 3448,
      "country_id": 142
    },
    {
      "id": 70584,
      "name": "Guadalupe Hidalgo",
      "name_default": "Guadalupe Hidalgo",
      "native": "Guadalupe Hidalgo",
      "type": "city",
      "level": null,
      "parent_id": null,
      "population": 1270,
      "latitude": "17.14950000",
      "longitude": "-96.81109000",
      "timezone": "America/Mexico_City",
      "wikiDataId": "Q20142672",
      "country_code": "MX",
      "state_code": "OAX",
      "state_id": 3448,
      "country_id": 142
    },
    {
      "id": 70596,
      "name": "Guadalupe Vitória",
      "name_default": "Guadalupe Victoria",
      "native": "Guadalupe Victoria",
      "type": "city",
      "level": null,
      "parent_id": null,
      "population": 1147,
      "latitude": "16.89627000",
      "longitude": "-95.84981000",
      "timezone": "America/Mexico_City",
      "wikiDataId": "Q20142988",
      "country_code": "MX",
      "state_code": "OAX",
      "state_id": 3448,
      "country_id": 142
    },
    {
      "id": 70614,
      "name": "Guamúchil",
      "name_default": "Guamúchil",
      "native": "Guamúchil",
      "type": "city",
      "level": null,
      "parent_id": null,
      "population": 1828,
      "latitude": "16.36937000",
      "longitude": "-94.66863000",
      "timezone": "America/Mexico_City",
      "wikiDataId": "Q20143051",
      "country_code": "MX",
      "state_code": "OAX",
      "state_id": 3448,
      "country_id": 142
    },
    {
      "id": 70636,
      "name": "Guixé",
      "name_default": "Guixé",
      "native": "Yeso",
      "type": "city",
      "level": null,
      "parent_id": null,
      "population": 1033,
      "latitude": "16.46991000",
      "longitude": "-96.70271000",
      "timezone": "America/Mexico_City",
      "wikiDataId": "Q20225428",
      "country_code": "MX",
      "state_code": "OAX",
      "state_id": 3448,
      "country_id": 142
    },
    {
      "id": 70651,
      "name": "Fazenda Branca",
      "name_default": "Hacienda Blanca",
      "native": "Hacienda Blanca",
      "type": "city",
      "level": null,
      "parent_id": null,
      "population": 7758,
      "latitude": "17.13994000",
      "longitude": "-96.77590000",
      "timezone": "America/Mexico_City",
      "wikiDataId": "Q20227981",
      "country_code": "MX",
      "state_code": "OAX",
      "state_id": 3448,
      "country_id": 142
    },
    {
      "id": 70676,
      "name": "Heroica Cidade de Ejutla de Crespo",
      "name_default": "Heroica Ciudad de Ejutla de Crespo",
      "native": "Heroica Ciudad de Ejutla de Crespo",
      "type": "adm2",
      "level": null,
      "parent_id": null,
      "population": 9748,
      "latitude": "16.57835000",
      "longitude": "-96.73079000",
      "timezone": "America/Mexico_City",
      "wikiDataId": "Q17266451",
      "country_code": "MX",
      "state_code": "OAX",
      "state_id": 3448,
      "country_id": 142
    },
    {
      "id": 70677,
      "name": "Heroica Cidade de Juchitán de Zaragoza",
      "name_default": "Heroica Ciudad de Juchitán de Zaragoza",
      "native": "Heroica Ciudad de Juchitán de Zaragoza",
      "type": "adm2",
      "level": null,
      "parent_id": null,
      "population": null,
      "latitude": "16.44873000",
      "longitude": "-94.98619000",
      "timezone": "America/Mexico_City",
      "wikiDataId": "Q10972458",
      "country_code": "MX",
      "state_code": "OAX",
      "state_id": 3448,
      "country_id": 142
    },
    {
      "id": 70678,
      "name": "Heroica Ciudad de Tlaxiaco",
      "name_default": "Heroica Ciudad de Tlaxiaco",
      "native": "Heroica Ciudad de Tlaxiaco",
      "type": "adm2",
      "level": null,
      "parent_id": null,
      "population": 17543,
      "latitude": "17.26916000",
      "longitude": "-97.68053000",
      "timezone": "America/Mexico_City",
      "wikiDataId": "Q2652096",
      "country_code": "MX",
      "state_code": "OAX",
      "state_id": 3448,
      "country_id": 142
    },
    {
      "id": 70720,
      "name": "Huajintepec",
      "name_default": "Huajintepec",
      "native": "Hujjintepec",
      "type": "city",
      "level": null,
      "parent_id": null,
      "population": 2567,
      "latitude": "16.61003000",
      "longitude": "-98.23028000",
      "timezone": "America/Mexico_City",
      "wikiDataId": "Q2651771",
      "country_code": "MX",
      "state_code": "OAX",
      "state_id": 3448,
      "country_id": 142
    },
    {
      "id": 70745,
      "name": "Huautepec",
      "name_default": "Huautepec",
      "native": "Huautepec",
      "type": "adm2",
      "level": null,
      "parent_id": null,
      "population": 1620,
      "latitude": "18.10138000",
      "longitude": "-96.79590000",
      "timezone": "America/Mexico_City",
      "wikiDataId": "Q4969046",
      "country_code": "MX",
      "state_code": "OAX",
      "state_id": 3448,
      "country_id": 142
    },
    {
      "id": 70753,
      "name": "Huazantlán del Río",
      "name_default": "Huazantlán del Río",
      "native": "Huazantlán del Río",
      "type": "city",
      "level": null,
      "parent_id": null,
      "population": 1514,
      "latitude": "16.21932000",
      "longitude": "-95.12864000",
      "timezone": "America/Mexico_City",
      "wikiDataId": "Q5926420",
      "country_code": "MX",
      "state_code": "OAX",
      "state_id": 3448,
      "country_id": 142
    },
    {
      "id": 70853,
      "name": "Inácio Zaragoza",
      "name_default": "Ignacio Zaragoza",
      "native": "Ignacio Zaragoza",
      "type": "city",
      "level": null,
      "parent_id": null,
      "population": 1357,
      "latitude": "17.53556000",
      "longitude": "-95.89361000",
      "timezone": "America/Mexico_City",
      "wikiDataId": "Q20231752",
      "country_code": "MX",
      "state_code": "OAX",
      "state_id": 3448,
      "country_id": 142
    },
    {
      "id": 70886,
      "name": "Ilha Soyaltepec",
      "name_default": "Isla Soyaltepec",
      "native": "Isla Soyaltepec",
      "type": "city",
      "level": null,
      "parent_id": null,
      "population": 8116,
      "latitude": "18.20107000",
      "longitude": "-96.48325000",
      "timezone": "America/Mexico_City",
      "wikiDataId": "Q20147735",
      "country_code": "MX",
      "state_code": "OAX",
      "state_id": 3448,
      "country_id": 142
    },
    {
      "id": 70919,
      "name": "Ixpantepec Neves",
      "name_default": "Ixpantepec Nieves",
      "native": "Ixpantepec nieves",
      "type": "adm2",
      "level": null,
      "parent_id": null,
      "population": 687,
      "latitude": "17.50690000",
      "longitude": "-98.04264000",
      "timezone": "America/Mexico_City",
      "wikiDataId": "Q4968045",
      "country_code": "MX",
      "state_code": "OAX",
      "state_id": 3448,
      "country_id": 142
    },
    {
      "id": 70934,
      "name": "Ixtepec",
      "name_default": "Ixtepec",
      "native": "Ixtepec",
      "type": "adm2",
      "level": null,
      "parent_id": null,
      "population": 25381,
      "latitude": "16.56052000",
      "longitude": "-95.10375000",
      "timezone": "America/Mexico_City",
      "wikiDataId": "Q20140723",
      "country_code": "MX",
      "state_code": "OAX",
      "state_id": 3448,
      "country_id": 142
    },
    {
      "id": 70944,
      "name": "Ixtlán de Juárez",
      "name_default": "Ixtlán de Juárez",
      "native": "Ixtlán de Juárez",
      "type": "city",
      "level": null,
      "parent_id": null,
      "population": 2718,
      "latitude": "17.33211000",
      "longitude": "-96.48812000",
      "timezone": "America/Mexico_City",
      "wikiDataId": "Q17092778",
      "country_code": "MX",
      "state_code": "OAX",
      "state_id": 3448,
      "country_id": 142
    },
    {
      "id": 70964,
      "name": "Jalapa",
      "name_default": "Jalapa",
      "native": "Jalapa",
      "type": "city",
      "level": null,
      "parent_id": null,
      "population": 5001,
      "latitude": "16.50000000",
      "longitude": "-95.46667000",
      "timezone": "America/Mexico_City",
      "wikiDataId": "Q20148465",
      "country_code": "MX",
      "state_code": "OAX",
      "state_id": 3448,
      "country_id": 142
    },
    {
      "id": 70987,
      "name": "Jaltepec de Candayoc",
      "name_default": "Jaltepec de Candayoc",
      "native": "Jaltepec de Candayoc",
      "type": "city",
      "level": null,
      "parent_id": null,
      "population": 1770,
      "latitude": "17.35495000",
      "longitude": "-95.41428000",
      "timezone": "America/Mexico_City",
      "wikiDataId": "Q20236036",
      "country_code": "MX",
      "state_code": "OAX",
      "state_id": 3448,
      "country_id": 142
    },
    {
      "id": 70988,
      "name": "Jaltepetongo",
      "name_default": "Jaltepetongo",
      "native": "Jaltepetongo",
      "type": "city",
      "level": null,
      "parent_id": null,
      "population": null,
      "latitude": "17.68623000",
      "longitude": "-97.03569000",
      "timezone": "America/Mexico_City",
      "wikiDataId": "Q3890464",
      "country_code": "MX",
      "state_code": "OAX",
      "state_id": 3448,
      "country_id": 142
    },
    {
      "id": 70998,
      "name": "Jamiltepec",
      "name_default": "Jamiltepec",
      "native": "Yo",
      "type": "city",
      "level": null,
      "parent_id": null,
      "population": null,
      "latitude": "16.28258000",
      "longitude": "-97.82446000",
      "timezone": "America/Mexico_City",
      "wikiDataId": "Q2448285",
      "country_code": "MX",
      "state_code": "OAX",
      "state_id": 3448,
      "country_id": 142
    },
    {
      "id": 71095,
      "name": "José Maria Morelos",
      "name_default": "José María Morelos",
      "native": "José María Morelos",
      "type": "city",
      "level": null,
      "parent_id": null,
      "population": 2331,
      "latitude": "16.20389000",
      "longitude": "-97.93000000",
      "timezone": "America/Mexico_City",
      "wikiDataId": "Q20264248",
      "country_code": "MX",
      "state_code": "OAX",
      "state_id": 3448,
      "country_id": 142
    },
    {
      "id": 71133,
      "name": "Juchitán de Zaragoza",
      "name_default": "Juchitán de Zaragoza",
      "native": "Juchitán de Zaragoza",
      "type": "adm2",
      "level": null,
      "parent_id": null,
      "population": 88280,
      "latitude": "16.43603000",
      "longitude": "-95.01975000",
      "timezone": "America/Mexico_City",
      "wikiDataId": "Q1710837",
      "country_code": "MX",
      "state_code": "OAX",
      "state_id": 3448,
      "country_id": 142
    },
    {
      "id": 71181,
      "name": "La Barra de Colotepec",
      "name_default": "La Barra de Colotepec",
      "native": "La Barra de Colotepec",
      "type": "city",
      "level": null,
      "parent_id": null,
      "population": 1224,
      "latitude": "15.82546000",
      "longitude": "-97.02882000",
      "timezone": "America/Mexico_City",
      "wikiDataId": "Q20286020",
      "country_code": "MX",
      "state_code": "OAX",
      "state_id": 3448,
      "country_id": 142
    },
    {
      "id": 71183,
      "name": "La Blanca",
      "name_default": "La Blanca",
      "native": "La Blanca",
      "type": "city",
      "level": null,
      "parent_id": null,
      "population": 1223,
      "latitude": "16.59482000",
      "longitude": "-94.69256000",
      "timezone": "America/Mexico_City",
      "wikiDataId": "Q20264380",
      "country_code": "MX",
      "state_code": "OAX",
      "state_id": 3448,
      "country_id": 142
    },
    {
      "id": 71208,
      "name": "A Cañada",
      "name_default": "La Cañada",
      "native": "La Cañada",
      "type": "city",
      "level": null,
      "parent_id": null,
      "population": 1033,
      "latitude": "17.07000000",
      "longitude": "-96.77806000",
      "timezone": "America/Mexico_City",
      "wikiDataId": "Q20264429",
      "country_code": "MX",
      "state_code": "OAX",
      "state_id": 3448,
      "country_id": 142
    },
    {
      "id": 71196,
      "name": "A Candelária",
      "name_default": "La Candelaria",
      "native": "La Candelaria",
      "type": "city",
      "level": null,
      "parent_id": null,
      "population": 1641,
      "latitude": "17.21833000",
      "longitude": "-95.93306000",
      "timezone": "America/Mexico_City",
      "wikiDataId": "Q20286898",
      "country_code": "MX",
      "state_code": "OAX",
      "state_id": 3448,
      "country_id": 142
    },
    {
      "id": 71264,
      "name": "A Erradura",
      "name_default": "La Erradura",
      "native": "La Erradura",
      "type": "city",
      "level": null,
      "parent_id": null,
      "population": 1077,
      "latitude": "15.83402000",
      "longitude": "-96.33478000",
      "timezone": "America/Mexico_City",
      "wikiDataId": "Q20264749",
      "country_code": "MX",
      "state_code": "OAX",
      "state_id": 3448,
      "country_id": 142
    },
    {
      "id": 71321,
      "name": "A Humedad",
      "name_default": "La Humedad",
      "native": "La Humedad",
      "type": "city",
      "level": null,
      "parent_id": null,
      "population": 1434,
      "latitude": "16.58222000",
      "longitude": "-97.66724000",
      "timezone": "America/Mexico_City",
      "wikiDataId": "Q20290874",
      "country_code": "MX",
      "state_code": "OAX",
      "state_id": 3448,
      "country_id": 142
    },
    {
      "id": 71337,
      "name": "A Junta",
      "name_default": "La Junta",
      "native": "La Junta",
      "type": "city",
      "level": null,
      "parent_id": null,
      "population": 1015,
      "latitude": "17.82778000",
      "longitude": "-97.74556000",
      "timezone": "America/Mexico_City",
      "wikiDataId": "Q20251578",
      "country_code": "MX",
      "state_code": "OAX",
      "state_id": 3448,
      "country_id": 142
    },
    {
      "id": 71371,
      "name": "La Luz",
      "name_default": "La Luz",
      "native": "La Luz",
      "type": "city",
      "level": null,
      "parent_id": null,
      "population": 2444,
      "latitude": "16.11477000",
      "longitude": "-97.59570000",
      "timezone": "America/Mexico_City",
      "wikiDataId": "Q20291739",
      "country_code": "MX",
      "state_code": "OAX",
      "state_id": 3448,
      "country_id": 142
    },
    {
      "id": 71395,
      "name": "La Mina",
      "name_default": "La Mina",
      "native": "La Mina",
      "type": "city",
      "level": null,
      "parent_id": null,
      "population": 1480,
      "latitude": "17.98689000",
      "longitude": "-96.09978000",
      "timezone": "America/Mexico_City",
      "wikiDataId": "Q20292215",
      "country_code": "MX",
      "state_code": "OAX",
      "state_id": 3448,
      "country_id": 142
    },
    {
      "id": 71407,
      "name": "La Noria",
      "name_default": "La Noria",
      "native": "La Noria",
      "type": "city",
      "level": null,
      "parent_id": null,
      "population": 2420,
      "latitude": "16.25444000",
      "longitude": "-95.22056000",
      "timezone": "America/Mexico_City",
      "wikiDataId": "Q20264981",
      "country_code": "MX",
      "state_code": "OAX",
      "state_id": 3448,
      "country_id": 142
    },
    {
      "id": 71437,
      "name": "La Pe",
      "name_default": "La Pe",
      "native": "La Pe",
      "type": "adm2",
      "level": null,
      "parent_id": null,
      "population": 1990,
      "latitude": "16.63027000",
      "longitude": "-96.79766000",
      "timezone": "America/Mexico_City",
      "wikiDataId": "Q3892800",
      "country_code": "MX",
      "state_code": "OAX",
      "state_id": 3448,
      "country_id": 142
    },
    {
      "id": 71471,
      "name": "A Reforma",
      "name_default": "La Reforma",
      "native": "La Reforma",
      "type": "city",
      "level": null,
      "parent_id": null,
      "population": 1362,
      "latitude": "16.62414000",
      "longitude": "-97.84544000",
      "timezone": "America/Mexico_City",
      "wikiDataId": "Q7731295",
      "country_code": "MX",
      "state_code": "OAX",
      "state_id": 3448,
      "country_id": 142
    },
    {
      "id": 71500,
      "name": "La Tabaquera",
      "name_default": "La Tabaquera",
      "native": "La Tabaquera",
      "type": "city",
      "level": null,
      "parent_id": null,
      "population": 1222,
      "latitude": "18.33582000",
      "longitude": "-96.45129000",
      "timezone": "America/Mexico_City",
      "wikiDataId": "Q20293791",
      "country_code": "MX",
      "state_code": "OAX",
      "state_id": 3448,
      "country_id": 142
    },
    {
      "id": 71527,
      "name": "La Venta",
      "name_default": "La Venta",
      "native": "La Venta",
      "type": "city",
      "level": null,
      "parent_id": null,
      "population": 2161,
      "latitude": "16.57109000",
      "longitude": "-94.81773000",
      "timezone": "America/Mexico_City",
      "wikiDataId": "Q20138180",
      "country_code": "MX",
      "state_code": "OAX",
      "state_id": 3448,
      "country_id": 142
    },
    {
      "id": 71529,
      "name": "La Ventosa",
      "name_default": "La Ventosa",
      "native": "La Ventosa",
      "type": "city",
      "level": null,
      "parent_id": null,
      "population": 4884,
      "latitude": "16.55188000",
      "longitude": "-94.94762000",
      "timezone": "America/Mexico_City",
      "wikiDataId": "Q20256098",
      "country_code": "MX",
      "state_code": "OAX",
      "state_id": 3448,
      "country_id": 142
    },
    {
      "id": 71574,
      "name": "As Amilpas",
      "name_default": "Las Amilpas",
      "native": "Las Amilpas",
      "type": "city",
      "level": null,
      "parent_id": null,
      "population": 0,
      "latitude": "16.36667000",
      "longitude": "-94.61667000",
      "timezone": "America/Mexico_City",
      "wikiDataId": "Q20294885",
      "country_code": "MX",
      "state_code": "OAX",
      "state_id": 3448,
      "country_id": 142
    },
    {
      "id": 71618,
      "name": "As Margaritas",
      "name_default": "Las Margaritas",
      "native": "Las Margaritas",
      "type": "city",
      "level": null,
      "parent_id": null,
      "population": 1925,
      "latitude": "18.25501000",
      "longitude": "-96.28421000",
      "timezone": "America/Mexico_City",
      "wikiDataId": "Q1962619",
      "country_code": "MX",
      "state_code": "OAX",
      "state_id": 3448,
      "country_id": 142
    },
    {
      "id": 71887,
      "name": "Lázaro Cárdenas",
      "name_default": "Lázaro Cárdenas",
      "native": "Lázaro Cárdenas",
      "type": "city",
      "level": null,
      "parent_id": null,
      "population": 1375,
      "latitude": "16.72818000",
      "longitude": "-94.85981000",
      "timezone": "America/Mexico_City",
      "wikiDataId": "Q20232770",
      "country_code": "MX",
      "state_code": "OAX",
      "state_id": 3448,
      "country_id": 142
    },
    {
      "id": 71690,
      "name": "Llano de Agua",
      "name_default": "Llano de Agua",
      "native": "Llano de Agua",
      "type": "city",
      "level": null,
      "parent_id": null,
      "population": 1108,
      "latitude": "18.10611000",
      "longitude": "-96.81083000",
      "timezone": "America/Mexico_City",
      "wikiDataId": "Q20265284",
      "country_code": "MX",
      "state_code": "OAX",
      "state_id": 3448,
      "country_id": 142
    },
    {
      "id": 71689,
      "name": "Llano Suchiapa",
      "name_default": "Llano Suchiapa",
      "native": "Llano Suchipa",
      "type": "city",
      "level": null,
      "parent_id": null,
      "population": 2465,
      "latitude": "16.86611000",
      "longitude": "-95.05389000",
      "timezone": "America/Mexico_City",
      "wikiDataId": "Q20265400",
      "country_code": "MX",
      "state_code": "OAX",
      "state_id": 3448,
      "country_id": 142
    },
    {
      "id": 71714,
      "name": "Loma Bonita",
      "name_default": "Loma Bonita",
      "native": "Bonita de vacaciones",
      "type": "city",
      "level": null,
      "parent_id": null,
      "population": 40934,
      "latitude": "18.10721000",
      "longitude": "-95.87904000",
      "timezone": "America/Mexico_City",
      "wikiDataId": "Q2448133",
      "country_code": "MX",
      "state_code": "OAX",
      "state_id": 3448,
      "country_id": 142
    },
    {
      "id": 71718,
      "name": "Loma Chapultepec",
      "name_default": "Loma Chapultepec",
      "native": "Loma Chapultepec",
      "type": "city",
      "level": null,
      "parent_id": null,
      "population": 1042,
      "latitude": "18.11972000",
      "longitude": "-96.83917000",
      "timezone": "America/Mexico_City",
      "wikiDataId": "Q20233036",
      "country_code": "MX",
      "state_code": "OAX",
      "state_id": 3448,
      "country_id": 142
    },
    {
      "id": 71870,
      "name": "Los Angeles",
      "name_default": "Los Ángeles",
      "native": "Los Ángeles",
      "type": "city",
      "level": null,
      "parent_id": null,
      "population": 1144,
      "latitude": "17.39485000",
      "longitude": "-95.16540000",
      "timezone": "America/Mexico_City",
      "wikiDataId": "Q20143055",
      "country_code": "MX",
      "state_code": "OAX",
      "state_id": 3448,
      "country_id": 142
    },
    {
      "id": 71821,
      "name": "Los Naranjos Esquipulas",
      "name_default": "Los Naranjos Esquipulas",
      "native": "Los Naranjos Esquipulas",
      "type": "city",
      "level": null,
      "parent_id": null,
      "population": 1136,
      "latitude": "15.98167000",
      "longitude": "-96.45889000",
      "timezone": "America/Mexico_City",
      "wikiDataId": "Q20138678",
      "country_code": "MX",
      "state_code": "OAX",
      "state_id": 3448,
      "country_id": 142
    },
    {
      "id": 71916,
      "name": "Macín Chico",
      "name_default": "Macín Chico",
      "native": "Macín Chico",
      "type": "city",
      "level": null,
      "parent_id": null,
      "population": 1195,
      "latitude": "18.06820000",
      "longitude": "-96.27184000",
      "timezone": "America/Mexico_City",
      "wikiDataId": "Q20233301",
      "country_code": "MX",
      "state_code": "OAX",
      "state_id": 3448,
      "country_id": 142
    },
    {
      "id": 71911,
      "name": "Macuilxóchitl de Artigas Carranza",
      "name_default": "Macuilxóchitl de Artigas Carranza",
      "native": "Macullachóchl de Artigal Carraza",
      "type": "city",
      "level": null,
      "parent_id": null,
      "population": 2633,
      "latitude": "17.01583000",
      "longitude": "-96.54000000",
      "timezone": "America/Mexico_City",
      "wikiDataId": "Q20233302",
      "country_code": "MX",
      "state_code": "OAX",
      "state_id": 3448,
      "country_id": 142
    },
    {
      "id": 71921,
      "name": "Madalena Apasco",
      "name_default": "Magdalena Apasco",
      "native": "Magdalena Apasco",
      "type": "city",
      "level": null,
      "parent_id": null,
      "population": 2824,
      "latitude": "17.24083000",
      "longitude": "-96.82083000",
      "timezone": "America/Mexico_City",
      "wikiDataId": "Q1656601",
      "country_code": "MX",
      "state_code": "OAX",
      "state_id": 3448,
      "country_id": 142
    },
    {
      "id": 71925,
      "name": "Madalena Jaltepec",
      "name_default": "Magdalena Jaltepec",
      "native": "Magdalena Jaltepec",
      "type": "adm2",
      "level": null,
      "parent_id": null,
      "population": 496,
      "latitude": "17.32318000",
      "longitude": "-97.22122000",
      "timezone": "America/Mexico_City",
      "wikiDataId": "Q3889124",
      "country_code": "MX",
      "state_code": "OAX",
      "state_id": 3448,
      "country_id": 142
    },
    {
      "id": 71926,
      "name": "Madalena Mixtepec",
      "name_default": "Magdalena Mixtepec",
      "native": "Magdalena mixtepec",
      "type": "adm2",
      "level": null,
      "parent_id": null,
      "population": 584,
      "latitude": "16.89659000",
      "longitude": "-96.90618000",
      "timezone": "America/Mexico_City",
      "wikiDataId": "Q3305435",
      "country_code": "MX",
      "state_code": "OAX",
      "state_id": 3448,
      "country_id": 142
    },
    {
      "id": 71927,
      "name": "Madalena Ocotlán",
      "name_default": "Magdalena Ocotlán",
      "native": "Magdalena Ocotlán",
      "type": "city",
      "level": null,
      "parent_id": null,
      "population": 1084,
      "latitude": "16.70865000",
      "longitude": "-96.71010000",
      "timezone": "America/Mexico_City",
      "wikiDataId": "Q3889046",
      "country_code": "MX",
      "state_code": "OAX",
      "state_id": 3448,
      "country_id": 142
    },
    {
      "id": 71928,
      "name": "Madalena Teitipac",
      "name_default": "Magdalena Teitipac",
      "native": "Magdalena Teitipac",
      "type": "adm2",
      "level": null,
      "parent_id": null,
      "population": 4297,
      "latitude": "16.90393000",
      "longitude": "-96.55840000",
      "timezone": "America/Mexico_City",
      "wikiDataId": "Q3889608",
      "country_code": "MX",
      "state_code": "OAX",
      "state_id": 3448,
      "country_id": 142
    },
    {
      "id": 71929,
      "name": "Magdalena Tequisistlán",
      "name_default": "Magdalena Tequisistlán",
      "native": "Magdalena Tequisistlán",
      "type": "adm2",
      "level": null,
      "parent_id": null,
      "population": 3829,
      "latitude": "16.39929000",
      "longitude": "-95.60204000",
      "timezone": "America/Mexico_City",
      "wikiDataId": "Q2447707",
      "country_code": "MX",
      "state_code": "OAX",
      "state_id": 3448,
      "country_id": 142
    },
    {
      "id": 71930,
      "name": "Madalena Tlacotepec",
      "name_default": "Magdalena Tlacotepec",
      "native": "Magdalena Tlacotepec",
      "type": "city",
      "level": null,
      "parent_id": null,
      "population": 1180,
      "latitude": "16.50416000",
      "longitude": "-95.20248000",
      "timezone": "America/Mexico_City",
      "wikiDataId": "Q3891051",
      "country_code": "MX",
      "state_code": "OAX",
      "state_id": 3448,
      "country_id": 142
    },
    {
      "id": 71931,
      "name": "Magdalena Yodocono de Porfirio Díaz",
      "name_default": "Magdalena Yodocono de Porfirio Díaz",
      "native": "Magdalena Yodocono de Porfirio Díaz",
      "type": "adm2",
      "level": null,
      "parent_id": null,
      "population": 870,
      "latitude": "17.38470000",
      "longitude": "-97.35530000",
      "timezone": "America/Mexico_City",
      "wikiDataId": "Q8054290",
      "country_code": "MX",
      "state_code": "OAX",
      "state_id": 3448,
      "country_id": 142
    },
    {
      "id": 71932,
      "name": "Madalena Zahuatlán",
      "name_default": "Magdalena Zahuatlán",
      "native": "Magdalena Zahuatlán",
      "type": "adm2",
      "level": null,
      "parent_id": null,
      "population": 338,
      "latitude": "17.38978000",
      "longitude": "-97.22747000",
      "timezone": "America/Mexico_City",
      "wikiDataId": "Q3891472",
      "country_code": "MX",
      "state_code": "OAX",
      "state_id": 3448,
      "country_id": 142
    },
    {
      "id": 71954,
      "name": "Mancuernas",
      "name_default": "Mancuernas",
      "native": "Mancuernas",
      "type": "city",
      "level": null,
      "parent_id": null,
      "population": 1825,
      "latitude": "16.38940000",
      "longitude": "-98.11018000",
      "timezone": "America/Mexico_City",
      "wikiDataId": "Q20144341",
      "country_code": "MX",
      "state_code": "OAX",
      "state_id": 3448,
      "country_id": 142
    },
    {
      "id": 72005,
      "name": "Maria Lombardo de Caso",
      "name_default": "María Lombardo de Caso",
      "native": "María Lombardo de Caso",
      "type": "city",
      "level": null,
      "parent_id": null,
      "population": 3857,
      "latitude": "17.44931000",
      "longitude": "-95.42821000",
      "timezone": "America/Mexico_City",
      "wikiDataId": "Q20270603",
      "country_code": "MX",
      "state_code": "OAX",
      "state_id": 3448,
      "country_id": 142
    },
    {
      "id": 71996,
      "name": "Mariscala de Juárez",
      "name_default": "Mariscala de Juárez",
      "native": "Mariscala de Juárez",
      "type": "city",
      "level": null,
      "parent_id": null,
      "population": 2017,
      "latitude": "17.85972000",
      "longitude": "-98.14083000",
      "timezone": "America/Mexico_City",
      "wikiDataId": "Q20145723",
      "country_code": "MX",
      "state_code": "OAX",
      "state_id": 3448,
      "country_id": 142
    },
    {
      "id": 72024,
      "name": "Matías Romero",
      "name_default": "Matías Romero",
      "native": "Matías Romero",
      "type": "city",
      "level": null,
      "parent_id": null,
      "population": 18944,
      "latitude": "16.87902000",
      "longitude": "-95.03939000",
      "timezone": "America/Mexico_City",
      "wikiDataId": "Q2447764",
      "country_code": "MX",
      "state_code": "OAX",
      "state_id": 3448,
      "country_id": 142
    },
    {
      "id": 72048,
      "name": "Mazatlán Villa de Flores",
      "name_default": "Mazatlán Villa de Flores",
      "native": "Mazatlán Villa de Flores",
      "type": "adm2",
      "level": null,
      "parent_id": null,
      "population": 976,
      "latitude": "18.03264000",
      "longitude": "-96.91404000",
      "timezone": "America/Mexico_City",
      "wikiDataId": "Q3891812",
      "country_code": "MX",
      "state_code": "OAX",
      "state_id": 3448,
      "country_id": 142
    },
    {
      "id": 72052,
      "name": "Mazín Grande",
      "name_default": "Mazín Grande",
      "native": "Mazín Grande",
      "type": "city",
      "level": null,
      "parent_id": null,
      "population": 1619,
      "latitude": "18.11630000",
      "longitude": "-96.30956000",
      "timezone": "America/Mexico_City",
      "wikiDataId": "Q3311957",
      "country_code": "MX",
      "state_code": "OAX",
      "state_id": 3448,
      "country_id": 142
    },
    {
      "id": 72077,
      "name": "Merced del Potrero",
      "name_default": "Merced del Potrero",
      "native": "Merced del Potrero",
      "type": "city",
      "level": null,
      "parent_id": null,
      "population": 2175,
      "latitude": "16.04679000",
      "longitude": "-96.07048000",
      "timezone": "America/Mexico_City",
      "wikiDataId": "Q1921059",
      "country_code": "MX",
      "state_code": "OAX",
      "state_id": 3448,
      "country_id": 142
    },
    {
      "id": 72085,
      "name": "Mesones Hidalgo",
      "name_default": "Mesones Hidalgo",
      "native": "Mesones Hidalgo",
      "type": "city",
      "level": null,
      "parent_id": null,
      "population": null,
      "latitude": "16.92208000",
      "longitude": "-97.99765000",
      "timezone": "America/Mexico_City",
      "wikiDataId": "Q4843615",
      "country_code": "MX",
      "state_code": "OAX",
      "state_id": 3448,
      "country_id": 142
    },
    {
      "id": 72117,
      "name": "Miahuatlán de Porfirio Díaz",
      "name_default": "Miahuatlán de Porfirio Díaz",
      "native": "Miahuatlán de Porfirio Díaz",
      "type": "adm2",
      "level": null,
      "parent_id": null,
      "population": 23940,
      "latitude": "16.33276000",
      "longitude": "-96.59562000",
      "timezone": "America/Mexico_City",
      "wikiDataId": "Q2449310",
      "country_code": "MX",
      "state_code": "OAX",
      "state_id": 3448,
      "country_id": 142
    },
    {
      "id": 72165,
      "name": "Mixistlán de la Reforma",
      "name_default": "Mixistlán de la Reforma",
      "native": "Mixistlán de la Reforma",
      "type": "city",
      "level": null,
      "parent_id": null,
      "population": null,
      "latitude": "17.14669000",
      "longitude": "-96.10669000",
      "timezone": "America/Mexico_City",
      "wikiDataId": "Q3172018",
      "country_code": "MX",
      "state_code": "OAX",
      "state_id": 3448,
      "country_id": 142
    },
    {
      "id": 72217,
      "name": "Montenegro la Lana",
      "name_default": "Montenegro la Lana",
      "native": "Montenegro la Lana",
      "type": "city",
      "level": null,
      "parent_id": null,
      "population": 1282,
      "latitude": "17.59296000",
      "longitude": "-95.86510000",
      "timezone": "America/Mexico_City",
      "wikiDataId": "Q4302020",
      "country_code": "MX",
      "state_code": "OAX",
      "state_id": 3448,
      "country_id": 142
    },
    {
      "id": 72275,
      "name": "Nanahuatípam",
      "name_default": "Nanahuatípam",
      "native": "Nanamattrseham",
      "type": "city",
      "level": null,
      "parent_id": null,
      "population": null,
      "latitude": "18.13414000",
      "longitude": "-97.12501000",
      "timezone": "America/Mexico_City",
      "wikiDataId": "Q3891084",
      "country_code": "MX",
      "state_code": "OAX",
      "state_id": 3448,
      "country_id": 142
    },
    {
      "id": 72288,
      "name": "Nativitas",
      "name_default": "Nativitas",
      "native": "Nacimiento",
      "type": "city",
      "level": null,
      "parent_id": null,
      "population": 60000,
      "latitude": "17.66160000",
      "longitude": "-97.33566000",
      "timezone": "America/Mexico_City",
      "wikiDataId": "Q20236291",
      "country_code": "MX",
      "state_code": "OAX",
      "state_id": 3448,
      "country_id": 142
    },
    {
      "id": 72300,
      "name": "Nazareno Etla",
      "name_default": "Nazareno Etla",
      "native": "Nazareno Etla",
      "type": "city",
      "level": null,
      "parent_id": null,
      "population": null,
      "latitude": "17.17667000",
      "longitude": "-96.83264000",
      "timezone": "America/Mexico_City",
      "wikiDataId": "Q1658592",
      "country_code": "MX",
      "state_code": "OAX",
      "state_id": 3448,
      "country_id": 142
    },
    {
      "id": 72309,
      "name": "Nejapa de Madero",
      "name_default": "Nejapa de Madero",
      "native": "Nejapa de Madero",
      "type": "city",
      "level": null,
      "parent_id": null,
      "population": 1513,
      "latitude": "16.60571000",
      "longitude": "-95.97855000",
      "timezone": "America/Mexico_City",
      "wikiDataId": "Q20208722",
      "country_code": "MX",
      "state_code": "OAX",
      "state_id": 3448,
      "country_id": 142
    },
    {
      "id": 72332,
      "name": "Niltepec",
      "name_default": "Niltepec",
      "native": "Niltepec",
      "type": "city",
      "level": null,
      "parent_id": null,
      "population": 3289,
      "latitude": "16.56401000",
      "longitude": "-94.61373000",
      "timezone": "America/Mexico_City",
      "wikiDataId": "Q20254676",
      "country_code": "MX",
      "state_code": "OAX",
      "state_id": 3448,
      "country_id": 142
    },
    {
      "id": 72388,
      "name": "Novo Ixcatlán",
      "name_default": "Nuevo Ixcatlán",
      "native": "Nuevo Ixcatlán",
      "type": "city",
      "level": null,
      "parent_id": null,
      "population": 3770,
      "latitude": "17.64145000",
      "longitude": "-95.43807000",
      "timezone": "America/Mexico_City",
      "wikiDataId": "Q3016779",
      "country_code": "MX",
      "state_code": "OAX",
      "state_id": 3448,
      "country_id": 142
    },
    {
      "id": 72403,
      "name": "Novo Paso Nazareno (Chichicazapa)",
      "name_default": "Nuevo Paso Nazareno (Chichicazapa)",
      "native": "Nuevo Paso Nazareno (Chichicazapa)",
      "type": "city",
      "level": null,
      "parent_id": null,
      "population": 2193,
      "latitude": "18.29667000",
      "longitude": "-96.34722000",
      "timezone": "America/Mexico_City",
      "wikiDataId": "Q20265485",
      "country_code": "MX",
      "state_code": "OAX",
      "state_id": 3448,
      "country_id": 142
    },
    {
      "id": 72411,
      "name": "Novo San Martín",
      "name_default": "Nuevo San Martín",
      "native": "Nuevo San Martín",
      "type": "city",
      "level": null,
      "parent_id": null,
      "population": 1195,
      "latitude": "17.57987000",
      "longitude": "-95.52346000",
      "timezone": "America/Mexico_City",
      "wikiDataId": "Q964656",
      "country_code": "MX",
      "state_code": "OAX",
      "state_id": 3448,
      "country_id": 142
    },
    {
      "id": 72432,
      "name": "Oaxaca",
      "name_default": "Oaxaca",
      "native": "Oaxaca",
      "type": "adm1",
      "level": null,
      "parent_id": null,
      "population": 255029,
      "latitude": "17.06542000",
      "longitude": "-96.72365000",
      "timezone": "America/Mexico_City",
      "wikiDataId": "Q131429",
      "country_code": "MX",
      "state_code": "OAX",
      "state_id": 3448,
      "country_id": 142
    },
    {
      "id": 72433,
      "name": "Oaxaca de Juárez",
      "name_default": "Oaxaca de Juárez",
      "native": "Oaxaca de Juárez",
      "type": "adm2",
      "level": null,
      "parent_id": null,
      "population": 300050,
      "latitude": "17.11345000",
      "longitude": "-96.73556000",
      "timezone": "America/Mexico_City",
      "wikiDataId": "Q2000066",
      "country_code": "MX",
      "state_code": "OAX",
      "state_id": 3448,
      "country_id": 142
    },
    {
      "id": 72460,
      "name": "Ocotlán de Morelos",
      "name_default": "Ocotlán de Morelos",
      "native": "Ocotlán de Morelos",
      "type": "adm2",
      "level": null,
      "parent_id": null,
      "population": 15016,
      "latitude": "16.79151000",
      "longitude": "-96.67455000",
      "timezone": "America/Mexico_City",
      "wikiDataId": "Q20208784",
      "country_code": "MX",
      "state_code": "OAX",
      "state_id": 3448,
      "country_id": 142
    },
    {
      "id": 72612,
      "name": "Palomares",
      "name_default": "Palomares",
      "native": "Palomares",
      "type": "city",
      "level": null,
      "parent_id": null,
      "population": 3760,
      "latitude": "17.13830000",
      "longitude": "-95.06266000",
      "timezone": "America/Mexico_City",
      "wikiDataId": "Q20265606",
      "country_code": "MX",
      "state_code": "OAX",
      "state_id": 3448,
      "country_id": 142
    },
    {
      "id": 72631,
      "name": "Papaloapan",
      "name_default": "Papaloapan",
      "native": "Papaloapan",
      "type": "city",
      "level": null,
      "parent_id": null,
      "population": 2302,
      "latitude": "18.16087000",
      "longitude": "-96.09383000",
      "timezone": "America/Mexico_City",
      "wikiDataId": "Q20243645",
      "country_code": "MX",
      "state_code": "OAX",
      "state_id": 3448,
      "country_id": 142
    },
    {
      "id": 72678,
      "name": "Paso Canoa",
      "name_default": "Paso Canoa",
      "native": "Paso Canoa",
      "type": "city",
      "level": null,
      "parent_id": null,
      "population": 1155,
      "latitude": "18.01274000",
      "longitude": "-96.23786000",
      "timezone": "America/Mexico_City",
      "wikiDataId": "Q20260217",
      "country_code": "MX",
      "state_code": "OAX",
      "state_id": 3448,
      "country_id": 142
    },
    {
      "id": 72685,
      "name": "Paso Real de Sarabia",
      "name_default": "Paso Real de Sarabia",
      "native": "Paso Real de Sarabia",
      "type": "city",
      "level": null,
      "parent_id": null,
      "population": 1019,
      "latitude": "17.07389000",
      "longitude": "-95.04667000",
      "timezone": "America/Mexico_City",
      "wikiDataId": "Q2055629",
      "country_code": "MX",
      "state_code": "OAX",
      "state_id": 3448,
      "country_id": 142
    },
    {
      "id": 72749,
      "name": "Pena Colorada",
      "name_default": "Peña Colorada",
      "native": "Peña Colorada",
      "type": "city",
      "level": null,
      "parent_id": null,
      "population": 1012,
      "latitude": "17.47778000",
      "longitude": "-97.79417000",
      "timezone": "America/Mexico_City",
      "wikiDataId": "Q20265770",
      "country_code": "MX",
      "state_code": "OAX",
      "state_id": 3448,
      "country_id": 142
    },
    {
      "id": 72764,
      "name": "Pedra Branca",
      "name_default": "Piedra Blanca",
      "native": "Piedra Blanca",
      "type": "city",
      "level": null,
      "parent_id": null,
      "population": 1216,
      "latitude": "16.98861000",
      "longitude": "-95.01278000",
      "timezone": "America/Mexico_City",
      "wikiDataId": "Q20234004",
      "country_code": "MX",
      "state_code": "OAX",
      "state_id": 3448,
      "country_id": 142
    },
    {
      "id": 72769,
      "name": "Pedra de Amolar",
      "name_default": "Piedra de Amolar",
      "native": "Piedra de Amolar",
      "type": "city",
      "level": null,
      "parent_id": null,
      "population": 1992,
      "latitude": "18.12000000",
      "longitude": "-96.45122000",
      "timezone": "America/Mexico_City",
      "wikiDataId": "Q20234027",
      "country_code": "MX",
      "state_code": "OAX",
      "state_id": 3448,
      "country_id": 142
    },
    {
      "id": 72782,
      "name": "Pinotepa de Don Luis",
      "name_default": "Pinotepa de Don Luis",
      "native": "Pinotepa de Don Luis",
      "type": "adm2",
      "level": null,
      "parent_id": null,
      "population": 5692,
      "latitude": "16.42716000",
      "longitude": "-97.97678000",
      "timezone": "America/Mexico_City",
      "wikiDataId": "Q20265946",
      "country_code": "MX",
      "state_code": "OAX",
      "state_id": 3448,
      "country_id": 142
    },
    {
      "id": 72781,
      "name": "Pinotepa Nacional",
      "name_default": "Pinotepa Nacional",
      "native": "Pinotepa Nacional",
      "type": "adm2",
      "level": null,
      "parent_id": null,
      "population": 29604,
      "latitude": "16.34014000",
      "longitude": "-98.05297000",
      "timezone": "America/Mexico_City",
      "wikiDataId": "Q2074180",
      "country_code": "MX",
      "state_code": "OAX",
      "state_id": 3448,
      "country_id": 142
    },
    {
      "id": 72810,
      "name": "Praia Chica",
      "name_default": "Playa Chica",
      "native": "Playa Chica",
      "type": "city",
      "level": null,
      "parent_id": null,
      "population": 1273,
      "latitude": "18.06139000",
      "longitude": "-96.51833000",
      "timezone": "America/Mexico_City",
      "wikiDataId": "Q20266000",
      "country_code": "MX",
      "state_code": "OAX",
      "state_id": 3448,
      "country_id": 142
    },
    {
      "id": 72818,
      "name": "Pluma Hidalgo",
      "name_default": "Pluma Hidalgo",
      "native": "Pluma Hidalgo",
      "type": "adm2",
      "level": null,
      "parent_id": null,
      "population": null,
      "latitude": "15.92127000",
      "longitude": "-96.42977000",
      "timezone": "America/Mexico_City",
      "wikiDataId": "Q3893698",
      "country_code": "MX",
      "state_code": "OAX",
      "state_id": 3448,
      "country_id": 142
    },
    {
      "id": 72885,
      "name": "Praxedis de Guerrero",
      "name_default": "Praxedis de Guerrero",
      "native": "Praxedis de Guerrero",
      "type": "city",
      "level": null,
      "parent_id": null,
      "population": 1576,
      "latitude": "16.72000000",
      "longitude": "-96.64000000",
      "timezone": "America/Mexico_City",
      "wikiDataId": "Q20266054",
      "country_code": "MX",
      "state_code": "OAX",
      "state_id": 3448,
      "country_id": 142
    },
    {
      "id": 72915,
      "name": "Progresso",
      "name_default": "Progreso",
      "native": "Progreso",
      "type": "city",
      "level": null,
      "parent_id": null,
      "population": 1070,
      "latitude": "17.04528000",
      "longitude": "-97.57028000",
      "timezone": "America/Mexico_City",
      "wikiDataId": "Q20297174",
      "country_code": "MX",
      "state_code": "OAX",
      "state_id": 3448,
      "country_id": 142
    },
    {
      "id": 72948,
      "name": "Pueblo Viejo",
      "name_default": "Pueblo Viejo",
      "native": "Pueblo Viejo",
      "type": "city",
      "level": null,
      "parent_id": null,
      "population": 1406,
      "latitude": "17.90750000",
      "longitude": "-96.05778000",
      "timezone": "America/Mexico_City",
      "wikiDataId": "Q20239645",
      "country_code": "MX",
      "state_code": "OAX",
      "state_id": 3448,
      "country_id": 142
    },
    {
      "id": 72981,
      "name": "Puerto Ángel",
      "name_default": "Puerto Ángel",
      "native": "Puerto Ángel",
      "type": "city",
      "level": null,
      "parent_id": null,
      "population": 2645,
      "latitude": "15.66898000",
      "longitude": "-96.49095000",
      "timezone": "America/Mexico_City",
      "wikiDataId": "Q4384917",
      "country_code": "MX",
      "state_code": "OAX",
      "state_id": 3448,
      "country_id": 142
    },
    {
      "id": 72968,
      "name": "Puerto Escondido",
      "name_default": "Puerto Escondido",
      "native": "Puerto Escondido",
      "type": "city",
      "level": null,
      "parent_id": null,
      "population": 25902,
      "latitude": "15.87037000",
      "longitude": "-97.07726000",
      "timezone": "America/Mexico_City",
      "wikiDataId": "Q1752991",
      "country_code": "MX",
      "state_code": "OAX",
      "state_id": 3448,
      "country_id": 142
    },
    {
      "id": 73002,
      "name": "Putla Villa de Guerrero",
      "name_default": "Putla Villa de Guerrero",
      "native": "Putla Villa de Guerrero",
      "type": "adm2",
      "level": null,
      "parent_id": null,
      "population": 10925,
      "latitude": "17.02630000",
      "longitude": "-97.92854000",
      "timezone": "America/Mexico_City",
      "wikiDataId": "Q20266141",
      "country_code": "MX",
      "state_code": "OAX",
      "state_id": 3448,
      "country_id": 142
    },
    {
      "id": 73020,
      "name": "Quelové",
      "name_default": "Quelové",
      "native": "Quelové",
      "type": "city",
      "level": null,
      "parent_id": null,
      "population": 1037,
      "latitude": "15.98273000",
      "longitude": "-96.67890000",
      "timezone": "America/Mexico_City",
      "wikiDataId": "Q3845800",
      "country_code": "MX",
      "state_code": "OAX",
      "state_id": 3448,
      "country_id": 142
    },
    {
      "id": 73034,
      "name": "Quinicuena",
      "name_default": "Quinicuena",
      "native": "Quinicuena",
      "type": "city",
      "level": null,
      "parent_id": null,
      "population": 1053,
      "latitude": "16.53101000",
      "longitude": "-97.52385000",
      "timezone": "America/Mexico_City",
      "wikiDataId": "Q20298094",
      "country_code": "MX",
      "state_code": "OAX",
      "state_id": 3448,
      "country_id": 142
    },
    {
      "id": 73060,
      "name": "Rancho Grande",
      "name_default": "Rancho Grande",
      "native": "Rancho Grande",
      "type": "city",
      "level": null,
      "parent_id": null,
      "population": 1009,
      "latitude": "18.35389000",
      "longitude": "-96.34944000",
      "timezone": "America/Mexico_City",
      "wikiDataId": "Q20281961",
      "country_code": "MX",
      "state_code": "OAX",
      "state_id": 3448,
      "country_id": 142
    },
    {
      "id": 73072,
      "name": "Rancho Viejo",
      "name_default": "Rancho Viejo",
      "native": "Rancho Viejo",
      "type": "city",
      "level": null,
      "parent_id": null,
      "population": 825,
      "latitude": "16.33966000",
      "longitude": "-97.96399000",
      "timezone": "America/Mexico_City",
      "wikiDataId": "Q20219583",
      "country_code": "MX",
      "state_code": "OAX",
      "state_id": 3448,
      "country_id": 142
    },
    {
      "id": 73095,
      "name": "Reforma de Pineda",
      "name_default": "Reforma de Pineda",
      "native": "Reforma de Pineda",
      "type": "city",
      "level": null,
      "parent_id": null,
      "population": 2723,
      "latitude": "16.40103000",
      "longitude": "-94.45786000",
      "timezone": "America/Mexico_City",
      "wikiDataId": "Q617157",
      "country_code": "MX",
      "state_code": "OAX",
      "state_id": 3448,
      "country_id": 142
    },
    {
      "id": 73102,
      "name": "Reis Etla",
      "name_default": "Reyes Etla",
      "native": "Reyes Etla",
      "type": "city",
      "level": null,
      "parent_id": null,
      "population": 1954,
      "latitude": "17.20220000",
      "longitude": "-96.81802000",
      "timezone": "America/Mexico_City",
      "wikiDataId": "Q1658623",
      "country_code": "MX",
      "state_code": "OAX",
      "state_id": 3448,
      "country_id": 142
    },
    {
      "id": 73103,
      "name": "Reis Mantecón",
      "name_default": "Reyes Mantecón",
      "native": "Reyes Mantecón",
      "type": "city",
      "level": null,
      "parent_id": null,
      "population": 3962,
      "latitude": "16.90717000",
      "longitude": "-96.72702000",
      "timezone": "America/Mexico_City",
      "wikiDataId": "Q1658623",
      "country_code": "MX",
      "state_code": "OAX",
      "state_id": 3448,
      "country_id": 142
    },
    {
      "id": 73119,
      "name": "Rincón Moreno",
      "name_default": "Rincón Moreno",
      "native": "Rincón Moreno",
      "type": "city",
      "level": null,
      "parent_id": null,
      "population": 1018,
      "latitude": "16.23007000",
      "longitude": "-95.31327000",
      "timezone": "America/Mexico_City",
      "wikiDataId": "Q20285388",
      "country_code": "MX",
      "state_code": "OAX",
      "state_id": 3448,
      "country_id": 142
    },
    {
      "id": 73172,
      "name": "Rio Chiquito",
      "name_default": "Río Chiquito",
      "native": "Río Chiquito",
      "type": "city",
      "level": null,
      "parent_id": null,
      "population": 1940,
      "latitude": "17.61989000",
      "longitude": "-95.93688000",
      "timezone": "America/Mexico_City",
      "wikiDataId": "Q13422660",
      "country_code": "MX",
      "state_code": "OAX",
      "state_id": 3448,
      "country_id": 142
    },
    {
      "id": 73175,
      "name": "Rio Grande",
      "name_default": "Río Grande",
      "native": "Río Grande",
      "type": "city",
      "level": null,
      "parent_id": null,
      "population": 12943,
      "latitude": "16.01079000",
      "longitude": "-97.43574000",
      "timezone": "America/Mexico_City",
      "wikiDataId": "Q6115141",
      "country_code": "MX",
      "state_code": "OAX",
      "state_id": 3448,
      "country_id": 142
    },