{
  "locale": "fa",
  "country": {
    "id": 225,
    "code": "TR",
    "iso3": "TUR",
    "numeric_code": "792",
    "name": "ترکیه",
    "name_default": "Turkey",
    "native": "Türkiye",
    "capital": "Ankara",
    "phonecode": "90",
    "currency": "TRY",
    "currency_name": "Turkish lira",
    "currency_symbol": "₺",
    "tld": ".tr",
    "population": 85664944,
    "gdp": 1437406,
    "region": "Asia",
    "region_id": 3,
    "subregion": "Western Asia",
    "subregion_id": 11,
    "nationality": "Turkish",
    "timezones": [
      {
        "zoneName": "Europe/Istanbul",
        "gmtOffset": 10800,
        "gmtOffsetName": "UTC+03:00",
        "abbreviation": "EET",
        "tzName": "Eastern European Time"
      }
    ],
    "latitude": "39.00000000",
    "longitude": "35.00000000",
    "emoji": "🇹🇷",
    "emojiU": "U+1F1F9 U+1F1F7"
  },
  "state": {
    "id": 2212,
    "code": "01",
    "iso2": "01",
    "iso3166_2": "TR-01",
    "fips_code": "81",
    "name": "آدانا",
    "name_default": "Adana",
    "native": "Adana",
    "type": "province",
    "level": "1",
    "parent_id": null,
    "population": null,
    "latitude": "37.14380010",
    "longitude": "35.49840940",
    "timezone": "Europe/Istanbul",
    "wikiDataId": "Q40549",
    "country_code": "TR"
  },
  "cities": [
    {
      "id": 153788,
      "name": "آدانا",
      "name_default": "Adana",
      "native": "Adana",
      "type": "city",
      "level": null,
      "parent_id": null,
      "population": 1810646,
      "latitude": "36.99757530",
      "longitude": "35.12325260",
      "timezone": "Europe/Istanbul",
      "wikiDataId": "Q38545",
      "country_code": "TR",
      "state_code": "01",
      "state_id": 2212,
      "country_id": 225
    },
    {
      "id": 107120,
      "name": "آلاداغ",
      "name_default": "Aladağ",
      "native": "Aladağ",
      "type": "adm2",
      "level": null,
      "parent_id": null,
      "population": 15897,
      "latitude": "37.55854000",
      "longitude": "35.40196000",
      "timezone": "Europe/Istanbul",
      "wikiDataId": "Q911286",
      "country_code": "TR",
      "state_code": "01",
      "state_id": 2212,
      "country_id": 225
    },
    {
      "id": 107427,
      "name": "جیحان",
      "name_default": "Ceyhan",
      "native": "Ceyhan",
      "type": "adm2",
      "level": null,
      "parent_id": null,
      "population": 96303,
      "latitude": "37.02472000",
      "longitude": "35.81750000",
      "timezone": "Europe/Istanbul",
      "wikiDataId": "Q185346",
      "country_code": "TR",
      "state_code": "01",
      "state_id": 2212,
      "country_id": 225
    },
    {
      "id": 108848,
      "name": "چوکوروا",
      "name_default": "Çukurova",
      "native": "Çukurova",
      "type": "city",
      "level": null,
      "parent_id": null,
      "population": 14724,
      "latitude": "37.05627000",
      "longitude": "35.13119000",
      "timezone": "Europe/Istanbul",
      "wikiDataId": "Q272948",
      "country_code": "TR",
      "state_code": "01",
      "state_id": 2212,
      "country_id": 225
    },
    {
      "id": 107635,
      "name": "فکه",
      "name_default": "Feke",
      "native": "Ölü",
      "type": "adm2",
      "level": null,
      "parent_id": null,
      "population": 18534,
      "latitude": "37.82405000",
      "longitude": "35.91826000",
      "timezone": "Europe/Istanbul",
      "wikiDataId": "Q1430807",
      "country_code": "TR",
      "state_code": "01",
      "state_id": 2212,
      "country_id": 225
    },
    {
      "id": 108893,
      "name": "امام اوغلو",
      "name_default": "İmamoğlu",
      "native": "İmamoğlu",
      "type": "adm2",
      "level": null,
      "parent_id": null,
      "population": 28239,
      "latitude": "37.27500000",
      "longitude": "35.66649000",
      "timezone": "Europe/Istanbul",
      "wikiDataId": "Q2082058",
      "country_code": "TR",
      "state_code": "01",
      "state_id": 2212,
      "country_id": 225
    },
    {
      "id": 107896,
      "name": "کارایسالی",
      "name_default": "Karaisalı",
      "native": "Karaisalı",
      "type": "adm2",
      "level": null,
      "parent_id": null,
      "population": 22308,
      "latitude": "37.26655000",
      "longitude": "35.05033000",
      "timezone": "Europe/Istanbul",
      "wikiDataId": "Q533294",
      "country_code": "TR",
      "state_code": "01",
      "state_id": 2212,
      "country_id": 225
    },
    {
      "id": 107918,
      "name": "کاراتاش",
      "name_default": "Karataş",
      "native": "Karataş",
      "type": "city",
      "level": null,
      "parent_id": null,
      "population": 9221,
      "latitude": "36.57186000",
      "longitude": "35.36784000",
      "timezone": "Europe/Istanbul",
      "wikiDataId": "Q1012874",
      "country_code": "TR",
      "state_code": "01",
      "state_id": 2212,
      "country_id": 225
    },
    {
      "id": 108033,
      "name": "کوزان",
      "name_default": "Kozan",
      "native": "Kozan",
      "type": "city",
      "level": null,
      "parent_id": null,
      "population": 132703,
      "latitude": "37.50000000",
      "longitude": "35.75000000",
      "timezone": "Europe/Istanbul",
      "wikiDataId": "Q926426",
      "country_code": "TR",
      "state_code": "01",
      "state_id": 2212,
      "country_id": 225
    },
    {
      "id": 108349,
      "name": "پوزانتی",
      "name_default": "Pozantı",
      "native": "Pozantı",
      "type": "city",
      "level": null,
      "parent_id": null,
      "population": 1000,
      "latitude": "37.43671000",
      "longitude": "34.88057000",
      "timezone": "Europe/Istanbul",
      "wikiDataId": "Q1004432",
      "country_code": "TR",
      "state_code": "01",
      "state_id": 2212,
      "country_id": 225
    },
    {
      "id": 108374,
      "name": "سیمبیلی",
      "name_default": "Saimbeyli",
      "native": "Saimbeyli",
      "type": "adm2",
      "level": null,
      "parent_id": null,
      "population": 16572,
      "latitude": "37.99615000",
      "longitude": "36.09909000",
      "timezone": "Europe/Istanbul",
      "wikiDataId": "Q1017381",
      "country_code": "TR",
      "state_code": "01",
      "state_id": 2212,
      "country_id": 225
    },
    {
      "id": 108414,
      "name": "ساریچام",
      "name_default": "Sarıçam",
      "native": "Sarıçam",
      "type": "adm2",
      "level": null,
      "parent_id": null,
      "population": 8362,
      "latitude": "37.14971000",
      "longitude": "35.50949000",
      "timezone": "Europe/Istanbul",
      "wikiDataId": "Q1430729",
      "country_code": "TR",
      "state_code": "01",
      "state_id": 2212,
      "country_id": 225
    },
    {
      "id": 108452,
      "name": "سیحان",
      "name_default": "Seyhan",
      "native": "Seyhan",
      "type": "city",
      "level": null,
      "parent_id": null,
      "population": 793480,
      "latitude": "36.95540000",
      "longitude": "35.21637000",
      "timezone": "Europe/Istanbul",
      "wikiDataId": "Q532164",
      "country_code": "TR",
      "state_code": "01",
      "state_id": 2212,
      "country_id": 225
    },
    {
      "id": 108597,
      "name": "توفان‌بیلی",
      "name_default": "Tufanbeyli",
      "native": "Tufanbeyli",
      "type": "adm2",
      "level": null,
      "parent_id": null,
      "population": 17667,
      "latitude": "38.27343000",
      "longitude": "36.22731000",
      "timezone": "Europe/Istanbul",
      "wikiDataId": "Q45301",
      "country_code": "TR",
      "state_code": "01",
      "state_id": 2212,
      "country_id": 225
    },
    {
      "id": 108737,
      "name": "یومورتالیک",
      "name_default": "Yumurtalık",
      "native": "Yumurtalık",
      "type": "adm2",
      "level": null,
      "parent_id": null,
      "population": 18587,
      "latitude": "36.78245000",
      "longitude": "35.79949000",
      "timezone": "Europe/Istanbul",
      "wikiDataId": "Q210292",
      "country_code": "TR",
      "state_code": "01",
      "state_id": 2212,
      "country_id": 225
    },
    {
      "id": 108745,
      "name": "یورِغیر",
      "name_default": "Yüreğir",
      "native": "Yüreğir",
      "type": "city",
      "level": null,
      "parent_id": null,
      "population": 2039,
      "latitude": "36.99205000",
      "longitude": "35.45402000",
      "timezone": "Europe/Istanbul",
      "wikiDataId": "Q765123",
      "country_code": "TR",
      "state_code": "01",
      "state_id": 2212,
      "country_id": 225
    }
  ]
}
