{
  "locale": "ja",
  "country": {
    "id": 174,
    "code": "PH",
    "iso3": "PHL",
    "numeric_code": "608",
    "name": "フィリピン",
    "name_default": "Philippines",
    "native": "Pilipinas",
    "capital": "Manila",
    "phonecode": "63",
    "currency": "PHP",
    "currency_name": "Philippine peso",
    "currency_symbol": "₱",
    "tld": ".ph",
    "population": 114123600,
    "gdp": 497495,
    "region": "Asia",
    "region_id": 3,
    "subregion": "South-Eastern Asia",
    "subregion_id": 13,
    "nationality": "Philippine, Filipino",
    "timezones": [
      {
        "zoneName": "Asia/Manila",
        "gmtOffset": 28800,
        "gmtOffsetName": "UTC+08:00",
        "abbreviation": "PHT",
        "tzName": "Philippine Time"
      }
    ],
    "latitude": "13.00000000",
    "longitude": "122.00000000",
    "emoji": "🇵🇭",
    "emojiU": "U+1F1F5 U+1F1ED"
  },
  "state": {
    "id": 1296,
    "code": "SUR",
    "iso2": "SUR",
    "iso3166_2": "PH-SUR",
    "fips_code": "62",
    "name": "スリガオ・デル・スール",
    "name_default": "Surigao del Sur",
    "native": "Surigao del Sur",
    "type": "province",
    "level": "1",
    "parent_id": "1314",
    "population": 648858,
    "latitude": "8.84000000",
    "longitude": "126.15000000",
    "timezone": "Asia/Manila",
    "wikiDataId": "Q13891",
    "country_code": "PH"
  },
  "cities": [
    {
      "id": 144386,
      "name": "バロボ",
      "name_default": "Barobo",
      "native": "Barobo",
      "type": "city",
      "level": null,
      "parent_id": null,
      "population": 53729,
      "latitude": "8.48629260",
      "longitude": "126.02381030",
      "timezone": "Asia/Manila",
      "wikiDataId": "Q155471",
      "country_code": "PH",
      "state_code": "SUR",
      "state_id": 1296,
      "country_id": 174
    },
    {
      "id": 81652,
      "name": "バヤバス",
      "name_default": "Bayabas",
      "native": "Bayabas",
      "type": "adm3",
      "level": null,
      "parent_id": null,
      "population": 9016,
      "latitude": "8.97600390",
      "longitude": "126.22479810",
      "timezone": "Asia/Manila",
      "wikiDataId": "Q155499",
      "country_code": "PH",
      "state_code": "SUR",
      "state_id": 1296,
      "country_id": 174
    },
    {
      "id": 81737,
      "name": "ビスリグ",
      "name_default": "Bislig",
      "native": "BISLIG",
      "type": "city",
      "level": null,
      "parent_id": null,
      "population": 99872,
      "latitude": "8.20949370",
      "longitude": "126.17006570",
      "timezone": "Asia/Manila",
      "wikiDataId": "Q866414",
      "country_code": "PH",
      "state_code": "SUR",
      "state_id": 1296,
      "country_id": 174
    },
    {
      "id": 82000,
      "name": "カグウェイト",
      "name_default": "Cagwait",
      "native": "Cagwait",
      "type": "city",
      "level": null,
      "parent_id": null,
      "population": 22305,
      "latitude": "8.89139090",
      "longitude": "126.08204640",
      "timezone": "Asia/Manila",
      "wikiDataId": "Q155524",
      "country_code": "PH",
      "state_code": "SUR",
      "state_id": 1296,
      "country_id": 174
    },
    {
      "id": 82128,
      "name": "カンティラン",
      "name_default": "Cantilan",
      "native": "Cantilan",
      "type": "adm3",
      "level": null,
      "parent_id": null,
      "population": 34233,
      "latitude": "9.30891160",
      "longitude": "125.73361670",
      "timezone": "Asia/Manila",
      "wikiDataId": "Q155536",
      "country_code": "PH",
      "state_code": "SUR",
      "state_id": 1296,
      "country_id": 174
    },
    {
      "id": 154830,
      "name": "カルメン",
      "name_default": "Carmen",
      "native": "Carmen",
      "type": "adm3",
      "level": null,
      "parent_id": null,
      "population": 79741,
      "latitude": "9.18191620",
      "longitude": "125.76301380",
      "timezone": "Asia/Manila",
      "wikiDataId": "Q155548",
      "country_code": "PH",
      "state_code": "SUR",
      "state_id": 1296,
      "country_id": 174
    },
    {
      "id": 82181,
      "name": "カラスカル",
      "name_default": "Carrascal",
      "native": "Carrascal",
      "type": "city",
      "level": null,
      "parent_id": null,
      "population": 25672,
      "latitude": "9.38185070",
      "longitude": "125.71434770",
      "timezone": "Asia/Manila",
      "wikiDataId": "Q155558",
      "country_code": "PH",
      "state_code": "SUR",
      "state_id": 1296,
      "country_id": 174
    },
    {
      "id": 82299,
      "name": "コルテス",
      "name_default": "Cortes",
      "native": "Cortes",
      "type": "city",
      "level": null,
      "parent_id": null,
      "population": 18023,
      "latitude": "9.23184780",
      "longitude": "126.07008520",
      "timezone": "Asia/Manila",
      "wikiDataId": "Q155568",
      "country_code": "PH",
      "state_code": "SUR",
      "state_id": 1296,
      "country_id": 174
    },
    {
      "id": 82693,
      "name": "ヒナトゥアン",
      "name_default": "Hinatuan",
      "native": "Hinatuan",
      "type": "adm3",
      "level": null,
      "parent_id": null,
      "population": 44475,
      "latitude": "8.41820630",
      "longitude": "126.25166010",
      "timezone": "Asia/Manila",
      "wikiDataId": "Q155576",
      "country_code": "PH",
      "state_code": "SUR",
      "state_id": 1296,
      "country_id": 174
    },
    {
      "id": 83025,
      "name": "ラヌーザ",
      "name_default": "Lanuza",
      "native": "To your man",
      "type": "city",
      "level": null,
      "parent_id": null,
      "population": 13750,
      "latitude": "9.16889840",
      "longitude": "125.82760140",
      "timezone": "Asia/Manila",
      "wikiDataId": "Q155582",
      "country_code": "PH",
      "state_code": "SUR",
      "state_id": 1296,
      "country_id": 174
    },
    {
      "id": 83074,
      "name": "リアンガ",
      "name_default": "Lianga",
      "native": "Alex",
      "type": "adm3",
      "level": null,
      "parent_id": null,
      "population": 34213,
      "latitude": "8.63875520",
      "longitude": "126.00824420",
      "timezone": "Asia/Manila",
      "wikiDataId": "Q155590",
      "country_code": "PH",
      "state_code": "SUR",
      "state_id": 1296,
      "country_id": 174
    },
    {
      "id": 83140,
      "name": "リンギグ",
      "name_default": "Lingig",
      "native": "snub",
      "type": "city",
      "level": null,
      "parent_id": null,
      "population": 35203,
      "latitude": "8.09757550",
      "longitude": "126.21147900",
      "timezone": "Asia/Manila",
      "wikiDataId": "Q155598",
      "country_code": "PH",
      "state_code": "SUR",
      "state_id": 1296,
      "country_id": 174
    },
    {
      "id": 83313,
      "name": "マドリード",
      "name_default": "Madrid",
      "native": "Madrid",
      "type": "city",
      "level": null,
      "parent_id": null,
      "population": 16872,
      "latitude": "9.21161400",
      "longitude": "125.73095610",
      "timezone": "Asia/Manila",
      "wikiDataId": "Q155605",
      "country_code": "PH",
      "state_code": "SUR",
      "state_id": 1296,
      "country_id": 174
    },
    {
      "id": 83582,
      "name": "マリハタグ",
      "name_default": "Marihatag",
      "native": "Greed",
      "type": "city",
      "level": null,
      "parent_id": null,
      "population": 19730,
      "latitude": "8.78798430",
      "longitude": "125.79982840",
      "timezone": "Asia/Manila",
      "wikiDataId": "Q155611",
      "country_code": "PH",
      "state_code": "SUR",
      "state_id": 1296,
      "country_id": 174
    },
    {
      "id": 154831,
      "name": "サン・アグスティン",
      "name_default": "San Agustin",
      "native": "San Agustin",
      "type": "city",
      "level": null,
      "parent_id": null,
      "population": 23698,
      "latitude": "8.72141430",
      "longitude": "125.94712060",
      "timezone": "Asia/Manila",
      "wikiDataId": "Q155618",
      "country_code": "PH",
      "state_code": "SUR",
      "state_id": 1296,
      "country_id": 174
    },
    {
      "id": 154832,
      "name": "サンミゲル",
      "name_default": "San Miguel",
      "native": "San Miguel",
      "type": "city",
      "level": null,
      "parent_id": null,
      "population": 15992,
      "latitude": "8.94834480",
      "longitude": "125.81438340",
      "timezone": "Asia/Manila",
      "wikiDataId": "Q155625",
      "country_code": "PH",
      "state_code": "SUR",
      "state_id": 1296,
      "country_id": 174
    },
    {
      "id": 84936,
      "name": "タグビナ",
      "name_default": "Tagbina",
      "native": "Tagbina",
      "type": "city",
      "level": null,
      "parent_id": null,
      "population": 41157,
      "latitude": "8.42775660",
      "longitude": "126.03745740",
      "timezone": "Asia/Manila",
      "wikiDataId": "Q155633",
      "country_code": "PH",
      "state_code": "SUR",
      "state_id": 1296,
      "country_id": 174
    },
    {
      "id": 84944,
      "name": "タゴ",
      "name_default": "Tago",
      "native": "Attend",
      "type": "adm3",
      "level": null,
      "parent_id": null,
      "population": 40097,
      "latitude": "8.97204320",
      "longitude": "125.94527530",
      "timezone": "Asia/Manila",
      "wikiDataId": "Q155648",
      "country_code": "PH",
      "state_code": "SUR",
      "state_id": 1296,
      "country_id": 174
    },
    {
      "id": 85031,
      "name": "タンダグ",
      "name_default": "Tandag",
      "native": "Tandag",
      "type": "adm3",
      "level": null,
      "parent_id": null,
      "population": 63098,
      "latitude": "9.09298150",
      "longitude": "125.96729090",
      "timezone": "Asia/Manila",
      "wikiDataId": "Q155674",
      "country_code": "PH",
      "state_code": "SUR",
      "state_id": 1296,
      "country_id": 174
    }
  ]
}
