{
  "locale": "pt",
  "country": {
    "id": 65,
    "code": "EG",
    "iso3": "EGY",
    "numeric_code": "818",
    "name": "Egipto",
    "name_default": "Egypt",
    "native": "مصر‎",
    "capital": "Cairo",
    "phonecode": "20",
    "currency": "EGP",
    "currency_name": "Egyptian pound",
    "currency_symbol": "ج.م",
    "tld": ".eg",
    "population": 107271260,
    "gdp": 347342,
    "region": "Africa",
    "region_id": 1,
    "subregion": "Northern Africa",
    "subregion_id": 1,
    "nationality": "Egyptian",
    "timezones": [
      {
        "zoneName": "Africa/Cairo",
        "gmtOffset": 7200,
        "gmtOffsetName": "UTC+02:00",
        "abbreviation": "EET",
        "tzName": "Eastern European Time"
      }
    ],
    "latitude": "27.00000000",
    "longitude": "30.00000000",
    "emoji": "🇪🇬",
    "emojiU": "U+1F1EA U+1F1EC"
  },
  "state": {
    "id": 5067,
    "code": "SHR",
    "iso2": "SHR",
    "iso3166_2": "EG-SHR",
    "fips_code": "13",
    "name": "Sharqia",
    "name_default": "Sharqia",
    "native": "الشرقية",
    "type": "governorate",
    "level": "2",
    "parent_id": null,
    "population": null,
    "latitude": "30.63327750",
    "longitude": "31.78937390",
    "timezone": "Africa/Cairo",
    "wikiDataId": "Q31074",
    "country_code": "EG"
  },
  "cities": [
    {
      "id": 149220,
      "name": "10º dia do Ramadã",
      "name_default": "10th of Ramadan",
      "native": "العاشر من رمضان",
      "type": "city",
      "level": null,
      "parent_id": null,
      "population": 500000,
      "latitude": "30.29939390",
      "longitude": "31.61417890",
      "timezone": "Africa/Cairo",
      "wikiDataId": "Q337539",
      "country_code": "EG",
      "state_code": "SHR",
      "state_id": 5067,
      "country_id": 65
    },
    {
      "id": 149228,
      "name": "Al Qurein",
      "name_default": "Al Qurein",
      "native": "القرين",
      "type": "city",
      "level": null,
      "parent_id": null,
      "population": null,
      "latitude": "26.29300660",
      "longitude": "31.84950350",
      "timezone": "Africa/Cairo",
      "wikiDataId": "Q13634887",
      "country_code": "EG",
      "state_code": "SHR",
      "state_id": 5067,
      "country_id": 65
    },
    {
      "id": 149223,
      "name": "Awlad Saqr",
      "name_default": "Awlad Saqr",
      "native": "أولاد صقر",
      "type": "city",
      "level": null,
      "parent_id": null,
      "population": null,
      "latitude": "30.93096230",
      "longitude": "31.69132380",
      "timezone": "Africa/Cairo",
      "wikiDataId": "Q22928786",
      "country_code": "EG",
      "state_code": "SHR",
      "state_id": 5067,
      "country_id": 65
    },
    {
      "id": 149224,
      "name": "Bilbeis",
      "name_default": "Bilbeis",
      "native": "بلبيس",
      "type": "city",
      "level": null,
      "parent_id": null,
      "population": null,
      "latitude": "30.41676920",
      "longitude": "31.55430480",
      "timezone": "Africa/Cairo",
      "wikiDataId": "Q393495",
      "country_code": "EG",
      "state_code": "SHR",
      "state_id": 5067,
      "country_id": 65
    },
    {
      "id": 149225,
      "name": "Diyarb Negm",
      "name_default": "Diyarb Negm",
      "native": "ديار نجم",
      "type": "city",
      "level": null,
      "parent_id": null,
      "population": null,
      "latitude": "30.74800820",
      "longitude": "31.38893080",
      "timezone": "Africa/Cairo",
      "wikiDataId": "Q23951814",
      "country_code": "EG",
      "state_code": "SHR",
      "state_id": 5067,
      "country_id": 65
    },
    {
      "id": 149226,
      "name": "El Husseiniya",
      "name_default": "El Husseiniya",
      "native": "الحسينية",
      "type": "city",
      "level": null,
      "parent_id": null,
      "population": null,
      "latitude": "31.13933960",
      "longitude": "32.14949670",
      "timezone": "Africa/Cairo",
      "wikiDataId": "Q5949897",
      "country_code": "EG",
      "state_code": "SHR",
      "state_id": 5067,
      "country_id": 65
    },
    {
      "id": 149229,
      "name": "Faqous",
      "name_default": "Faqous",
      "native": "فاقوس",
      "type": "city",
      "level": null,
      "parent_id": null,
      "population": null,
      "latitude": "30.72291740",
      "longitude": "31.76136580",
      "timezone": "Africa/Cairo",
      "wikiDataId": "Q22930182",
      "country_code": "EG",
      "state_code": "SHR",
      "state_id": 5067,
      "country_id": 65
    },
    {
      "id": 149230,
      "name": "Olá",
      "name_default": "Hihya",
      "native": "هيهيا",
      "type": "adm1",
      "level": null,
      "parent_id": null,
      "population": 66702,
      "latitude": "30.65516210",
      "longitude": "31.50671570",
      "timezone": "Africa/Cairo",
      "wikiDataId": "Q4165655",
      "country_code": "EG",
      "state_code": "SHR",
      "state_id": 5067,
      "country_id": 65
    },
    {
      "id": 149231,
      "name": "Kafr Saqr",
      "name_default": "Kafr Saqr",
      "native": "كفر صقر",
      "type": "city",
      "level": null,
      "parent_id": null,
      "population": 30333,
      "latitude": "30.77955140",
      "longitude": "31.61774120",
      "timezone": "Africa/Cairo",
      "wikiDataId": "Q4165658",
      "country_code": "EG",
      "state_code": "SHR",
      "state_id": 5067,
      "country_id": 65
    },
    {
      "id": 149221,
      "name": "Markaz Abū Hammād",
      "name_default": "Markaz Abū Ḩammād",
      "native": "مركز أبو حماد",
      "type": "city",
      "level": null,
      "parent_id": null,
      "population": 0,
      "latitude": "30.53604430",
      "longitude": "31.65970230",
      "timezone": "Africa/Cairo",
      "wikiDataId": "Q22928517",
      "country_code": "EG",
      "state_code": "SHR",
      "state_id": 5067,
      "country_id": 65
    },
    {
      "id": 149232,
      "name": "Mashtoul El Souk",
      "name_default": "Mashtoul El Souk",
      "native": "مشتول السوق",
      "type": "city",
      "level": null,
      "parent_id": null,
      "population": null,
      "latitude": "30.35570110",
      "longitude": "31.36278530",
      "timezone": "Africa/Cairo",
      "wikiDataId": "Q16126100",
      "country_code": "EG",
      "state_code": "SHR",
      "state_id": 5067,
      "country_id": 65
    },
    {
      "id": 149233,
      "name": "Minya El Qamh",
      "name_default": "Minya El Qamh",
      "native": "منيا القمح",
      "type": "city",
      "level": null,
      "parent_id": null,
      "population": null,
      "latitude": "30.50037450",
      "longitude": "31.23766850",
      "timezone": "Africa/Cairo",
      "wikiDataId": "Q6024576",
      "country_code": "EG",
      "state_code": "SHR",
      "state_id": 5067,
      "country_id": 65
    },
    {
      "id": 149234,
      "name": "Nova Salhia",
      "name_default": "New Salhia",
      "native": "الصالحية الجديدة",
      "type": "city",
      "level": null,
      "parent_id": null,
      "population": null,
      "latitude": "30.62868790",
      "longitude": "31.92099060",
      "timezone": "Africa/Cairo",
      "wikiDataId": "Q5352068",
      "country_code": "EG",
      "state_code": "SHR",
      "state_id": 5067,
      "country_id": 65
    },
    {
      "id": 149235,
      "name": "Zagazig",
      "name_default": "Zagazig",
      "native": "الزقازيق",
      "type": "city",
      "level": null,
      "parent_id": null,
      "population": 99284,
      "latitude": "30.58456230",
      "longitude": "31.34747790",
      "timezone": "Africa/Cairo",
      "wikiDataId": "Q140304",
      "country_code": "EG",
      "state_code": "SHR",
      "state_id": 5067,
      "country_id": 65
    }
  ]
}
