{
  "locale": "it",
  "country": {
    "id": 174,
    "code": "PH",
    "iso3": "PHL",
    "numeric_code": "608",
    "name": "Filippine",
    "name_default": "Philippines",
    "native": "Pilipinas",
    "capital": "Manila",
    "phonecode": "63",
    "currency": "PHP",
    "currency_name": "Philippine peso",
    "currency_symbol": "₱",
    "tld": ".ph",
    "population": 114123600,
    "gdp": 497495,
    "region": "Asia",
    "region_id": 3,
    "subregion": "South-Eastern Asia",
    "subregion_id": 13,
    "nationality": "Philippine, Filipino",
    "timezones": [
      {
        "zoneName": "Asia/Manila",
        "gmtOffset": 28800,
        "gmtOffsetName": "UTC+08:00",
        "abbreviation": "PHT",
        "tzName": "Philippine Time"
      }
    ],
    "latitude": "13.00000000",
    "longitude": "122.00000000",
    "emoji": "🇵🇭",
    "emojiU": "U+1F1F5 U+1F1ED"
  },
  "state": {
    "id": 1278,
    "code": "BUL",
    "iso2": "BUL",
    "iso3166_2": "PH-BUL",
    "fips_code": "13",
    "name": "Bulacan",
    "name_default": "Bulacan",
    "native": "Bulacan",
    "type": "province",
    "level": "1",
    "parent_id": "1345",
    "population": 3876806,
    "latitude": "15.00000000",
    "longitude": "121.08333300",
    "timezone": "Asia/Manila",
    "wikiDataId": "Q13755",
    "country_code": "PH"
  },
  "cities": [
    {
      "id": 144371,
      "name": "Ancora",
      "name_default": "Agay",
      "native": "flow",
      "type": "city",
      "level": null,
      "parent_id": null,
      "population": 3976,
      "latitude": "9.05361111",
      "longitude": "125.58666667",
      "timezone": "Asia/Manila",
      "wikiDataId": "Q31462038",
      "country_code": "PH",
      "state_code": "BUL",
      "state_id": 1278,
      "country_id": 174
    },
    {
      "id": 144375,
      "name": "Amaga",
      "name_default": "Amaga",
      "native": "Hide",
      "type": "city",
      "level": null,
      "parent_id": null,
      "population": 2230,
      "latitude": "8.53083333",
      "longitude": "126.07027778",
      "timezone": "Asia/Manila",
      "wikiDataId": "Q31465217",
      "country_code": "PH",
      "state_code": "BUL",
      "state_id": 1278,
      "country_id": 174
    },
    {
      "id": 144376,
      "name": "Anticala",
      "name_default": "Anticala",
      "native": "Antique",
      "type": "city",
      "level": null,
      "parent_id": null,
      "population": 3246,
      "latitude": "9.00444444",
      "longitude": "125.64527778",
      "timezone": "Asia/Manila",
      "wikiDataId": "Q31467207",
      "country_code": "PH",
      "state_code": "BUL",
      "state_id": 1278,
      "country_id": 174
    },
    {
      "id": 144377,
      "name": "Aras-asan",
      "name_default": "Aras-asan",
      "native": "Level",
      "type": "city",
      "level": null,
      "parent_id": null,
      "population": 5099,
      "latitude": "8.88777778",
      "longitude": "126.31111111",
      "timezone": "Asia/Manila",
      "wikiDataId": "Q31468241",
      "country_code": "PH",
      "state_code": "BUL",
      "state_id": 1278,
      "country_id": 174
    },
    {
      "id": 144379,
      "name": "Bacolod",
      "name_default": "Bacolod",
      "native": "Bacolod",
      "type": "city",
      "level": null,
      "parent_id": null,
      "population": 2171,
      "latitude": "8.93166667",
      "longitude": "126.28944444",
      "timezone": "Asia/Manila",
      "wikiDataId": "Q31473676",
      "country_code": "PH",
      "state_code": "BUL",
      "state_id": 1278,
      "country_id": 174
    },
    {
      "id": 144381,
      "name": "Bah-Bah",
      "name_default": "Bah-Bah",
      "native": "Bah",
      "type": "city",
      "level": null,
      "parent_id": null,
      "population": 28643,
      "latitude": "8.60722222",
      "longitude": "125.91444444",
      "timezone": "Asia/Manila",
      "wikiDataId": "Q31476198",
      "country_code": "PH",
      "state_code": "BUL",
      "state_id": 1278,
      "country_id": 174
    },
    {
      "id": 144382,
      "name": "Balangbalang",
      "name_default": "Balangbalang",
      "native": "Balangbalang",
      "type": "city",
      "level": null,
      "parent_id": null,
      "population": 2135,
      "latitude": "9.05694444",
      "longitude": "125.62277778",
      "timezone": "Asia/Manila",
      "wikiDataId": "Q31478228",
      "country_code": "PH",
      "state_code": "BUL",
      "state_id": 1278,
      "country_id": 174
    },
    {
      "id": 144383,
      "name": "Bancasi",
      "name_default": "Bancasi",
      "native": "Bancasi",
      "type": "city",
      "level": null,
      "parent_id": null,
      "population": 3607,
      "latitude": "8.96666667",
      "longitude": "125.46666667",
      "timezone": "Asia/Manila",
      "wikiDataId": "Q31483028",
      "country_code": "PH",
      "state_code": "BUL",
      "state_id": 1278,
      "country_id": 174
    },
    {
      "id": 144384,
      "name": "Bangonay",
      "name_default": "Bangonay",
      "native": "Bangingay",
      "type": "city",
      "level": null,
      "parent_id": null,
      "population": 2643,
      "latitude": "9.31444444",
      "longitude": "125.55388889",
      "timezone": "Asia/Manila",
      "wikiDataId": "Q31483691",
      "country_code": "PH",
      "state_code": "BUL",
      "state_id": 1278,
      "country_id": 174
    },
    {
      "id": 144387,
      "name": "Basa",
      "name_default": "Basa",
      "native": "Work",
      "type": "city",
      "level": null,
      "parent_id": null,
      "population": 2323,
      "latitude": "8.07222222",
      "longitude": "126.06416667",
      "timezone": "Asia/Manila",
      "wikiDataId": "Q31488101",
      "country_code": "PH",
      "state_code": "BUL",
      "state_id": 1278,
      "country_id": 174
    },
    {
      "id": 144389,
      "name": "Bayabas",
      "name_default": "Bayabas",
      "native": "Bayabas",
      "type": "adm3",
      "level": null,
      "parent_id": null,
      "population": 9016,
      "latitude": "8.96666667",
      "longitude": "126.26666667",
      "timezone": "Asia/Manila",
      "wikiDataId": "Q155499",
      "country_code": "PH",
      "state_code": "BUL",
      "state_id": 1278,
      "country_id": 174
    },
    {
      "id": 144390,
      "name": "Bayugan",
      "name_default": "Bayugan",
      "native": "Bayugan",
      "type": "city",
      "level": null,
      "parent_id": null,
      "population": 110313,
      "latitude": "8.78564000",
      "longitude": "125.78175000",
      "timezone": "Asia/Manila",
      "wikiDataId": "Q1694",
      "country_code": "PH",
      "state_code": "BUL",
      "state_id": 1278,
      "country_id": 174
    },
    {
      "id": 144392,
      "name": "Bigaan",
      "name_default": "Bigaan",
      "native": "Rice",
      "type": "city",
      "level": null,
      "parent_id": null,
      "population": 2744,
      "latitude": "8.31722222",
      "longitude": "126.28111111",
      "timezone": "Asia/Manila",
      "wikiDataId": "Q31500778",
      "country_code": "PH",
      "state_code": "BUL",
      "state_id": 1278,
      "country_id": 174
    },
    {
      "id": 144393,
      "name": "Binucayan",
      "name_default": "Binucayan",
      "native": "Binucayan",
      "type": "city",
      "level": null,
      "parent_id": null,
      "population": 2875,
      "latitude": "8.25000000",
      "longitude": "125.71666667",
      "timezone": "Asia/Manila",
      "wikiDataId": "Q31503087",
      "country_code": "PH",
      "state_code": "BUL",
      "state_id": 1278,
      "country_id": 174
    },
    {
      "id": 144396,
      "name": "Buonavista",
      "name_default": "Buenavista",
      "native": "Buenavista",
      "type": "city",
      "level": null,
      "parent_id": null,
      "population": 70691,
      "latitude": "8.97694444",
      "longitude": "125.40888889",
      "timezone": "Asia/Manila",
      "wikiDataId": "Q31515895",
      "country_code": "PH",
      "state_code": "BUL",
      "state_id": 1278,
      "country_id": 174
    },
    {
      "id": 144401,
      "name": "Butuan",
      "name_default": "Butuan",
      "native": "Butuan",
      "type": "adm1",
      "level": null,
      "parent_id": null,
      "population": 385530,
      "latitude": "8.95000000",
      "longitude": "125.53333000",
      "timezone": "Asia/Manila",
      "wikiDataId": "Q1686",
      "country_code": "PH",
      "state_code": "BUL",
      "state_id": 1278,
      "country_id": 174
    },
    {
      "id": 144406,
      "name": "Caloc-an",
      "name_default": "Caloc-an",
      "native": "Caloc-an",
      "type": "city",
      "level": null,
      "parent_id": null,
      "population": 3390,
      "latitude": "9.04694444",
      "longitude": "125.53055556",
      "timezone": "Asia/Manila",
      "wikiDataId": "Q31528605",
      "country_code": "PH",
      "state_code": "BUL",
      "state_id": 1278,
      "country_id": 174
    },
    {
      "id": 144407,
      "name": "Cantapoy",
      "name_default": "Cantapoy",
      "native": "Cantapoy",
      "type": "city",
      "level": null,
      "parent_id": null,
      "population": 2259,
      "latitude": "9.49055556",
      "longitude": "125.43638889",
      "timezone": "Asia/Manila",
      "wikiDataId": "Q31532558",
      "country_code": "PH",
      "state_code": "BUL",
      "state_id": 1278,
      "country_id": 174
    },
    {
      "id": 144409,
      "name": "Capalayan",
      "name_default": "Capalayan",
      "native": "Capalayan",
      "type": "city",
      "level": null,
      "parent_id": null,
      "population": 2151,
      "latitude": "9.74055556",
      "longitude": "125.54444444",
      "timezone": "Asia/Manila",
      "wikiDataId": "Q31796697",
      "country_code": "PH",
      "state_code": "BUL",
      "state_id": 1278,
      "country_id": 174
    },
    {
      "id": 144413,
      "name": "Causwagan",
      "name_default": "Causwagan",
      "native": "Causwagan",
      "type": "city",
      "level": null,
      "parent_id": null,
      "population": 2225,
      "latitude": "8.44750000",
      "longitude": "125.84027778",
      "timezone": "Asia/Manila",
      "wikiDataId": "Q31538266",
      "country_code": "PH",
      "state_code": "BUL",
      "state_id": 1278,
      "country_id": 174
    },
    {
      "id": 144414,
      "name": "Città di Cabadbaran",
      "name_default": "City of Cabadbaran",
      "native": "Cabadbaran",
      "type": "city",
      "level": null,
      "parent_id": null,
      "population": null,
      "latitude": "9.13748000",
      "longitude": "125.65543000",
      "timezone": "Asia/Manila",
      "wikiDataId": "Q31544852",
      "country_code": "PH",
      "state_code": "BUL",
      "state_id": 1278,
      "country_id": 174
    },
    {
      "id": 144416,
      "name": "Comagascas",
      "name_default": "Comagascas",
      "native": "Comagascas",
      "type": "city",
      "level": null,
      "parent_id": null,
      "population": 2914,
      "latitude": "9.13972222",
      "longitude": "125.55972222",
      "timezone": "Asia/Manila",
      "wikiDataId": "Q31550282",
      "country_code": "PH",
      "state_code": "BUL",
      "state_id": 1278,
      "country_id": 174
    },
    {
      "id": 144418,
      "name": "Grotte",
      "name_default": "Cuevas",
      "native": "Caves",
      "type": "city",
      "level": null,
      "parent_id": null,
      "population": 2243,
      "latitude": "8.01916667",
      "longitude": "126.09416667",
      "timezone": "Asia/Manila",
      "wikiDataId": "Q31556905",
      "country_code": "PH",
      "state_code": "BUL",
      "state_id": 1278,
      "country_id": 174
    },
    {
      "id": 144419,
      "name": "Culit",
      "name_default": "Culit",
      "native": "Culit",
      "type": "city",
      "level": null,
      "parent_id": null,
      "population": 2881,
      "latitude": "8.94722222",
      "longitude": "125.35694444",
      "timezone": "Asia/Manila",
      "wikiDataId": "Q31557218",
      "country_code": "PH",
      "state_code": "BUL",
      "state_id": 1278,
      "country_id": 174
    },
    {
      "id": 144420,
      "name": "Dakbayan sa Bislig",
      "name_default": "Dakbayan sa Bislig",
      "native": "City of Bislig",
      "type": "city",
      "level": null,
      "parent_id": null,
      "population": null,
      "latitude": "8.20996000",
      "longitude": "126.30947000",
      "timezone": "Asia/Manila",
      "wikiDataId": "Q31559049",
      "country_code": "PH",
      "state_code": "BUL",
      "state_id": 1278,
      "country_id": 174
    },
    {
      "id": 144424,
      "name": "Del Pilar",
      "name_default": "Del Pilar",
      "native": "Del Pilar",
      "type": "city",
      "level": null,
      "parent_id": null,
      "population": 2511,
      "latitude": "9.15194444",
      "longitude": "125.58472222",
      "timezone": "Asia/Manila",
      "wikiDataId": "Q31564646",
      "country_code": "PH",
      "state_code": "BUL",
      "state_id": 1278,
      "country_id": 174
    },
    {
      "id": 144427,
      "name": "Gamma",
      "name_default": "Gamut",
      "native": "Gamut",
      "type": "city",
      "level": null,
      "parent_id": null,
      "population": 3479,
      "latitude": "8.53166667",
      "longitude": "126.24111111",
      "timezone": "Asia/Manila",
      "wikiDataId": "Q31588458",
      "country_code": "PH",
      "state_code": "BUL",
      "state_id": 1278,
      "country_id": 174
    },
    {
      "id": 144431,
      "name": "Guadalupe",
      "name_default": "Guadalupe",
      "native": "Guadalupe",
      "type": "city",
      "level": null,
      "parent_id": null,
      "population": 3381,
      "latitude": "8.58277778",
      "longitude": "125.70805556",
      "timezone": "Asia/Manila",
      "wikiDataId": "Q31811343",
      "country_code": "PH",
      "state_code": "BUL",
      "state_id": 1278,
      "country_id": 174
    },
    {
      "id": 144432,
      "name": "Guinabsan",
      "name_default": "Guinabsan",
      "native": "Guinabsan",
      "type": "city",
      "level": null,
      "parent_id": null,
      "population": 4358,
      "latitude": "8.89750000",
      "longitude": "125.41611111",
      "timezone": "Asia/Manila",
      "wikiDataId": "Q31811362",
      "country_code": "PH",
      "state_code": "BUL",
      "state_id": 1278,
      "country_id": 174
    },
    {
      "id": 144434,
      "name": "Ipil",
      "name_default": "Ipil",
      "native": "Ipil",
      "type": "city",
      "level": null,
      "parent_id": null,
      "population": 3333,
      "latitude": "9.79083333",
      "longitude": "125.43861111",
      "timezone": "Asia/Manila",
      "wikiDataId": "Q31811509",
      "country_code": "PH",
      "state_code": "BUL",
      "state_id": 1278,
      "country_id": 174
    },
    {
      "id": 144436,
      "name": "Jagupit",
      "name_default": "Jagupit",
      "native": "Jagupit",
      "type": "city",
      "level": null,
      "parent_id": null,
      "population": 2157,
      "latitude": "9.24222222",
      "longitude": "125.55805556",
      "timezone": "Asia/Manila",
      "wikiDataId": "Q31811530",
      "country_code": "PH",
      "state_code": "BUL",
      "state_id": 1278,
      "country_id": 174
    },
    {
      "id": 144439,
      "name": "Kinabhangan",
      "name_default": "Kinabhangan",
      "native": "Kinabhangan",
      "type": "city",
      "level": null,
      "parent_id": null,
      "population": 2626,
      "latitude": "8.96916667",
      "longitude": "125.35750000",
      "timezone": "Asia/Manila",
      "wikiDataId": "Q31811645",
      "country_code": "PH",
      "state_code": "BUL",
      "state_id": 1278,
      "country_id": 174
    },
    {
      "id": 144441,
      "name": "La Pace",
      "name_default": "La Paz",
      "native": "La Paz",
      "type": "city",
      "level": null,
      "parent_id": null,
      "population": 3618,
      "latitude": "8.27083333",
      "longitude": "125.79972222",
      "timezone": "Asia/Manila",
      "wikiDataId": "Q31811705",
      "country_code": "PH",
      "state_code": "BUL",
      "state_id": 1278,
      "country_id": 174
    },
    {
      "id": 144443,
      "name": "L'Unione",
      "name_default": "La Union",
      "native": "Union",
      "type": "city",
      "level": null,
      "parent_id": null,
      "population": 4758,
      "latitude": "9.08555556",
      "longitude": "125.53583333",
      "timezone": "Asia/Manila",
      "wikiDataId": "Q31811714",
      "country_code": "PH",
      "state_code": "BUL",
      "state_id": 1278,
      "country_id": 174
    },
    {
      "id": 144445,
      "name": "Lapinigan",
      "name_default": "Lapinigan",
      "native": "Humid",
      "type": "city",
      "level": null,
      "parent_id": null,
      "population": 4328,
      "latitude": "8.42055556",
      "longitude": "125.98250000",
      "timezone": "Asia/Manila",
      "wikiDataId": "Q31811799",
      "country_code": "PH",
      "state_code": "BUL",
      "state_id": 1278,
      "country_id": 174
    },
    {
      "id": 144446,
      "name": "Las Nieves",
      "name_default": "Las Nieves",
      "native": "The Nieves",
      "type": "city",
      "level": null,
      "parent_id": null,
      "population": 32402,
      "latitude": "8.73167000",
      "longitude": "125.59917000",
      "timezone": "Asia/Manila",
      "wikiDataId": "Q627529",
      "country_code": "PH",
      "state_code": "BUL",
      "state_id": 1278,
      "country_id": 174
    },
    {
      "id": 144448,
      "name": "Libas",
      "name_default": "Libas",
      "native": "Clothing",
      "type": "city",
      "level": null,
      "parent_id": null,
      "population": 3373,
      "latitude": "9.88333333",
      "longitude": "125.98333333",
      "timezone": "Asia/Manila",
      "wikiDataId": "Q31811843",
      "country_code": "PH",
      "state_code": "BUL",
      "state_id": 1278,
      "country_id": 174
    },
    {
      "id": 144449,
      "name": "Libertà",
      "name_default": "Libertad",
      "native": "Freedom",
      "type": "city",
      "level": null,
      "parent_id": null,
      "population": 250353,
      "latitude": "8.94416667",
      "longitude": "125.50194444",
      "timezone": "Asia/Manila",
      "wikiDataId": "Q31811852",
      "country_code": "PH",
      "state_code": "BUL",
      "state_id": 1278,
      "country_id": 174
    },
    {
      "id": 144455,
      "name": "Los Angeles",
      "name_default": "Los Angeles",
      "native": "Los Angeles",
      "type": "city",
      "level": null,
      "parent_id": null,
      "population": 4054,
      "latitude": "9.01250000",
      "longitude": "125.60805556",
      "timezone": "Asia/Manila",
      "wikiDataId": "Q31811955",
      "country_code": "PH",
      "state_code": "BUL",
      "state_id": 1278,
      "country_id": 174
    },
    {
      "id": 144456,
      "name": "Los Arcos",
      "name_default": "Los Arcos",
      "native": "The arches",
      "type": "city",
      "level": null,
      "parent_id": null,
      "population": 2234,
      "latitude": "8.63277778",
      "longitude": "125.98555556",
      "timezone": "Asia/Manila",
      "wikiDataId": "Q31811956",
      "country_code": "PH",
      "state_code": "BUL",
      "state_id": 1278,
      "country_id": 174
    },
    {
      "id": 144457,
      "name": "Loyola",
      "name_default": "Loyola",
      "native": "Loyola",
      "type": "city",
      "level": null,
      "parent_id": null,
      "population": 2673,
      "latitude": "8.33500000",
      "longitude": "126.33361111",
      "timezone": "Asia/Manila",
      "wikiDataId": "Q31811962",
      "country_code": "PH",
      "state_code": "BUL",
      "state_id": 1278,
      "country_id": 174
    },
    {
      "id": 144458,
      "name": "Luna",
      "name_default": "Luna",
      "native": "Luna",
      "type": "city",
      "level": null,
      "parent_id": null,
      "population": 7799,
      "latitude": "9.73694444",
      "longitude": "125.49750000",
      "timezone": "Asia/Manila",
      "wikiDataId": "Q31812000",
      "country_code": "PH",
      "state_code": "BUL",
      "state_id": 1278,
      "country_id": 174
    },
    {
      "id": 144459,
      "name": "Mabahin",
      "name_default": "Mabahin",
      "native": "divided",
      "type": "city",
      "level": null,
      "parent_id": null,
      "population": 2327,
      "latitude": "9.18555556",
      "longitude": "126.17055556",
      "timezone": "Asia/Manila",
      "wikiDataId": "Q31812034",
      "country_code": "PH",
      "state_code": "BUL",
      "state_id": 1278,
      "country_id": 174
    },
    {
      "id": 144460,
      "name": "Mabua",
      "name_default": "Mabua",
      "native": "Stalks",
      "type": "city",
      "level": null,
      "parent_id": null,
      "population": 2075,
      "latitude": "9.80388889",
      "longitude": "125.44083333",
      "timezone": "Asia/Manila",
      "wikiDataId": "Q31812050",
      "country_code": "PH",
      "state_code": "BUL",
      "state_id": 1278,
      "country_id": 174
    },
    {
      "id": 144465,
      "name": "Manapa",
      "name_default": "Manapa",
      "native": "Cut",
      "type": "city",
      "level": null,
      "parent_id": null,
      "population": 3919,
      "latitude": "8.97777778",
      "longitude": "125.43944444",
      "timezone": "Asia/Manila",
      "wikiDataId": "Q31812226",
      "country_code": "PH",
      "state_code": "BUL",
      "state_id": 1278,
      "country_id": 174
    },
    {
      "id": 144467,
      "name": "Matabao",
      "name_default": "Matabao",
      "native": "Classes",
      "type": "city",
      "level": null,
      "parent_id": null,
      "population": 3570,
      "latitude": "8.95722222",
      "longitude": "125.39944444",
      "timezone": "Asia/Manila",
      "wikiDataId": "Q31812333",
      "country_code": "PH",
      "state_code": "BUL",
      "state_id": 1278,
      "country_id": 174
    },
    {
      "id": 144469,
      "name": "Maygatasan",
      "name_default": "Maygatasan",
      "native": "Maygatasan",
      "type": "city",
      "level": null,
      "parent_id": null,
      "population": 4014,
      "latitude": "8.70944444",
      "longitude": "125.71833333",
      "timezone": "Asia/Manila",
      "wikiDataId": "Q31812374",
      "country_code": "PH",
      "state_code": "BUL",
      "state_id": 1278,
      "country_id": 174
    },
    {
      "id": 144472,
      "name": "Panikiano",
      "name_default": "Panikian",
      "native": "Panikian",
      "type": "city",
      "level": null,
      "parent_id": null,
      "population": 2103,
      "latitude": "9.32944444",
      "longitude": "125.93388889",
      "timezone": "Asia/Manila",
      "wikiDataId": "Q31462171",
      "country_code": "PH",
      "state_code": "BUL",
      "state_id": 1278,
      "country_id": 174
    },
    {
      "id": 144474,
      "name": "Patin-ay",
      "name_default": "Patin-ay",
      "native": "Patin-ay",
      "type": "city",
      "level": null,
      "parent_id": null,
      "population": 7263,
      "latitude": "8.55055556",
      "longitude": "125.93722222",
      "timezone": "Asia/Manila",
      "wikiDataId": "Q31464293",
      "country_code": "PH",
      "state_code": "BUL",
      "state_id": 1278,
      "country_id": 174
    },
    {
      "id": 144478,
      "name": "Punta",
      "name_default": "Punta",
      "native": "Punta",
      "type": "city",
      "level": null,
      "parent_id": null,
      "population": 3909,
      "latitude": "8.98972222",
      "longitude": "125.34000000",
      "timezone": "Asia/Manila",
      "wikiDataId": "Q31480360",
      "country_code": "PH",
      "state_code": "BUL",
      "state_id": 1278,
      "country_id": 174
    },
    {
      "id": 144482,
      "name": "Salvezza",
      "name_default": "Salvacion",
      "native": "Salvacion",
      "type": "city",
      "level": null,
      "parent_id": null,
      "population": 6090,
      "latitude": "7.99944444",
      "longitude": "126.12472222",
      "timezone": "Asia/Manila",
      "wikiDataId": "Q31500524",
      "country_code": "PH",
      "state_code": "BUL",
      "state_id": 1278,
      "country_id": 174
    },
    {
      "id": 144485,
      "name": "Sant'Agostino",
      "name_default": "San Agustin",
      "native": "San Agustin",
      "type": "city",
      "level": null,
      "parent_id": null,
      "population": 23698,
      "latitude": "8.74366389",
      "longitude": "126.22143333",
      "timezone": "Asia/Manila",
      "wikiDataId": "Q155618",
      "country_code": "PH",
      "state_code": "BUL",
      "state_id": 1278,
      "country_id": 174
    },
    {
      "id": 144488,
      "name": "San Francisco",
      "name_default": "San Francisco",
      "native": "San Francisco",
      "type": "adm3",
      "level": null,
      "parent_id": null,
      "population": 79718,
      "latitude": "8.53556000",
      "longitude": "125.95000000",
      "timezone": "Asia/Manila",
      "wikiDataId": "Q627190",
      "country_code": "PH",
      "state_code": "BUL",
      "state_id": 1278,
      "country_id": 174
    },
    {
      "id": 144492,
      "name": "San Isidro",
      "name_default": "San Isidro",
      "native": "San Isidro",
      "type": "adm3",
      "level": null,
      "parent_id": null,
      "population": 8813,
      "latitude": "7.75000000",
      "longitude": "125.73333333",
      "timezone": "Asia/Manila",
      "wikiDataId": "Q314468",
      "country_code": "PH",
      "state_code": "BUL",
      "state_id": 1278,
      "country_id": 174
    },
    {
      "id": 144495,
      "name": "San Miguel",
      "name_default": "San Miguel",
      "native": "San Miguel",
      "type": "city",
      "level": null,
      "parent_id": null,
      "population": 15992,
      "latitude": "8.88333333",
      "longitude": "126.00000000",
      "timezone": "Asia/Manila",
      "wikiDataId": "Q155625",
      "country_code": "PH",
      "state_code": "BUL",
      "state_id": 1278,
      "country_id": 174
    },
    {
      "id": 144496,
      "name": "Sanghan",
      "name_default": "Sanghan",
      "native": "Sanghan",
      "type": "city",
      "level": null,
      "parent_id": null,
      "population": 2509,
      "latitude": "9.08555556",
      "longitude": "125.57277778",
      "timezone": "Asia/Manila",
      "wikiDataId": "Q31509883",
      "country_code": "PH",
      "state_code": "BUL",
      "state_id": 1278,
      "country_id": 174
    },
    {
      "id": 144497,
      "name": "Santa Ana",
      "name_default": "Santa Ana",
      "native": "Santa Ana",
      "type": "city",
      "level": null,
      "parent_id": null,
      "population": 2452,
      "latitude": "9.19277778",
      "longitude": "125.56444444",
      "timezone": "Asia/Manila",
      "wikiDataId": "Q31510107",
      "country_code": "PH",
      "state_code": "BUL",
      "state_id": 1278,
      "country_id": 174
    },
    {
      "id": 144499,
      "name": "Santa Maria",
      "name_default": "Santa Maria",
      "native": "Santa Maria",
      "type": "city",
      "level": null,
      "parent_id": null,
      "population": 2554,
      "latitude": "8.03333333",
      "longitude": "126.16250000",
      "timezone": "Asia/Manila",
      "wikiDataId": "Q31511448",
      "country_code": "PH",
      "state_code": "BUL",
      "state_id": 1278,
      "country_id": 174
    },
    {
      "id": 144501,
      "name": "Santa Monica",
      "name_default": "Santa Monica",
      "native": "Santa Monica",
      "type": "adm3",
      "level": null,
      "parent_id": null,
      "population": 2284,
      "latitude": "10.02000000",
      "longitude": "126.03833000",
      "timezone": "Asia/Manila",
      "wikiDataId": "Q31511695",
      "country_code": "PH",
      "state_code": "BUL",
      "state_id": 1278,
      "country_id": 174
    },
    {
      "id": 144503,
      "name": "Santiago",
      "name_default": "Santiago",
      "native": "Santiago",
      "type": "city",
      "level": null,
      "parent_id": null,
      "population": 2452,
      "latitude": "9.26556000",
      "longitude": "125.55917000",
      "timezone": "Asia/Manila",
      "wikiDataId": "Q588955",
      "country_code": "PH",
      "state_code": "BUL",
      "state_id": 1278,
      "country_id": 174
    },
    {
      "id": 144506,
      "name": "Sinubong",
      "name_default": "Sinubong",
      "native": "ELECTRUM",
      "type": "city",
      "level": null,
      "parent_id": null,
      "population": 3335,
      "latitude": "8.06833333",
      "longitude": "125.93083333",
      "timezone": "Asia/Manila",
      "wikiDataId": "Q31521133",
      "country_code": "PH",
      "state_code": "BUL",
      "state_id": 1278,
      "country_id": 174
    },
    {
      "id": 144508,
      "name": "Soccorso",
      "name_default": "Socorro",
      "native": "Socorro",
      "type": "adm3",
      "level": null,
      "parent_id": null,
      "population": 9743,
      "latitude": "9.62100000",
      "longitude": "125.96700000",
      "timezone": "Asia/Manila",
      "wikiDataId": "Q155917",
      "country_code": "PH",
      "state_code": "BUL",
      "state_id": 1278,
      "country_id": 174
    },
    {
      "id": 144512,
      "name": "Tagcatong",
      "name_default": "Tagcatong",
      "native": "Tagucatong",
      "type": "city",
      "level": null,
      "parent_id": null,
      "population": 2907,
      "latitude": "9.00222222",
      "longitude": "125.25694444",
      "timezone": "Asia/Manila",
      "wikiDataId": "Q31542280",
      "country_code": "PH",
      "state_code": "BUL",
      "state_id": 1278,
      "country_id": 174
    },
    {
      "id": 144514,
      "name": "Talacogon",
      "name_default": "Talacogon",
      "native": "Talacogon",
      "type": "adm3",
      "level": null,
      "parent_id": null,
      "population": 37744,
      "latitude": "8.41667000",
      "longitude": "125.80000000",
      "timezone": "Asia/Manila",
      "wikiDataId": "Q627286",
      "country_code": "PH",
      "state_code": "BUL",
      "state_id": 1278,
      "country_id": 174
    },
    {
      "id": 144515,
      "name": "Taligaman",
      "name_default": "Taligaman",
      "native": "Taligaman",
      "type": "city",
      "level": null,
      "parent_id": null,
      "population": 7430,
      "latitude": "8.90444444",
      "longitude": "125.65583333",
      "timezone": "Asia/Manila",
      "wikiDataId": "Q31543623",
      "country_code": "PH",
      "state_code": "BUL",
      "state_id": 1278,
      "country_id": 174
    },
    {
      "id": 144516,
      "name": "Talisay",
      "name_default": "Talisay",
      "native": "Talisay",
      "type": "city",
      "level": null,
      "parent_id": null,
      "population": 2200,
      "latitude": "9.81888889",
      "longitude": "125.61555556",
      "timezone": "Asia/Manila",
      "wikiDataId": "Q31543816",
      "country_code": "PH",
      "state_code": "BUL",
      "state_id": 1278,
      "country_id": 174
    },
    {
      "id": 144519,
      "name": "Tidman",
      "name_default": "Tidman",
      "native": "Tidman",
      "type": "city",
      "level": null,
      "parent_id": null,
      "population": 3154,
      "latitude": "8.29861111",
      "longitude": "126.33888889",
      "timezone": "Asia/Manila",
      "wikiDataId": "Q31555326",
      "country_code": "PH",
      "state_code": "BUL",
      "state_id": 1278,
      "country_id": 174
    },
    {
      "id": 144520,
      "name": "Tigao",
      "name_default": "Tigao",
      "native": "Tigao",
      "type": "city",
      "level": null,
      "parent_id": null,
      "population": 2077,
      "latitude": "9.20888889",
      "longitude": "126.17611111",
      "timezone": "Asia/Manila",
      "wikiDataId": "Q31555536",
      "country_code": "PH",
      "state_code": "BUL",
      "state_id": 1278,
      "country_id": 174
    },
    {
      "id": 144521,
      "name": "Trento",
      "name_default": "Trento",
      "native": "Trento",
      "type": "adm3",
      "level": null,
      "parent_id": null,
      "population": 51179,
      "latitude": "8.05000000",
      "longitude": "126.13333000",
      "timezone": "Asia/Manila",
      "wikiDataId": "Q627320",
      "country_code": "PH",
      "state_code": "BUL",
      "state_id": 1278,
      "country_id": 174
    },
    {
      "id": 144525,
      "name": "Unità",
      "name_default": "Unidad",
      "native": "Unit",
      "type": "city",
      "level": null,
      "parent_id": null,
      "population": 3344,
      "latitude": "8.53555556",
      "longitude": "126.22861111",
      "timezone": "Asia/Manila",
      "wikiDataId": "Q31567927",
      "country_code": "PH",
      "state_code": "BUL",
      "state_id": 1278,
      "country_id": 174
    },
    {
      "id": 144526,
      "name": "Unione",
      "name_default": "Union",
      "native": "Union",
      "type": "city",
      "level": null,
      "parent_id": null,
      "population": 2368,
      "latitude": "9.75666667",
      "longitude": "126.11027778",
      "timezone": "Asia/Manila",
      "wikiDataId": "Q31568006",
      "country_code": "PH",
      "state_code": "BUL",
      "state_id": 1278,
      "country_id": 174
    }
  ]
}
