{
  "locale": "zh-CN",
  "country": {
    "id": 82,
    "code": "DE",
    "iso3": "DEU",
    "numeric_code": "276",
    "name": "德国",
    "name_default": "Germany",
    "native": "Deutschland",
    "capital": "Berlin",
    "phonecode": "49",
    "currency": "EUR",
    "currency_name": "Euro",
    "currency_symbol": "€",
    "tld": ".de",
    "population": 83517030,
    "gdp": 4744804,
    "region": "Europe",
    "region_id": 4,
    "subregion": "Western Europe",
    "subregion_id": 17,
    "nationality": "German",
    "timezones": [
      {
        "zoneName": "Europe/Berlin",
        "gmtOffset": 3600,
        "gmtOffsetName": "UTC+01:00",
        "abbreviation": "CET",
        "tzName": "Central European Time"
      },
      {
        "zoneName": "Europe/Busingen",
        "gmtOffset": 3600,
        "gmtOffsetName": "UTC+01:00",
        "abbreviation": "CET",
        "tzName": "Central European Time"
      }
    ],
    "latitude": "51.00000000",
    "longitude": "9.00000000",
    "emoji": "🇩🇪",
    "emojiU": "U+1F1E9 U+1F1EA"
  },
  "state": {
    "id": 3021,
    "code": "SN",
    "iso2": "SN",
    "iso3166_2": "DE-SN",
    "fips_code": "13",
    "name": "萨克森州",
    "name_default": "Saxony",
    "native": "Saxony",
    "type": "land",
    "level": null,
    "parent_id": null,
    "population": 4089467,
    "latitude": "50.92957980",
    "longitude": "13.45850520",
    "timezone": "Europe/Berlin",
    "wikiDataId": "Q1202",
    "country_code": "DE"
  },
  "cities": [
    {
      "id": 23493,
      "name": "阿多夫",
      "name_default": "Adorf",
      "native": "Adorf",
      "type": "city",
      "level": null,
      "parent_id": null,
      "population": 5806,
      "latitude": "50.32011000",
      "longitude": "12.25986000",
      "timezone": "Europe/Berlin",
      "wikiDataId": "Q46853",
      "country_code": "DE",
      "state_code": "SN",
      "state_id": 3021,
      "country_id": 82
    },
    {
      "id": 23537,
      "name": "阿尔贝特施塔特",
      "name_default": "Albertstadt",
      "native": "Albertstadt",
      "type": "city",
      "level": null,
      "parent_id": null,
      "population": 3269,
      "latitude": "51.08333000",
      "longitude": "13.76667000",
      "timezone": "Europe/Berlin",
      "wikiDataId": "Q8893",
      "country_code": "DE",
      "state_code": "SN",
      "state_id": 3021,
      "country_id": 82
    },
    {
      "id": 23593,
      "name": "阿尔滕贝格",
      "name_default": "Altenberg",
      "native": "Altenberg",
      "type": "city",
      "level": null,
      "parent_id": null,
      "population": 5167,
      "latitude": "50.76556000",
      "longitude": "13.75334000",
      "timezone": "Europe/Berlin",
      "wikiDataId": "Q436724",
      "country_code": "DE",
      "state_code": "SN",
      "state_id": 3021,
      "country_id": 82
    },
    {
      "id": 23629,
      "name": "阿尔特米特韦达",
      "name_default": "Altmittweida",
      "native": "Altmittweida",
      "type": "adm4",
      "level": null,
      "parent_id": null,
      "population": 1903,
      "latitude": "50.96667000",
      "longitude": "12.95000000",
      "timezone": "Europe/Berlin",
      "wikiDataId": "Q22876",
      "country_code": "DE",
      "state_code": "SN",
      "state_id": 3021,
      "country_id": 82
    },
    {
      "id": 23661,
      "name": "安娜伯格-布赫霍尔茨",
      "name_default": "Annaberg-Buchholz",
      "native": "Annaberg-Buchholz",
      "type": "adm3",
      "level": null,
      "parent_id": null,
      "population": 19470,
      "latitude": "50.57953000",
      "longitude": "13.00627000",
      "timezone": "Europe/Berlin",
      "wikiDataId": "Q57944",
      "country_code": "DE",
      "state_code": "SN",
      "state_id": 3021,
      "country_id": 82
    },
    {
      "id": 23696,
      "name": "阿茨伯格",
      "name_default": "Arzberg",
      "native": "Arzberg",
      "type": "adm4",
      "level": null,
      "parent_id": null,
      "population": 2304,
      "latitude": "51.52887000",
      "longitude": "13.12565000",
      "timezone": "Europe/Berlin",
      "wikiDataId": "Q16029",
      "country_code": "DE",
      "state_code": "SN",
      "state_id": 3021,
      "country_id": 82
    },
    {
      "id": 23724,
      "name": "奥厄",
      "name_default": "Aue",
      "native": "Oh",
      "type": "city",
      "level": null,
      "parent_id": null,
      "population": 18554,
      "latitude": "50.59034000",
      "longitude": "12.70657000",
      "timezone": "Europe/Berlin",
      "wikiDataId": "Q31886858",
      "country_code": "DE",
      "state_code": "SN",
      "state_id": 3021,
      "country_id": 82
    },
    {
      "id": 23726,
      "name": "奥尔巴赫",
      "name_default": "Auerbach",
      "native": "Auerbach",
      "type": "city",
      "level": null,
      "parent_id": null,
      "population": 17562,
      "latitude": "50.51155000",
      "longitude": "12.40083000",
      "timezone": "Europe/Berlin",
      "wikiDataId": "Q31887013",
      "country_code": "DE",
      "state_code": "SN",
      "state_id": 3021,
      "country_id": 82
    },
    {
      "id": 23733,
      "name": "奥古斯都堡",
      "name_default": "Augustusburg",
      "native": "Augustus burg",
      "type": "city",
      "level": null,
      "parent_id": null,
      "population": 4482,
      "latitude": "50.81192000",
      "longitude": "13.10197000",
      "timezone": "Europe/Berlin",
      "wikiDataId": "Q71090",
      "country_code": "DE",
      "state_code": "SN",
      "state_id": 3021,
      "country_id": 82
    },
    {
      "id": 23775,
      "name": "巴特布兰巴赫",
      "name_default": "Bad Brambach",
      "native": "Schlechtes Brambach",
      "type": "adm4",
      "level": null,
      "parent_id": null,
      "population": 2284,
      "latitude": "50.21667000",
      "longitude": "12.31667000",
      "timezone": "Europe/Berlin",
      "wikiDataId": "Q518432",
      "country_code": "DE",
      "state_code": "SN",
      "state_id": 3021,
      "country_id": 82
    },
    {
      "id": 23784,
      "name": "巴特迪本",
      "name_default": "Bad Düben",
      "native": "Bad Düben",
      "type": "city",
      "level": null,
      "parent_id": null,
      "population": 7859,
      "latitude": "51.59174000",
      "longitude": "12.58492000",
      "timezone": "Europe/Berlin",
      "wikiDataId": "Q12041",
      "country_code": "DE",
      "state_code": "SN",
      "state_id": 3021,
      "country_id": 82
    },
    {
      "id": 23789,
      "name": "巴特埃尔斯特",
      "name_default": "Bad Elster",
      "native": "Schlechter Elster",
      "type": "city",
      "level": null,
      "parent_id": null,
      "population": 3617,
      "latitude": "50.28192000",
      "longitude": "12.23430000",
      "timezone": "Europe/Berlin",
      "wikiDataId": "Q46856",
      "country_code": "DE",
      "state_code": "SN",
      "state_id": 3021,
      "country_id": 82
    },
    {
      "id": 23826,
      "name": "巴特劳西克",
      "name_default": "Bad Lausick",
      "native": "Schlechtes Lausick",
      "type": "city",
      "level": null,
      "parent_id": null,
      "population": 8207,
      "latitude": "51.14495000",
      "longitude": "12.64449000",
      "timezone": "Europe/Berlin",
      "wikiDataId": "Q10739",
      "country_code": "DE",
      "state_code": "SN",
      "state_id": 3021,
      "country_id": 82
    },
    {
      "id": 23836,
      "name": "巴特穆斯考",
      "name_default": "Bad Muskau",
      "native": "Schlechtes Muskau",
      "type": "city",
      "level": null,
      "parent_id": null,
      "population": 3685,
      "latitude": "51.55051000",
      "longitude": "14.71240000",
      "timezone": "Europe/Berlin",
      "wikiDataId": "Q165131",
      "country_code": "DE",
      "state_code": "SN",
      "state_id": 3021,
      "country_id": 82
    },
    {
      "id": 23860,
      "name": "巴特尚道",
      "name_default": "Bad Schandau",
      "native": "Bad Schandau",
      "type": "city",
      "level": null,
      "parent_id": null,
      "population": 3409,
      "latitude": "50.91743000",
      "longitude": "14.15494000",
      "timezone": "Europe/Berlin",
      "wikiDataId": "Q6406",
      "country_code": "DE",
      "state_code": "SN",
      "state_id": 3021,
      "country_id": 82
    },
    {
      "id": 23861,
      "name": "巴特施莱马",
      "name_default": "Bad Schlema",
      "native": "Schlechtes Schema",
      "type": "city",
      "level": null,
      "parent_id": null,
      "population": 4777,
      "latitude": "50.60257000",
      "longitude": "12.67288000",
      "timezone": "Europe/Berlin",
      "wikiDataId": "Q57711",
      "country_code": "DE",
      "state_code": "SN",
      "state_id": 3021,
      "country_id": 82
    },
    {
      "id": 23921,
      "name": "班内维茨",
      "name_default": "Bannewitz",
      "native": "Bannewitz",
      "type": "adm4",
      "level": null,
      "parent_id": null,
      "population": 11128,
      "latitude": "50.99291000",
      "longitude": "13.71712000",
      "timezone": "Europe/Berlin",
      "wikiDataId": "Q6448",
      "country_code": "DE",
      "state_code": "SN",
      "state_id": 3021,
      "country_id": 82
    },
    {
      "id": 24459,
      "name": "贝伦施泰因",
      "name_default": "Bärenstein",
      "native": "Bärenstein",
      "type": "adm4",
      "level": null,
      "parent_id": null,
      "population": 2249,
      "latitude": "50.50000000",
      "longitude": "13.03333000",
      "timezone": "Europe/Berlin",
      "wikiDataId": "Q512917",
      "country_code": "DE",
      "state_code": "SN",
      "state_id": 3021,
      "country_id": 82
    },
    {
      "id": 23963,
      "name": "包岑",
      "name_default": "Bautzen",
      "native": "Bautzen",
      "type": "adm3",
      "level": null,
      "parent_id": null,
      "population": 38039,
      "latitude": "51.18035000",
      "longitude": "14.43494000",
      "timezone": "Europe/Berlin",
      "wikiDataId": "Q14835",
      "country_code": "DE",
      "state_code": "SN",
      "state_id": 3021,
      "country_id": 82
    },
    {
      "id": 23992,
      "name": "贝尔费尔德",
      "name_default": "Beierfeld",
      "native": "Beefield",
      "type": "city",
      "level": null,
      "parent_id": null,
      "population": 4069,
      "latitude": "50.56529000",
      "longitude": "12.79049000",
      "timezone": "Europe/Berlin",
      "wikiDataId": "Q814665",
      "country_code": "DE",
      "state_code": "SN",
      "state_id": 3021,
      "country_id": 82
    },
    {
      "id": 23993,
      "name": "拜尔斯道夫",
      "name_default": "Beiersdorf",
      "native": "Beiersdorf",
      "type": "adm4",
      "level": null,
      "parent_id": null,
      "population": 1369,
      "latitude": "51.07405000",
      "longitude": "14.53828000",
      "timezone": "Europe/Berlin",
      "wikiDataId": "Q814665",
      "country_code": "DE",
      "state_code": "SN",
      "state_id": 3021,
      "country_id": 82
    },
    {
      "id": 23994,
      "name": "贝尔罗德",
      "name_default": "Beilrode",
      "native": "Beilrode",
      "type": "adm4",
      "level": null,
      "parent_id": null,
      "population": 2666,
      "latitude": "51.56667000",
      "longitude": "13.06667000",
      "timezone": "Europe/Berlin",
      "wikiDataId": "Q814665",
      "country_code": "DE",
      "state_code": "SN",
      "state_id": 3021,
      "country_id": 82
    },
    {
      "id": 23998,
      "name": "贝尔根",
      "name_default": "Belgern",
      "native": "Belgern",
      "type": "city",
      "level": null,
      "parent_id": null,
      "population": 5148,
      "latitude": "51.48263000",
      "longitude": "13.12382000",
      "timezone": "Europe/Berlin",
      "wikiDataId": "Q12042",
      "country_code": "DE",
      "state_code": "SN",
      "state_id": 3021,
      "country_id": 82
    },
    {
      "id": 23999,
      "name": "贝尔格斯海恩",
      "name_default": "Belgershain",
      "native": "Begelierhain",
      "type": "adm4",
      "level": null,
      "parent_id": null,
      "population": 3372,
      "latitude": "51.23333000",
      "longitude": "12.55000000",
      "timezone": "Europe/Berlin",
      "wikiDataId": "Q10740",
      "country_code": "DE",
      "state_code": "SN",
      "state_id": 3021,
      "country_id": 82
    },
    {
      "id": 24012,
      "name": "本内维茨",
      "name_default": "Bennewitz",
      "native": "Bennewitz",
      "type": "section",
      "level": null,
      "parent_id": null,
      "population": 5069,
      "latitude": "51.36074000",
      "longitude": "12.71376000",
      "timezone": "Europe/Berlin",
      "wikiDataId": "Q10741",
      "country_code": "DE",
      "state_code": "SN",
      "state_id": 3021,
      "country_id": 82
    },
    {
      "id": 24034,
      "name": "卑尔根",
      "name_default": "Bergen",
      "native": "Bergen",
      "type": "adm4",
      "level": null,
      "parent_id": null,
      "population": 941,
      "latitude": "50.47100000",
      "longitude": "12.27448000",
      "timezone": "Europe/Berlin",
      "wikiDataId": "Q31910471",
      "country_code": "DE",
      "state_code": "SN",
      "state_id": 3021,
      "country_id": 82
    },
    {
      "id": 24069,
      "name": "伯恩斯巴赫",
      "name_default": "Bernsbach",
      "native": "Bernsbach",
      "type": "city",
      "level": null,
      "parent_id": null,
      "population": 4676,
      "latitude": "50.57624000",
      "longitude": "12.76751000",
      "timezone": "Europe/Berlin",
      "wikiDataId": "Q57717",
      "country_code": "DE",
      "state_code": "SN",
      "state_id": 3021,
      "country_id": 82
    },
    {
      "id": 24070,
      "name": "伯恩斯多夫",
      "name_default": "Bernsdorf",
      "native": "Bernsdorf",
      "type": "city",
      "level": null,
      "parent_id": null,
      "population": 5871,
      "latitude": "51.37350000",
      "longitude": "14.06886000",
      "timezone": "Europe/Berlin",
      "wikiDataId": "Q81732",
      "country_code": "DE",
      "state_code": "SN",
      "state_id": 3021,
      "country_id": 82
    },
    {
      "id": 24071,
      "name": "伯恩施塔特",
      "name_default": "Bernstadt",
      "native": "Bernstadt",
      "type": "city",
      "level": null,
      "parent_id": null,
      "population": 4046,
      "latitude": "51.04736000",
      "longitude": "14.82784000",
      "timezone": "Europe/Berlin",
      "wikiDataId": "Q31911187",
      "country_code": "DE",
      "state_code": "SN",
      "state_id": 3021,
      "country_id": 82
    },
    {
      "id": 24075,
      "name": "贝瑟尔斯多夫",
      "name_default": "Berthelsdorf",
      "native": "Berthelsdorf",
      "type": "city",
      "level": null,
      "parent_id": null,
      "population": 1813,
      "latitude": "51.04679000",
      "longitude": "14.22197000",
      "timezone": "Europe/Berlin",
      "wikiDataId": "Q31911413",
      "country_code": "DE",
      "state_code": "SN",
      "state_id": 3021,
      "country_id": 82
    },
    {
      "id": 24076,
      "name": "贝茨多夫-赫尔尼茨",
      "name_default": "Bertsdorf-Hörnitz",
      "native": "Bertsdorf-Hörnitz",
      "type": "city",
      "level": null,
      "parent_id": null,
      "population": 2616,
      "latitude": "50.88593000",
      "longitude": "14.73696000",
      "timezone": "Europe/Berlin",
      "wikiDataId": "Q502461",
      "country_code": "DE",
      "state_code": "SN",
      "state_id": 3021,
      "country_id": 82
    },
    {
      "id": 24150,
      "name": "比绍夫斯韦达",
      "name_default": "Bischofswerda",
      "native": "Bischofswerda",
      "type": "city",
      "level": null,
      "parent_id": null,
      "population": 10648,
      "latitude": "51.12771000",
      "longitude": "14.17974000",
      "timezone": "Europe/Berlin",
      "wikiDataId": "Q81717",
      "country_code": "DE",
      "state_code": "SN",
      "state_id": 3021,
      "country_id": 82
    },
    {
      "id": 24195,
      "name": "博考",
      "name_default": "Bockau",
      "native": "Bockau",
      "type": "adm4",
      "level": null,
      "parent_id": null,
      "population": 2180,
      "latitude": "50.54209000",
      "longitude": "12.68639000",
      "timezone": "Europe/Berlin",
      "wikiDataId": "Q57720",
      "country_code": "DE",
      "state_code": "SN",
      "state_id": 3021,
      "country_id": 82
    },
    {
      "id": 24196,
      "name": "博克尔维茨",
      "name_default": "Bockelwitz",
      "native": "Boo -Kopf, Rache",
      "type": "city",
      "level": null,
      "parent_id": null,
      "population": 2794,
      "latitude": "51.19942000",
      "longitude": "12.95618000",
      "timezone": "Europe/Berlin",
      "wikiDataId": "Q542047",
      "country_code": "DE",
      "state_code": "SN",
      "state_id": 3021,
      "country_id": 82
    },
    {
      "id": 24466,
      "name": "伯伦",
      "name_default": "Böhlen",
      "native": "Böhlen",
      "type": "city",
      "level": null,
      "parent_id": null,
      "population": 6931,
      "latitude": "51.20061000",
      "longitude": "12.38622000",
      "timezone": "Europe/Berlin",
      "wikiDataId": "Q22972",
      "country_code": "DE",
      "state_code": "SN",
      "state_id": 3021,
      "country_id": 82
    },
    {
      "id": 24250,
      "name": "博尔纳",
      "name_default": "Borna",
      "native": "Borna",
      "type": "adm3",
      "level": null,
      "parent_id": null,
      "population": 20013,
      "latitude": "51.12416000",
      "longitude": "12.49639000",
      "timezone": "Europe/Berlin",
      "wikiDataId": "Q623947",
      "country_code": "DE",
      "state_code": "SN",
      "state_id": 3021,
      "country_id": 82
    },
    {
      "id": 24474,
      "name": "伯尼兴",
      "name_default": "Börnichen",
      "native": "Börnichen",
      "type": "city",
      "level": null,
      "parent_id": null,
      "population": 959,
      "latitude": "50.75010000",
      "longitude": "13.14075000",
      "timezone": "Europe/Berlin",
      "wikiDataId": "Q57725",
      "country_code": "DE",
      "state_code": "SN",
      "state_id": 3021,
      "country_id": 82
    },
    {
      "id": 24257,
      "name": "博尔斯多夫",
      "name_default": "Borsdorf",
      "native": "Borsdorf",
      "type": "adm4",
      "level": null,
      "parent_id": null,
      "population": 8208,
      "latitude": "51.35000000",
      "longitude": "12.53333000",
      "timezone": "Europe/Berlin",
      "wikiDataId": "Q10745",
      "country_code": "DE",
      "state_code": "SN",
      "state_id": 3021,
      "country_id": 82
    },
    {
      "id": 24260,
      "name": "博尔斯滕多夫",
      "name_default": "Borstendorf",
      "native": "Borstendorf",
      "type": "adm4",
      "level": null,
      "parent_id": null,
      "population": 1363,
      "latitude": "50.77323000",
      "longitude": "13.17918000",
      "timezone": "Europe/Berlin",
      "wikiDataId": "Q57729",
      "country_code": "DE",
      "state_code": "SN",
      "state_id": 3021,
      "country_id": 82
    },
    {
      "id": 24480,
      "name": "贝森布伦",
      "name_default": "Bösenbrunn",
      "native": "Bösenbrunn",
      "type": "adm4",
      "level": null,
      "parent_id": null,
      "population": 1460,
      "latitude": "50.39703000",
      "longitude": "12.09998000",
      "timezone": "Europe/Berlin",
      "wikiDataId": "Q46742",
      "country_code": "DE",
      "state_code": "SN",
      "state_id": 3021,
      "country_id": 82
    },
    {
      "id": 24267,
      "name": "博克斯伯格",
      "name_default": "Boxberg",
      "native": "Boxberg",
      "type": "city",
      "level": null,
      "parent_id": null,
      "population": 3093,
      "latitude": "51.40373000",
      "longitude": "14.57598000",
      "timezone": "Europe/Berlin",
      "wikiDataId": "Q544833",
      "country_code": "DE",
      "state_code": "SN",
      "state_id": 3021,
      "country_id": 82
    },
    {
      "id": 24278,
      "name": "布兰德-埃尔比斯多夫",
      "name_default": "Brand-Erbisdorf",
      "native": "Brand-erbisdorf",
      "type": "city",
      "level": null,
      "parent_id": null,
      "population": 11284,
      "latitude": "50.86643000",
      "longitude": "13.32285000",
      "timezone": "Europe/Berlin",
      "wikiDataId": "Q71159",
      "country_code": "DE",
      "state_code": "SN",
      "state_id": 3021,
      "country_id": 82
    },
    {
      "id": 24281,
      "name": "布兰迪斯",
      "name_default": "Brandis",
      "native": "Brandis",
      "type": "city",
      "level": null,
      "parent_id": null,
      "population": 9689,
      "latitude": "51.33597000",
      "longitude": "12.61024000",
      "timezone": "Europe/Berlin",
      "wikiDataId": "Q3931",
      "country_code": "DE",
      "state_code": "SN",
      "state_id": 3021,
      "country_id": 82
    },
    {
      "id": 24308,
      "name": "布赖滕布伦",
      "name_default": "Breitenbrunn",
      "native": "Breitenbrunn",
      "type": "city",
      "level": null,
      "parent_id": null,
      "population": 5157,
      "latitude": "50.47553000",
      "longitude": "12.76649000",
      "timezone": "Europe/Berlin",
      "wikiDataId": "Q57731",
      "country_code": "DE",
      "state_code": "SN",
      "state_id": 3021,
      "country_id": 82
    },
    {
      "id": 24435,
      "name": "伯格施泰特",
      "name_default": "Burgstädt",
      "native": "Burgstädt",
      "type": "city",
      "level": null,
      "parent_id": null,
      "population": 10402,
      "latitude": "50.91333000",
      "longitude": "12.80600000",
      "timezone": "Europe/Berlin",
      "wikiDataId": "Q71095",
      "country_code": "DE",
      "state_code": "SN",
      "state_id": 3021,
      "country_id": 82
    },
    {
      "id": 24441,
      "name": "布尔考",
      "name_default": "Burkau",
      "native": "Burkau",
      "type": "adm4",
      "level": null,
      "parent_id": null,
      "population": 2677,
      "latitude": "51.17579000",
      "longitude": "14.17329000",
      "timezone": "Europe/Berlin",
      "wikiDataId": "Q93216",
      "country_code": "DE",
      "state_code": "SN",
      "state_id": 3021,
      "country_id": 82
    },
    {
      "id": 24442,
      "name": "布克哈茨多夫",
      "name_default": "Burkhardtsdorf",
      "native": "Burkhardtsdorf",
      "type": "adm4",
      "level": null,
      "parent_id": null,
      "population": 6029,
      "latitude": "50.73333000",
      "longitude": "12.91667000",
      "timezone": "Europe/Berlin",
      "wikiDataId": "Q57736",
      "country_code": "DE",
      "state_code": "SN",
      "state_id": 3021,
      "country_id": 82
    },
    {
      "id": 24517,
      "name": "卡伦伯格",
      "name_default": "Callenberg",
      "native": "Callenberg",
      "type": "adm4",
      "level": null,
      "parent_id": null,
      "population": 4814,
      "latitude": "50.85000000",
      "longitude": "12.63333000",
      "timezone": "Europe/Berlin",
      "wikiDataId": "Q17113",
      "country_code": "DE",
      "state_code": "SN",
      "state_id": 3021,
      "country_id": 82
    },
    {
      "id": 24527,
      "name": "卡维蒂茨",
      "name_default": "Cavertitz",
      "native": "Cavertitz",
      "type": "adm4",
      "level": null,
      "parent_id": null,
      "population": 2153,
      "latitude": "51.38333000",
      "longitude": "13.13333000",
      "timezone": "Europe/Berlin",
      "wikiDataId": "Q16041",
      "country_code": "DE",
      "state_code": "SN",
      "state_id": 3021,
      "country_id": 82
    },
    {
      "id": 24533,
      "name": "开姆尼茨",
      "name_default": "Chemnitz",
      "native": "Chemnitz",
      "type": "adm3",
      "level": null,
      "parent_id": null,
      "population": 247220,
      "latitude": "50.83570000",
      "longitude": "12.92922000",
      "timezone": "Europe/Berlin",
      "wikiDataId": "Q2795",
      "country_code": "DE",
      "state_code": "SN",
      "state_id": 3021,
      "country_id": 82
    },
    {
      "id": 24539,
      "name": "克劳斯尼茨",
      "name_default": "Claußnitz",
      "native": "Claußnitz",
      "type": "adm4",
      "level": null,
      "parent_id": null,
      "population": 2910,
      "latitude": "50.93333000",
      "longitude": "12.88333000",
      "timezone": "Europe/Berlin",
      "wikiDataId": "Q70942",
      "country_code": "DE",
      "state_code": "SN",
      "state_id": 3021,
      "country_id": 82
    },
    {
      "id": 24549,
      "name": "科尔迪茨",
      "name_default": "Colditz",
      "native": "Colditz",
      "type": "city",
      "level": null,
      "parent_id": null,
      "population": 8447,
      "latitude": "51.12821000",
      "longitude": "12.80295000",
      "timezone": "Europe/Berlin",
      "wikiDataId": "Q10762",
      "country_code": "DE",
      "state_code": "SN",
      "state_id": 3021,
      "country_id": 82
    },
    {
      "id": 24554,
      "name": "科斯维格",
      "name_default": "Coswig",
      "native": "Coswig",
      "type": "city",
      "level": null,
      "parent_id": null,
      "population": 20561,
      "latitude": "51.13204000",
      "longitude": "13.58312000",
      "timezone": "Europe/Berlin",
      "wikiDataId": "Q622576",
      "country_code": "DE",
      "state_code": "SN",
      "state_id": 3021,
      "country_id": 82
    },
    {
      "id": 24563,
      "name": "克里米乔",
      "name_default": "Crimmitschau",
      "native": "Crimmitschau",
      "type": "city",
      "level": null,
      "parent_id": null,
      "population": 18479,
      "latitude": "50.81644000",
      "longitude": "12.39045000",
      "timezone": "Europe/Berlin",
      "wikiDataId": "Q20070",
      "country_code": "DE",
      "state_code": "SN",
      "state_id": 3021,
      "country_id": 82
    },
    {
      "id": 24566,
      "name": "克罗斯托",
      "name_default": "Crostau",
      "native": "Crostau",
      "type": "city",
      "level": null,
      "parent_id": null,
      "population": 1786,
      "latitude": "51.08462000",
      "longitude": "14.45589000",
      "timezone": "Europe/Berlin",
      "wikiDataId": "Q544931",
      "country_code": "DE",
      "state_code": "SN",
      "state_id": 3021,
      "country_id": 82
    },
    {
      "id": 24567,
      "name": "克罗斯特维茨",
      "name_default": "Crostwitz",
      "native": "Crostwitz",
      "type": "adm4",
      "level": null,
      "parent_id": null,
      "population": 1036,
      "latitude": "51.23832000",
      "longitude": "14.24338000",
      "timezone": "Europe/Berlin",
      "wikiDataId": "Q93223",
      "country_code": "DE",
      "state_code": "SN",
      "state_id": 3021,
      "country_id": 82
    },
    {
      "id": 24568,
      "name": "克罗滕多夫",
      "name_default": "Crottendorf",
      "native": "Crottendorf",
      "type": "adm4",
      "level": null,
      "parent_id": null,
      "population": 3932,
      "latitude": "50.51667000",
      "longitude": "12.95000000",
      "timezone": "Europe/Berlin",
      "wikiDataId": "Q57739",
      "country_code": "DE",
      "state_code": "SN",
      "state_id": 3021,
      "country_id": 82
    },
    {
      "id": 24569,
      "name": "库内瓦尔德",
      "name_default": "Cunewalde",
      "native": "Cunewalde",
      "type": "adm4",
      "level": null,
      "parent_id": null,
      "population": 4537,
      "latitude": "51.10000000",
      "longitude": "14.51667000",
      "timezone": "Europe/Berlin",
      "wikiDataId": "Q93225",
      "country_code": "DE",
      "state_code": "SN",
      "state_id": 3021,
      "country_id": 82
    },
    {
      "id": 24579,
      "name": "达伦",
      "name_default": "Dahlen",
      "native": "Dahren",
      "type": "city",
      "level": null,
      "parent_id": null,
      "population": 4201,
      "latitude": "51.36495000",
      "longitude": "12.99881000",
      "timezone": "Europe/Berlin",
      "wikiDataId": "Q31943223",
      "country_code": "DE",
      "state_code": "SN",
      "state_id": 3021,
      "country_id": 82
    },
    {
      "id": 24623,
      "name": "德利奇",
      "name_default": "Delitzsch",
      "native": "Delitzsch",
      "type": "city",
      "level": null,
      "parent_id": null,
      "population": 25341,
      "latitude": "51.52546000",
      "longitude": "12.34284000",
      "timezone": "Europe/Berlin",
      "wikiDataId": "Q12052",
      "country_code": "DE",
      "state_code": "SN",
      "state_id": 3021,
      "country_id": 82
    },
    {
      "id": 24628,
      "name": "德米茨-图米茨",
      "name_default": "Demitz-Thumitz",
      "native": "Demitz-Thumitz",
      "type": "adm4",
      "level": null,
      "parent_id": null,
      "population": 2667,
      "latitude": "51.14149000",
      "longitude": "14.24719000",
      "timezone": "Europe/Berlin",
      "wikiDataId": "Q93226",
      "country_code": "DE",
      "state_code": "SN",
      "state_id": 3021,
      "country_id": 82
    },
    {
      "id": 24633,
      "name": "丹赫里茨",
      "name_default": "Dennheritz",
      "native": "Dennheritz",
      "type": "adm4",
      "level": null,
      "parent_id": null,
      "population": 1279,
      "latitude": "50.81412000",
      "longitude": "12.46519000",
      "timezone": "Europe/Berlin",
      "wikiDataId": "Q17115",
      "country_code": "DE",
      "state_code": "SN",
      "state_id": 3021,
      "country_id": 82
    },
    {
      "id": 24660,
      "name": "多伊岑",
      "name_default": "Deutzen",
      "native": "Definitiv",
      "type": "adm4",
      "level": null,
      "parent_id": null,
      "population": 2176,
      "latitude": "51.11217000",
      "longitude": "12.42541000",
      "timezone": "Europe/Berlin",
      "wikiDataId": "Q10747",
      "country_code": "DE",
      "state_code": "SN",
      "state_id": 3021,
      "country_id": 82
    },
    {
      "id": 24701,
      "name": "迪波尔迪斯瓦尔德",
      "name_default": "Dippoldiswalde",
      "native": "Dippoldiswalde",
      "type": "city",
      "level": null,
      "parent_id": null,
      "population": 10959,
      "latitude": "50.89621000",
      "longitude": "13.66905000",
      "timezone": "Europe/Berlin",
      "wikiDataId": "Q6462",
      "country_code": "DE",
      "state_code": "SN",
      "state_id": 3021,
      "country_id": 82
    },
    {
      "id": 24792,
      "name": "德伯尔恩",
      "name_default": "Döbeln",
      "native": "Döbeln",
      "type": "city",
      "level": null,
      "parent_id": null,
      "population": 23728,
      "latitude": "51.12210000",
      "longitude": "13.11027000",
      "timezone": "Europe/Berlin",
      "wikiDataId": "Q71163",
      "country_code": "DE",
      "state_code": "SN",
      "state_id": 3021,
      "country_id": 82
    },
    {
      "id": 24793,
      "name": "德伯恩茨",
      "name_default": "Döbernitz",
      "native": "Döbernitz",
      "type": "city",
      "level": null,
      "parent_id": null,
      "population": 2896,
      "latitude": "51.51241000",
      "longitude": "12.34753000",
      "timezone": "Europe/Berlin",
      "wikiDataId": "Q2678141",
      "country_code": "DE",
      "state_code": "SN",
      "state_id": 3021,
      "country_id": 82
    },
    {
      "id": 24714,
      "name": "射箭",
      "name_default": "Doberschütz",
      "native": "Doberschütz",
      "type": "adm4",
      "level": null,
      "parent_id": null,
      "population": 4091,
      "latitude": "51.49870000",
      "longitude": "12.74792000",
      "timezone": "Europe/Berlin",
      "wikiDataId": "Q371098",
      "country_code": "DE",
      "state_code": "SN",
      "state_id": 3021,
      "country_id": 82
    },
    {
      "id": 24718,
      "name": "多玛",
      "name_default": "Dohma",
      "native": "Dohma",
      "type": "adm4",
      "level": null,
      "parent_id": null,
      "population": 2004,
      "latitude": "50.91667000",
      "longitude": "13.93333000",
      "timezone": "Europe/Berlin",
      "wikiDataId": "Q6467",
      "country_code": "DE",
      "state_code": "SN",
      "state_id": 3021,
      "country_id": 82
    },
    {
      "id": 24719,
      "name": "多娜",
      "name_default": "Dohna",
      "native": "Dohna",
      "type": "city",
      "level": null,
      "parent_id": null,
      "population": 6303,
      "latitude": "50.95621000",
      "longitude": "13.85839000",
      "timezone": "Europe/Berlin",
      "wikiDataId": "Q6474",
      "country_code": "DE",
      "state_code": "SN",
      "state_id": 3021,
      "country_id": 82
    },
    {
      "id": 24727,
      "name": "多米茨希",
      "name_default": "Dommitzsch",
      "native": "Dommitzsch",
      "type": "city",
      "level": null,
      "parent_id": null,
      "population": 3163,
      "latitude": "51.64071000",
      "longitude": "12.87940000",
      "timezone": "Europe/Berlin",
      "wikiDataId": "Q12045",
      "country_code": "DE",
      "state_code": "SN",
      "state_id": 3021,
      "country_id": 82
    },
    {
      "id": 24734,
      "name": "多尔夫开姆尼茨",
      "name_default": "Dorfchemnitz",
      "native": "Dorfchemnitz",
      "type": "city",
      "level": null,
      "parent_id": null,
      "population": 1803,
      "latitude": "50.66363000",
      "longitude": "12.83651000",
      "timezone": "Europe/Berlin",
      "wikiDataId": "Q31971282",
      "country_code": "DE",
      "state_code": "SN",
      "state_id": 3021,
      "country_id": 82
    },
    {
      "id": 24736,
      "name": "多尔夫海恩",
      "name_default": "Dorfhain",
      "native": "Verrotten",
      "type": "adm4",
      "level": null,
      "parent_id": null,
      "population": 1080,
      "latitude": "50.93333000",
      "longitude": "13.56667000",
      "timezone": "Europe/Berlin",
      "wikiDataId": "Q6685",
      "country_code": "DE",
      "state_code": "SN",
      "state_id": 3021,
      "country_id": 82
    },
    {
      "id": 24757,
      "name": "德雷巴赫",
      "name_default": "Drebach",
      "native": "Drebach",
      "type": "adm4",
      "level": null,
      "parent_id": null,
      "population": 2574,
      "latitude": "50.67583000",
      "longitude": "13.01620000",
      "timezone": "Europe/Berlin",
      "wikiDataId": "Q57749",
      "country_code": "DE",
      "state_code": "SN",
      "state_id": 3021,
      "country_id": 82
    },
    {
      "id": 24768,
      "name": "德累斯顿",
      "name_default": "Dresden",
      "native": "Dresden",
      "type": "adm1",
      "level": null,
      "parent_id": null,
      "population": 566222,
      "latitude": "51.05089000",
      "longitude": "13.73832000",
      "timezone": "Europe/Berlin",
      "wikiDataId": "Q1731",
      "country_code": "DE",
      "state_code": "SN",
      "state_id": 3021,
      "country_id": 82
    },
    {
      "id": 24813,
      "name": "迪伦内尔斯多夫",
      "name_default": "Dürrhennersdorf",
      "native": "Dürrhennersdorf",
      "type": "adm4",
      "level": null,
      "parent_id": null,
      "population": 1213,
      "latitude": "51.04863000",
      "longitude": "14.60383000",
      "timezone": "Europe/Berlin",
      "wikiDataId": "Q502520",
      "country_code": "DE",
      "state_code": "SN",
      "state_id": 3021,
      "country_id": 82
    },
    {
      "id": 24815,
      "name": "杜尔罗尔斯多夫",
      "name_default": "Dürrröhrsdorf",
      "native": "Dürrrröhrsdorf",
      "type": "city",
      "level": null,
      "parent_id": null,
      "population": 4829,
      "latitude": "51.03395000",
      "longitude": "13.99718000",
      "timezone": "Europe/Berlin",
      "wikiDataId": "Q1272237",
      "country_code": "DE",
      "state_code": "SN",
      "state_id": 3021,
      "country_id": 82
    },
    {
      "id": 24832,
      "name": "埃伯斯巴赫",
      "name_default": "Ebersbach",
      "native": "Ebersbach",
      "type": "city",
      "level": null,
      "parent_id": null,
      "population": 8952,
      "latitude": "51.00762000",
      "longitude": "14.58621000",
      "timezone": "Europe/Berlin",
      "wikiDataId": "Q157480",
      "country_code": "DE",
      "state_code": "SN",
      "state_id": 3021,
      "country_id": 82
    },
    {
      "id": 24893,
      "name": "埃伦弗里德斯多夫",
      "name_default": "Ehrenfriedersdorf",
      "native": "Ehrenfriedersdorf",
      "type": "city",
      "level": null,
      "parent_id": null,
      "population": 4521,
      "latitude": "50.64934000",
      "longitude": "12.97009000",
      "timezone": "Europe/Berlin",
      "wikiDataId": "Q57876",
      "country_code": "DE",
      "state_code": "SN",
      "state_id": 3021,
      "country_id": 82
    },
    {
      "id": 24895,
      "name": "艾鲍",
      "name_default": "Eibau",
      "native": "Eibau",
      "type": "city",
      "level": null,
      "parent_id": null,
      "population": 5103,
      "latitude": "50.98272000",
      "longitude": "14.66214000",
      "timezone": "Europe/Berlin",
      "wikiDataId": "Q502524",
      "country_code": "DE",
      "state_code": "SN",
      "state_id": 3021,
      "country_id": 82
    },
    {
      "id": 24897,
      "name": "艾本斯托克",
      "name_default": "Eibenstock",
      "native": "Eibenstock",
      "type": "city",
      "level": null,
      "parent_id": null,
      "population": 6975,
      "latitude": "50.49431000",
      "longitude": "12.59978000",
      "timezone": "Europe/Berlin",
      "wikiDataId": "Q57881",
      "country_code": "DE",
      "state_code": "SN",
      "state_id": 3021,
      "country_id": 82
    },
    {
      "id": 24904,
      "name": "艾希格特",
      "name_default": "Eichigt",
      "native": "Eichigt",
      "type": "adm4",
      "level": null,
      "parent_id": null,
      "population": 1145,
      "latitude": "50.35000000",
      "longitude": "12.16667000",
      "timezone": "Europe/Berlin",
      "wikiDataId": "Q46745",
      "country_code": "DE",
      "state_code": "SN",
      "state_id": 3021,
      "country_id": 82
    },
    {
      "id": 24913,
      "name": "艾伦堡",
      "name_default": "Eilenburg",
      "native": "Eilenburg",
      "type": "city",
      "level": null,
      "parent_id": null,
      "population": 16201,
      "latitude": "51.45984000",
      "longitude": "12.63338000",
      "timezone": "Europe/Berlin",
      "wikiDataId": "Q12055",
      "country_code": "DE",
      "state_code": "SN",
      "state_id": 3021,
      "country_id": 82
    },
    {
      "id": 24946,
      "name": "埃勒费尔德",
      "name_default": "Ellefeld",
      "native": "Ellefeld",
      "type": "adm4",
      "level": null,
      "parent_id": null,
      "population": 2496,
      "latitude": "50.48367000",
      "longitude": "12.38880000",
      "timezone": "Europe/Berlin",
      "wikiDataId": "Q46749",
      "country_code": "DE",
      "state_code": "SN",
      "state_id": 3021,
      "country_id": 82
    },
    {
      "id": 24968,
      "name": "埃尔斯尼格",
      "name_default": "Elsnig",
      "native": "Elsnig",
      "type": "adm4",
      "level": null,
      "parent_id": null,
      "population": 1360,
      "latitude": "51.61024000",
      "longitude": "12.92833000",
      "timezone": "Europe/Berlin",
      "wikiDataId": "Q509939",
      "country_code": "DE",
      "state_code": "SN",
      "state_id": 3021,
      "country_id": 82
    },
    {
      "id": 24970,
      "name": "埃尔斯特贝格",
      "name_default": "Elsterberg",
      "native": "Elsterberg",
      "type": "city",
      "level": null,
      "parent_id": null,
      "population": 5153,
      "latitude": "50.60841000",
      "longitude": "12.16787000",
      "timezone": "Europe/Berlin",
      "wikiDataId": "Q46859",
      "country_code": "DE",
      "state_code": "SN",
      "state_id": 3021,
      "country_id": 82
    },
    {
      "id": 24971,
      "name": "埃尔斯特特雷布尼茨",
      "name_default": "Elstertrebnitz",
      "native": "Elstertrebnitz",
      "type": "adm4",
      "level": null,
      "parent_id": null,
      "population": 1276,
      "latitude": "51.15000000",
      "longitude": "12.23333000",
      "timezone": "Europe/Berlin",
      "wikiDataId": "Q10748",
      "country_code": "DE",
      "state_code": "SN",
      "state_id": 3021,
      "country_id": 82
    },
    {
      "id": 24973,
      "name": "艾尔斯特拉",
      "name_default": "Elstra",
      "native": "Jubeln",
      "type": "city",
      "level": null,
      "parent_id": null,
      "population": 2697,
      "latitude": "51.22172000",
      "longitude": "14.13201000",
      "timezone": "Europe/Berlin",
      "wikiDataId": "Q81735",
      "country_code": "DE",
      "state_code": "SN",
      "state_id": 3021,
      "country_id": 82
    },
    {
      "id": 24974,
      "name": "埃尔特莱因",
      "name_default": "Elterlein",
      "native": "Elterlein",
      "type": "city",
      "level": null,
      "parent_id": null,
      "population": 2749,
      "latitude": "50.57663000",
      "longitude": "12.86836000",
      "timezone": "Europe/Berlin",
      "wikiDataId": "Q57885",
      "country_code": "DE",
      "state_code": "SN",
      "state_id": 3021,
      "country_id": 82
    },
    {
      "id": 25022,
      "name": "艾本德夫",
      "name_default": "Eppendorf",
      "native": "Eppendorf",
      "type": "adm4",
      "level": null,
      "parent_id": null,
      "population": 3894,
      "latitude": "50.80000000",
      "longitude": "13.23333000",
      "timezone": "Europe/Berlin",
      "wikiDataId": "Q565853",
      "country_code": "DE",
      "state_code": "SN",
      "state_id": 3021,
      "country_id": 82
    },
    {
      "id": 25053,
      "name": "埃尔劳",
      "name_default": "Erlau",
      "native": "Eral",
      "type": "adm4",
      "level": null,
      "parent_id": null,
      "population": 3086,
      "latitude": "51.00938000",
      "longitude": "12.94549000",
      "timezone": "Europe/Berlin",
      "wikiDataId": "Q3126",
      "country_code": "DE",
      "state_code": "SN",
      "state_id": 3021,
      "country_id": 82
    },
    {
      "id": 25054,
      "name": "埃尔巴赫",
      "name_default": "Erlbach",
      "native": "Erlbach",
      "type": "adm4",
      "level": null,
      "parent_id": null,
      "population": 1895,
      "latitude": "50.31667000",
      "longitude": "12.36667000",
      "timezone": "Europe/Berlin",
      "wikiDataId": "Q46753",
      "country_code": "DE",
      "state_code": "SN",
      "state_id": 3021,
      "country_id": 82
    },
    {
      "id": 25091,
      "name": "埃斯彭海恩",
      "name_default": "Espenhain",
      "native": "Espenhain",
      "type": "adm4",
      "level": null,
      "parent_id": null,
      "population": 2843,
      "latitude": "51.18926000",
      "longitude": "12.47885000",
      "timezone": "Europe/Berlin",
      "wikiDataId": "Q10749",
      "country_code": "DE",
      "state_code": "SN",
      "state_id": 3021,
      "country_id": 82
    },
    {
      "id": 25131,
      "name": "法尔克瑙",
      "name_default": "Falkenau",
      "native": "Falkenau",
      "type": "city",
      "level": null,
      "parent_id": null,
      "population": 2119,
      "latitude": "50.85559000",
      "longitude": "13.11718000",
      "timezone": "Europe/Berlin",
      "wikiDataId": "Q542078",
      "country_code": "DE",
      "state_code": "SN",
      "state_id": 3021,
      "country_id": 82
    },
    {
      "id": 25137,
      "name": "法尔肯海恩",
      "name_default": "Falkenhain",
      "native": "Falkenhain",
      "type": "city",
      "level": null,
      "parent_id": null,
      "population": 3987,
      "latitude": "51.39888000",
      "longitude": "12.87083000",
      "timezone": "Europe/Berlin",
      "wikiDataId": "Q631101",
      "country_code": "DE",
      "state_code": "SN",
      "state_id": 3021,
      "country_id": 82
    },
    {
      "id": 25139,
      "name": "法尔肯施泰因",
      "name_default": "Falkenstein",
      "native": "Falkenstein",
      "type": "city",
      "level": null,
      "parent_id": null,
      "population": 9528,
      "latitude": "50.47788000",
      "longitude": "12.37129000",
      "timezone": "Europe/Berlin",
      "wikiDataId": "Q46863",
      "country_code": "DE",
      "state_code": "SN",
      "state_id": 3021,
      "country_id": 82
    },
    {
      "id": 25199,
      "name": "弗洛哈",
      "name_default": "Flöha",
      "native": "Flöha",
      "type": "city",
      "level": null,
      "parent_id": null,
      "population": 10426,
      "latitude": "50.85613000",
      "longitude": "13.07407000",
      "timezone": "Europe/Berlin",
      "wikiDataId": "Q71166",
      "country_code": "DE",
      "state_code": "SN",
      "state_id": 3021,
      "country_id": 82
    },
    {
      "id": 25214,
      "name": "弗兰肯贝格",
      "name_default": "Frankenberg",
      "native": "Frankenberg",
      "type": "city",
      "level": null,
      "parent_id": null,
      "population": 18138,
      "latitude": "50.91297000",
      "longitude": "13.04011000",
      "timezone": "Europe/Berlin",
      "wikiDataId": "Q71104",
      "country_code": "DE",
      "state_code": "SN",
      "state_id": 3021,
      "country_id": 82
    },
    {
      "id": 25216,
      "name": "弗兰肯斯坦",
      "name_default": "Frankenstein",
      "native": "Frankenstein",
      "type": "city",
      "level": null,
      "parent_id": null,
      "population": 1226,
      "latitude": "50.90064000",
      "longitude": "13.20933000",
      "timezone": "Europe/Berlin",
      "wikiDataId": "Q32016272",
      "country_code": "DE",
      "state_code": "SN",
      "state_id": 3021,
      "country_id": 82
    },
    {
      "id": 25219,
      "name": "弗兰肯塔尔",
      "name_default": "Frankenthal",
      "native": "Frankenthal",
      "type": "adm4",
      "level": null,
      "parent_id": null,
      "population": 906,
      "latitude": "51.13129000",
      "longitude": "14.10893000",
      "timezone": "Europe/Berlin",
      "wikiDataId": "Q6905",
      "country_code": "DE",
      "state_code": "SN",
      "state_id": 3021,
      "country_id": 82
    },
    {
      "id": 25230,
      "name": "弗劳恩施泰因",
      "name_default": "Frauenstein",
      "native": "Frauenstein",
      "type": "city",
      "level": null,
      "parent_id": null,
      "population": 3364,
      "latitude": "50.80279000",
      "longitude": "13.53790000",
      "timezone": "Europe/Berlin",
      "wikiDataId": "Q658842",
      "country_code": "DE",
      "state_code": "SN",
      "state_id": 3021,
      "country_id": 82
    },
    {
      "id": 25233,
      "name": "弗劳罗伊特",
      "name_default": "Fraureuth",
      "native": "Fraureuth",
      "type": "adm4",
      "level": null,
      "parent_id": null,
      "population": 5055,
      "latitude": "50.70000000",
      "longitude": "12.35000000",
      "timezone": "Europe/Berlin",
      "wikiDataId": "Q17116",
      "country_code": "DE",
      "state_code": "SN",
      "state_id": 3021,
      "country_id": 82
    },
    {
      "id": 25238,
      "name": "弗赖贝格",
      "name_default": "Freiberg",
      "native": "Freiberg",
      "type": "adm3",
      "level": null,
      "parent_id": null,
      "population": 41045,
      "latitude": "50.91089000",
      "longitude": "13.33881000",
      "timezone": "Europe/Berlin",
      "wikiDataId": "Q14819",
      "country_code": "DE",
      "state_code": "SN",
      "state_id": 3021,
      "country_id": 82
    },
    {
      "id": 25252,
      "name": "弗赖塔尔",
      "name_default": "Freital",
      "native": "Freital",
      "type": "city",
      "level": null,
      "parent_id": null,
      "population": 39477,
      "latitude": "51.00166000",
      "longitude": "13.64880000",
      "timezone": "Europe/Berlin",
      "wikiDataId": "Q5870",
      "country_code": "DE",
      "state_code": "SN",
      "state_id": 3021,
      "country_id": 82
    },
    {
      "id": 25277,
      "name": "弗里德斯多夫",
      "name_default": "Friedersdorf",
      "native": "Friedersdorf",
      "type": "city",
      "level": null,
      "parent_id": null,
      "population": 1512,
      "latitude": "51.02416000",
      "longitude": "14.56246000",
      "timezone": "Europe/Berlin",
      "wikiDataId": "Q702829",
      "country_code": "DE",
      "state_code": "SN",
      "state_id": 3021,
      "country_id": 82
    },
    {
      "id": 25304,
      "name": "弗罗堡",
      "name_default": "Frohburg",
      "native": "Frohburg",
      "type": "city",
      "level": null,
      "parent_id": null,
      "population": 7983,
      "latitude": "51.05719000",
      "longitude": "12.55746000",
      "timezone": "Europe/Berlin",
      "wikiDataId": "Q10763",
      "country_code": "DE",
      "state_code": "SN",
      "state_id": 3021,
      "country_id": 82
    },
    {
      "id": 25340,
      "name": "加布伦茨",
      "name_default": "Gablenz",
      "native": "Gablenz",
      "type": "adm4",
      "level": null,
      "parent_id": null,
      "population": 1573,
      "latitude": "51.53333000",
      "longitude": "14.66667000",
      "timezone": "Europe/Berlin",
      "wikiDataId": "Q262684",
      "country_code": "DE",
      "state_code": "SN",
      "state_id": 3021,
      "country_id": 82
    },
    {
      "id": 25404,
      "name": "盖辛",
      "name_default": "Geising",
      "native": "Geising",
      "type": "city",
      "level": null,
      "parent_id": null,
      "population": 3283,
      "latitude": "50.75742000",
      "longitude": "13.79278000",
      "timezone": "Europe/Berlin",
      "wikiDataId": "Q572891",
      "country_code": "DE",
      "state_code": "SN",
      "state_id": 3021,
      "country_id": 82
    },
    {
      "id": 25410,
      "name": "盖特海因",
      "name_default": "Geithain",
      "native": "Gebean",
      "type": "city",
      "level": null,
      "parent_id": null,
      "population": 6797,
      "latitude": "51.05528000",
      "longitude": "12.69674000",
      "timezone": "Europe/Berlin",
      "wikiDataId": "Q10765",
      "country_code": "DE",
      "state_code": "SN",
      "state_id": 3021,
      "country_id": 82
    },
    {
      "id": 25414,
      "name": "格莱瑙",
      "name_default": "Gelenau",
      "native": "Gelau",
      "type": "city",
      "level": null,
      "parent_id": null,
      "population": 4085,
      "latitude": "50.71151000",
      "longitude": "12.96666000",
      "timezone": "Europe/Berlin",
      "wikiDataId": "Q33438119",
      "country_code": "DE",
      "state_code": "SN",
      "state_id": 3021,
      "country_id": 82
    },
    {
      "id": 25443,
      "name": "格林斯瓦尔德",
      "name_default": "Geringswalde",
      "native": "Geringswalde",
      "type": "city",
      "level": null,
      "parent_id": null,
      "population": 4166,
      "latitude": "51.07677000",
      "longitude": "12.90725000",
      "timezone": "Europe/Berlin",
      "wikiDataId": "Q71111",
      "country_code": "DE",
      "state_code": "SN",
      "state_id": 3021,
      "country_id": 82
    },
    {
      "id": 25458,
      "name": "格斯多夫",
      "name_default": "Gersdorf",
      "native": "Gersdorf",
      "type": "city",
      "level": null,
      "parent_id": null,
      "population": 1307,
      "latitude": "51.11220000",
      "longitude": "12.93889000",
      "timezone": "Europe/Berlin",
      "wikiDataId": "Q32030338",
      "country_code": "DE",
      "state_code": "SN",
      "state_id": 3021,
      "country_id": 82
    },
    {
      "id": 25479,
      "name": "盖尔",
      "name_default": "Geyer",
      "native": "Geyer",
      "type": "city",
      "level": null,
      "parent_id": null,
      "population": 3317,
      "latitude": "50.62632000",
      "longitude": "12.92074000",
      "timezone": "Europe/Berlin",
      "wikiDataId": "Q57891",
      "country_code": "DE",
      "state_code": "SN",
      "state_id": 3021,
      "country_id": 82
    },
    {
      "id": 25503,
      "name": "格拉苏蒂",
      "name_default": "Glashütte",
      "native": "Glashütte",
      "type": "city",
      "level": null,
      "parent_id": null,
      "population": 4601,
      "latitude": "50.85196000",
      "longitude": "13.77977000",
      "timezone": "Europe/Berlin",
      "wikiDataId": "Q33438660",
      "country_code": "DE",
      "state_code": "SN",
      "state_id": 3021,
      "country_id": 82
    },
    {
      "id": 25508,
      "name": "格劳比茨",
      "name_default": "Glaubitz",
      "native": "Glaubitz",
      "type": "adm4",
      "level": null,
      "parent_id": null,
      "population": 1886,
      "latitude": "51.32498000",
      "longitude": "13.37817000",
      "timezone": "Europe/Berlin",
      "wikiDataId": "Q8706",
      "country_code": "DE",
      "state_code": "SN",
      "state_id": 3021,
      "country_id": 82
    },
    {
      "id": 25510,
      "name": "格劳豪",
      "name_default": "Glauchau",
      "native": "Glauchau",
      "type": "city",
      "level": null,
      "parent_id": null,
      "population": 21807,
      "latitude": "50.81987000",
      "longitude": "12.54493000",
      "timezone": "Europe/Berlin",
      "wikiDataId": "Q20071",
      "country_code": "DE",
      "state_code": "SN",
      "state_id": 3021,
      "country_id": 82
    },
    {
      "id": 25775,
      "name": "格达",
      "name_default": "Göda",
      "native": "Mästen",
      "type": "adm4",
      "level": null,
      "parent_id": null,
      "population": 2966,
      "latitude": "51.17800000",
      "longitude": "14.31951000",
      "timezone": "Europe/Berlin",
      "wikiDataId": "Q93232",
      "country_code": "DE",
      "state_code": "SN",
      "state_id": 3021,
      "country_id": 82
    },
    {
      "id": 25781,
      "name": "格尔利茨",
      "name_default": "Görlitz",
      "native": "Görlitz",
      "type": "adm3",
      "level": null,
      "parent_id": null,
      "population": 56694,
      "latitude": "51.15518000",
      "longitude": "14.98853000",
      "timezone": "Europe/Berlin",
      "wikiDataId": "Q4077",
      "country_code": "DE",
      "state_code": "SN",
      "state_id": 3021,
      "country_id": 82
    },
    {
      "id": 25543,
      "name": "戈尔瑙",
      "name_default": "Gornau",
      "native": "Verfolgungsjagd",
      "type": "city",
      "level": null,
      "parent_id": null,
      "population": 3736,
      "latitude": "50.75901000",
      "longitude": "13.03731000",
      "timezone": "Europe/Berlin",
      "wikiDataId": "Q57761",
      "country_code": "DE",
      "state_code": "SN",
      "state_id": 3021,
      "country_id": 82
    },
    {
      "id": 25544,
      "name": "戈恩斯多夫",
      "name_default": "Gornsdorf",
      "native": "Gornsdorf",
      "type": "adm4",
      "level": null,
      "parent_id": null,
      "population": 1880,
      "latitude": "50.70000000",
      "longitude": "12.88333000",
      "timezone": "Europe/Berlin",
      "wikiDataId": "Q57765",
      "country_code": "DE",
      "state_code": "SN",
      "state_id": 3021,
      "country_id": 82
    },
    {
      "id": 25610,
      "name": "格里马",
      "name_default": "Grimma",
      "native": "Grimma",
      "type": "city",
      "level": null,
      "parent_id": null,
      "population": 17991,
      "latitude": "51.23367000",
      "longitude": "12.71959000",
      "timezone": "Europe/Berlin",
      "wikiDataId": "Q10780",
      "country_code": "DE",
      "state_code": "SN",
      "state_id": 3021,
      "country_id": 82
    },
    {
      "id": 25612,
      "name": "格罗伊茨施",
      "name_default": "Groitzsch",
      "native": "Groitzsch",
      "type": "city",
      "level": null,
      "parent_id": null,
      "population": 7542,
      "latitude": "51.15536000",
      "longitude": "12.28279000",
      "timezone": "Europe/Berlin",
      "wikiDataId": "Q10766",
      "country_code": "DE",
      "state_code": "SN",
      "state_id": 3021,
      "country_id": 82
    },
    {
      "id": 25621,
      "name": "大迪本",
      "name_default": "Groß Düben",
      "native": "Groß Düben",
      "type": "adm4",
      "level": null,
      "parent_id": null,
      "population": 1067,
      "latitude": "51.56667000",
      "longitude": "14.56667000",
      "timezone": "Europe/Berlin",
      "wikiDataId": "Q502548",
      "country_code": "DE",
      "state_code": "SN",
      "state_id": 3021,
      "country_id": 82
    },
    {
      "id": 25650,
      "name": "格罗斯巴道",
      "name_default": "Großbardau",
      "native": "Großbardau",
      "type": "city",
      "level": null,
      "parent_id": null,
      "population": 1787,
      "latitude": "51.20419000",
      "longitude": "12.69848000",
      "timezone": "Europe/Berlin",
      "wikiDataId": "Q1548027",
      "country_code": "DE",
      "state_code": "SN",
      "state_id": 3021,
      "country_id": 82
    },
    {
      "id": 25656,
      "name": "格罗斯博滕",
      "name_default": "Großbothen",
      "native": "Großbothen",
      "type": "city",
      "level": null,
      "parent_id": null,
      "population": 3602,
      "latitude": "51.18784000",
      "longitude": "12.75101000",
      "timezone": "Europe/Berlin",
      "wikiDataId": "Q560850",
      "country_code": "DE",
      "state_code": "SN",
      "state_id": 3021,
      "country_id": 82
    },
    {
      "id": 25659,
      "name": "格罗杜布劳",
      "name_default": "Großdubrau",
      "native": "Großdubrau",
      "type": "adm4",
      "level": null,
      "parent_id": null,
      "population": 4144,
      "latitude": "51.25422000",
      "longitude": "14.45897000",
      "timezone": "Europe/Berlin",
      "wikiDataId": "Q93233",
      "country_code": "DE",
      "state_code": "SN",
      "state_id": 3021,
      "country_id": 82
    },
    {
      "id": 25664,
      "name": "格罗森海恩",
      "name_default": "Großenhain",
      "native": "Großenhain",
      "type": "city",
      "level": null,
      "parent_id": null,
      "population": 18077,
      "latitude": "51.28951000",
      "longitude": "13.53350000",
      "timezone": "Europe/Berlin",
      "wikiDataId": "Q8714",
      "country_code": "DE",
      "state_code": "SN",
      "state_id": 3021,
      "country_id": 82
    },
    {
      "id": 25675,
      "name": "格罗斯哈索",
      "name_default": "Großharthau",
      "native": "Großharthau",
      "type": "adm4",
      "level": null,
      "parent_id": null,
      "population": 2920,
      "latitude": "51.10694000",
      "longitude": "14.09911000",
      "timezone": "Europe/Berlin",
      "wikiDataId": "Q93234",
      "country_code": "DE",
      "state_code": "SN",
      "state_id": 3021,
      "country_id": 82
    },
    {
      "id": 25676,
      "name": "格罗斯哈特曼斯多夫",
      "name_default": "Großhartmannsdorf",
      "native": "Großhartmannsdorf",
      "type": "adm4",
      "level": null,
      "parent_id": null,
      "population": 2417,
      "latitude": "50.80000000",
      "longitude": "13.33333000",
      "timezone": "Europe/Berlin",
      "wikiDataId": "Q70957",
      "country_code": "DE",
      "state_code": "SN",
      "state_id": 3021,
      "country_id": 82
    },
    {
      "id": 25678,
      "name": "格罗斯亨纳斯多夫",
      "name_default": "Großhennersdorf",
      "native": "GroßHNERSDORF",
      "type": "city",
      "level": null,
      "parent_id": null,
      "population": 1539,
      "latitude": "50.98597000",
      "longitude": "14.78776000",
      "timezone": "Europe/Berlin",
      "wikiDataId": "Q502696",
      "country_code": "DE",
      "state_code": "SN",
      "state_id": 3021,
      "country_id": 82
    },
    {
      "id": 25689,
      "name": "格罗斯莱纳",
      "name_default": "Großlehna",
      "native": "Großlehna",
      "type": "city",
      "level": null,
      "parent_id": null,
      "population": 2487,
      "latitude": "51.30687000",
      "longitude": "12.17190000",
      "timezone": "Europe/Berlin",
      "wikiDataId": "Q1549432",
      "country_code": "DE",
      "state_code": "SN",
      "state_id": 3021,
      "country_id": 82
    },
    {
      "id": 25693,
      "name": "格罗斯瑙恩多夫",
      "name_default": "Großnaundorf",
      "native": "Großnaundorf",
      "type": "adm4",
      "level": null,
      "parent_id": null,
      "population": 924,
      "latitude": "51.20000000",
      "longitude": "13.93333000",
      "timezone": "Europe/Berlin",
      "wikiDataId": "Q635357",
      "country_code": "DE",
      "state_code": "SN",
      "state_id": 3021,
      "country_id": 82
    },
    {
      "id": 25695,
      "name": "格罗索尔伯斯多夫",
      "name_default": "Großolbersdorf",
      "native": "Großolbersdorf",
      "type": "adm4",
      "level": null,
      "parent_id": null,
      "population": 2731,
      "latitude": "50.70000000",
      "longitude": "13.08333000",
      "timezone": "Europe/Berlin",
      "wikiDataId": "Q57769",
      "country_code": "DE",
      "state_code": "SN",
      "state_id": 3021,
      "country_id": 82
    },
    {
      "id": 25698,
      "name": "大珀斯纳",
      "name_default": "Großpösna",
      "native": "Großpösna",
      "type": "adm4",
      "level": null,
      "parent_id": null,
      "population": 5550,
      "latitude": "51.26667000",
      "longitude": "12.50000000",
      "timezone": "Europe/Berlin",
      "wikiDataId": "Q10750",
      "country_code": "DE",
      "state_code": "SN",
      "state_id": 3021,
      "country_id": 82
    },
    {
      "id": 25697,
      "name": "格罗斯波斯特维茨",
      "name_default": "Großpostwitz",
      "native": "Großpostwitz",
      "type": "city",
      "level": null,
      "parent_id": null,
      "population": 2690,
      "latitude": "51.12083000",
      "longitude": "14.44065000",
      "timezone": "Europe/Berlin",
      "wikiDataId": "Q33441285",
      "country_code": "DE",
      "state_code": "SN",
      "state_id": 3021,
      "country_id": 82
    },
    {
      "id": 25704,
      "name": "格罗斯罗尔斯多夫",
      "name_default": "Großröhrsdorf",
      "native": "Großröhrsdorf",
      "type": "city",
      "level": null,
      "parent_id": null,
      "population": 7306,
      "latitude": "51.14528000",
      "longitude": "14.01917000",
      "timezone": "Europe/Berlin",
      "wikiDataId": "Q81736",
      "country_code": "DE",
      "state_code": "SN",
      "state_id": 3021,
      "country_id": 82
    },
    {
      "id": 25705,
      "name": "格罗斯吕克斯瓦尔德",
      "name_default": "Großrückerswalde",
      "native": "Großrückerswalde",
      "type": "adm4",
      "level": null,
      "parent_id": null,
      "population": 3319,
      "latitude": "50.63333000",
      "longitude": "13.11667000",
      "timezone": "Europe/Berlin",
      "wikiDataId": "Q57773",
      "country_code": "DE",
      "state_code": "SN",
      "state_id": 3021,
      "country_id": 82
    },
    {
      "id": 25706,
      "name": "格罗斯奇尔马",
      "name_default": "Großschirma",
      "native": "Großschirma",
      "type": "city",
      "level": null,
      "parent_id": null,
      "population": 5465,
      "latitude": "50.96602000",
      "longitude": "13.28590000",
      "timezone": "Europe/Berlin",
      "wikiDataId": "Q71117",
      "country_code": "DE",
      "state_code": "SN",
      "state_id": 3021,
      "country_id": 82
    },
    {
      "id": 25708,
      "name": "格罗斯舍瑙",
      "name_default": "Großschönau",
      "native": "Großschönau",
      "type": "adm4",
      "level": null,
      "parent_id": null,
      "population": 6571,
      "latitude": "50.90000000",
      "longitude": "14.68333000",
      "timezone": "Europe/Berlin",
      "wikiDataId": "Q502454",
      "country_code": "DE",
      "state_code": "SN",
      "state_id": 3021,
      "country_id": 82
    },
    {
      "id": 25707,
      "name": "大施魏德尼茨",
      "name_default": "Großschweidnitz",
      "native": "Großschweidnitz",
      "type": "adm4",
      "level": null,
      "parent_id": null,
      "population": 1245,
      "latitude": "51.06939000",
      "longitude": "14.64297000",
      "timezone": "Europe/Berlin",
      "wikiDataId": "Q502454",
      "country_code": "DE",
      "state_code": "SN",
      "state_id": 3021,
      "country_id": 82
    },
    {
      "id": 25713,
      "name": "格罗斯魏茨申",
      "name_default": "Großweitzschen",
      "native": "Großweitzschen",
      "type": "adm4",
      "level": null,
      "parent_id": null,
      "population": 3405,
      "latitude": "51.15845000",
      "longitude": "13.04517000",
      "timezone": "Europe/Berlin",
      "wikiDataId": "Q70961",
      "country_code": "DE",
      "state_code": "SN",
      "state_id": 3021,
      "country_id": 82
    },
    {
      "id": 25735,
      "name": "格林巴赫",
      "name_default": "Grünbach",
      "native": "Grünbach",
      "type": "city",
      "level": null,
      "parent_id": null,
      "population": 1673,
      "latitude": "50.44995000",
      "longitude": "12.36186000",
      "timezone": "Europe/Berlin",
      "wikiDataId": "Q46757",
      "country_code": "DE",
      "state_code": "SN",
      "state_id": 3021,
      "country_id": 82
    },
    {
      "id": 25739,
      "name": "格伦海恩",
      "name_default": "Grünhain",
      "native": "Grunhain",
      "type": "city",
      "level": null,
      "parent_id": null,
      "population": 2602,
      "latitude": "50.58019000",
      "longitude": "12.80695000",
      "timezone": "Europe/Berlin",
      "wikiDataId": "Q1552242",
      "country_code": "DE",
      "state_code": "SN",
      "state_id": 3021,
      "country_id": 82
    },
    {
      "id": 25740,
      "name": "格林海尼兴",
      "name_default": "Grünhainichen",
      "native": "Grünhainichen",
      "type": "adm4",
      "level": null,
      "parent_id": null,
      "population": 1383,
      "latitude": "50.76720000",
      "longitude": "13.15366000",
      "timezone": "Europe/Berlin",
      "wikiDataId": "Q57776",
      "country_code": "DE",
      "state_code": "SN",
      "state_id": 3021,
      "country_id": 82
    },
    {
      "id": 25770,
      "name": "古陶",
      "name_default": "Guttau",
      "native": "Guttau",
      "type": "city",
      "level": null,
      "parent_id": null,
      "population": 1736,
      "latitude": "51.25904000",
      "longitude": "14.56132000",
      "timezone": "Europe/Berlin",
      "wikiDataId": "Q93243",
      "country_code": "DE",
      "state_code": "SN",
      "state_id": 3021,
      "country_id": 82
    },
    {
      "id": 26295,
      "name": "海尼兴",
      "name_default": "Hähnichen",
      "native": "Hähnichen",
      "type": "adm4",
      "level": null,
      "parent_id": null,
      "population": 1528,
      "latitude": "51.36540000",
      "longitude": "14.86098000",
      "timezone": "Europe/Berlin",
      "wikiDataId": "Q544944",
      "country_code": "DE",
      "state_code": "SN",
      "state_id": 3021,
      "country_id": 82
    },
    {
      "id": 25837,
      "name": "海内瓦尔德",
      "name_default": "Hainewalde",
      "native": "Hainewalde",
      "type": "adm4",
      "level": null,
      "parent_id": null,
      "population": 1512,
      "latitude": "50.91014000",
      "longitude": "14.70387000",
      "timezone": "Europe/Berlin",
      "wikiDataId": "Q502493",
      "country_code": "DE",
      "state_code": "SN",
      "state_id": 3021,
      "country_id": 82
    },
    {
      "id": 25838,
      "name": "海尼兴",
      "name_default": "Hainichen",
      "native": "Hainichen",
      "type": "city",
      "level": null,
      "parent_id": null,
      "population": 8441,
      "latitude": "50.97044000",
      "longitude": "13.12287000",
      "timezone": "Europe/Berlin",
      "wikiDataId": "Q502493",
      "country_code": "DE",
      "state_code": "SN",
      "state_id": 3021,
      "country_id": 82
    },
    {
      "id": 25858,
      "name": "哈尔斯桥",
      "name_default": "Halsbrücke",
      "native": "Halsbrücke",
      "type": "adm4",
      "level": null,
      "parent_id": null,
      "population": 3619,
      "latitude": "50.95000000",
      "longitude": "13.35000000",
      "timezone": "Europe/Berlin",
      "wikiDataId": "Q70964",
      "country_code": "DE",
      "state_code": "SN",
      "state_id": 3021,
      "country_id": 82
    },
    {
      "id": 25878,
      "name": "锤桥",
      "name_default": "Hammerbrücke",
      "native": "Hammerbrücke",
      "type": "city",
      "level": null,
      "parent_id": null,
      "population": 1369,
      "latitude": "50.43504000",
      "longitude": "12.41500000",
      "timezone": "Europe/Berlin",
      "wikiDataId": "Q695636",
      "country_code": "DE",
      "state_code": "SN",
      "state_id": 3021,
      "country_id": 82
    },
    {
      "id": 25913,
      "name": "哈尔滕施泰因",
      "name_default": "Hartenstein",
      "native": "Hartenstein",
      "type": "city",
      "level": null,
      "parent_id": null,
      "population": 4458,
      "latitude": "50.66236000",
      "longitude": "12.66966000",
      "timezone": "Europe/Berlin",
      "wikiDataId": "Q32053289",
      "country_code": "DE",
      "state_code": "SN",
      "state_id": 3021,
      "country_id": 82
    },
    {
      "id": 25914,
      "name": "哈尔莎",
      "name_default": "Hartha",
      "native": "Hartha",
      "type": "city",
      "level": null,
      "parent_id": null,
      "population": 6700,
      "latitude": "51.09863000",
      "longitude": "12.97391000",
      "timezone": "Europe/Berlin",
      "wikiDataId": "Q32053323",
      "country_code": "DE",
      "state_code": "SN",
      "state_id": 3021,
      "country_id": 82
    },
    {
      "id": 25917,
      "name": "哈特曼斯多夫",
      "name_default": "Hartmannsdorf",
      "native": "Hartmannsdorf",
      "type": "city",
      "level": null,
      "parent_id": null,
      "population": 1462,
      "latitude": "50.75804000",
      "longitude": "12.42687000",
      "timezone": "Europe/Berlin",
      "wikiDataId": "Q32053384",
      "country_code": "DE",
      "state_code": "SN",
      "state_id": 3021,
      "country_id": 82
    },
    {
      "id": 25924,
      "name": "哈泽尔巴赫塔尔",
      "name_default": "Haselbachtal",
      "native": "Haselbachtal",
      "type": "adm4",
      "level": null,
      "parent_id": null,
      "population": 0,
      "latitude": "51.23570000",
      "longitude": "14.02576000",
      "timezone": "Europe/Berlin",
      "wikiDataId": "Q93247",
      "country_code": "DE",
      "state_code": "SN",
      "state_id": 3021,
      "country_id": 82
    },
    {
      "id": 25954,
      "name": "豪斯瓦尔德",
      "name_default": "Hauswalde",
      "native": "Hauswalde",
      "type": "city",
      "level": null,
      "parent_id": null,
      "population": 3265,
      "latitude": "51.15212000",
      "longitude": "14.08630000",
      "timezone": "Europe/Berlin",
      "wikiDataId": "Q93211",
      "country_code": "DE",
      "state_code": "SN",
      "state_id": 3021,
      "country_id": 82
    },
    {
      "id": 25985,
      "name": "海德瑙",
      "name_default": "Heidenau",
      "native": "Heidenau",
      "type": "city",
      "level": null,
      "parent_id": null,
      "population": 16756,
      "latitude": "50.97221000",
      "longitude": "13.86741000",
      "timezone": "Europe/Berlin",
      "wikiDataId": "Q6715",
      "country_code": "DE",
      "state_code": "SN",
      "state_id": 3021,
      "country_id": 82
    },
    {
      "id": 26081,
      "name": "赫姆斯多夫",
      "name_default": "Hermsdorf",
      "native": "Hermsdorf",
      "type": "city",
      "level": null,
      "parent_id": null,
      "population": 1034,
      "latitude": "50.92338000",
      "longitude": "13.73480000",
      "timezone": "Europe/Berlin",
      "wikiDataId": "Q696881",
      "country_code": "DE",
      "state_code": "SN",
      "state_id": 3021,
      "country_id": 82
    },
    {
      "id": 26090,
      "name": "赫恩胡特",
      "name_default": "Herrnhut",
      "native": "Herrnhut",
      "type": "city",
      "level": null,
      "parent_id": null,
      "population": 2830,
      "latitude": "51.01624000",
      "longitude": "14.74381000",
      "timezone": "Europe/Berlin",
      "wikiDataId": "Q165140",
      "country_code": "DE",
      "state_code": "SN",
      "state_id": 3021,
      "country_id": 82
    },
    {
      "id": 26132,
      "name": "希尔伯斯多夫",
      "name_default": "Hilbersdorf",
      "native": "Hilbersdorf",
      "type": "city",
      "level": null,
      "parent_id": null,
      "population": 1500,
      "latitude": "50.85400000",
      "longitude": "12.94776000",
      "timezone": "Europe/Berlin",
      "wikiDataId": "Q53908",
      "country_code": "DE",
      "state_code": "SN",
      "state_id": 3021,
      "country_id": 82
    },
    {
      "id": 26165,
      "name": "赫希菲尔德",
      "name_default": "Hirschfeld",
      "native": "Hirschfeld",
      "type": "adm4",
      "level": null,
      "parent_id": null,
      "population": 1183,
      "latitude": "50.62453000",
      "longitude": "12.45722000",
      "timezone": "Europe/Berlin",
      "wikiDataId": "Q502960",
      "country_code": "DE",
      "state_code": "SN",
      "state_id": 3021,
      "country_id": 82
    },
    {
      "id": 26167,
      "name": "希尔施菲尔德",
      "name_default": "Hirschfelde",
      "native": "Hirschfelde",
      "type": "city",
      "level": null,
      "parent_id": null,
      "population": 3994,
      "latitude": "50.94437000",
      "longitude": "14.88510000",
      "timezone": "Europe/Berlin",
      "wikiDataId": "Q1620417",
      "country_code": "DE",
      "state_code": "SN",
      "state_id": 3021,
      "country_id": 82
    },
    {
      "id": 26177,
      "name": "霍赫基希",
      "name_default": "Hochkirch",
      "native": "Hochkirch",
      "type": "adm4",
      "level": null,
      "parent_id": null,
      "population": 2225,
      "latitude": "51.14898000",
      "longitude": "14.57063000",
      "timezone": "Europe/Berlin",
      "wikiDataId": "Q93248",
      "country_code": "DE",
      "state_code": "SN",
      "state_id": 3021,
      "country_id": 82
    },
    {
      "id": 26305,
      "name": "霍肯多夫",
      "name_default": "Höckendorf",
      "native": "Höckendorf",
      "type": "city",
      "level": null,
      "parent_id": null,
      "population": 2950,
      "latitude": "51.22423000",
      "longitude": "13.90935000",
      "timezone": "Europe/Berlin",
      "wikiDataId": "Q6775",
      "country_code": "DE",
      "state_code": "SN",
      "state_id": 3021,
      "country_id": 82
    },
    {
      "id": 26194,
      "name": "霍堡",
      "name_default": "Hohburg",
      "native": "Hohburg",
      "type": "city",
      "level": null,
      "parent_id": null,
      "population": 3061,
      "latitude": "51.41168000",
      "longitude": "12.80508000",
      "timezone": "Europe/Berlin",
      "wikiDataId": "Q631428",
      "country_code": "DE",
      "state_code": "SN",
      "state_id": 3021,
      "country_id": 82
    },
    {
      "id": 26215,
      "name": "海恩斯坦-恩斯塔尔",
      "name_default": "Hohenstein-Ernstthal",
      "native": "Hohenstein-Ernstthal",
      "type": "city",
      "level": null,
      "parent_id": null,
      "population": 13937,
      "latitude": "50.80064000",
      "longitude": "12.71287000",
      "timezone": "Europe/Berlin",
      "wikiDataId": "Q20073",
      "country_code": "DE",
      "state_code": "SN",
      "state_id": 3021,
      "country_id": 82
    },
    {
      "id": 26224,
      "name": "霍恩多夫",
      "name_default": "Hohndorf",
      "native": "Hahndorf",
      "type": "adm4",
      "level": null,
      "parent_id": null,
      "population": 3450,
      "latitude": "50.74044000",
      "longitude": "12.68058000",
      "timezone": "Europe/Berlin",
      "wikiDataId": "Q206686",
      "country_code": "DE",
      "state_code": "SN",
      "state_id": 3021,
      "country_id": 82
    },
    {
      "id": 26226,
      "name": "霍恩斯坦",
      "name_default": "Hohnstein",
      "native": "Hohnstein",
      "type": "city",
      "level": null,
      "parent_id": null,
      "population": 3183,
      "latitude": "50.97991000",
      "longitude": "14.11408000",
      "timezone": "Europe/Berlin",
      "wikiDataId": "Q636701",
      "country_code": "DE",
      "state_code": "SN",
      "state_id": 3021,
      "country_id": 82
    },
    {
      "id": 26262,
      "name": "霍尔卡",
      "name_default": "Horka",
      "native": "Hitze",
      "type": "city",
      "level": null,
      "parent_id": null,
      "population": 2053,
      "latitude": "51.26342000",
      "longitude": "14.25523000",
      "timezone": "Europe/Berlin",
      "wikiDataId": "Q160797",
      "country_code": "DE",
      "state_code": "SN",
      "state_id": 3021,
      "country_id": 82
    },
    {
      "id": 26263,
      "name": "霍默斯多夫",
      "name_default": "Hormersdorf",
      "native": "Hormersdorf",
      "type": "city",
      "level": null,
      "parent_id": null,
      "population": 1548,
      "latitude": "50.67406000",
      "longitude": "12.88194000",
      "timezone": "Europe/Berlin",
      "wikiDataId": "Q57786",
      "country_code": "DE",
      "state_code": "SN",
      "state_id": 3021,
      "country_id": 82
    },
    {
      "id": 26277,
      "name": "霍耶斯韦达",
      "name_default": "Hoyerswerda",
      "native": "Hoyerswerda",
      "type": "city",
      "level": null,
      "parent_id": null,
      "population": 43681,
      "latitude": "51.43787000",
      "longitude": "14.23549000",
      "timezone": "Europe/Berlin",
      "wikiDataId": "Q14904",
      "country_code": "DE",
      "state_code": "SN",
      "state_id": 3021,
      "country_id": 82
    },
    {
      "id": 26427,
      "name": "扬斯多夫",
      "name_default": "Jahnsdorf",
      "native": "Jahnsdorf",
      "type": "city",
      "level": null,
      "parent_id": null,
      "population": 5368,
      "latitude": "50.74509000",
      "longitude": "12.85414000",
      "timezone": "Europe/Berlin",
      "wikiDataId": "Q57790",
      "country_code": "DE",
      "state_code": "SN",
      "state_id": 3021,
      "country_id": 82
    },
    {
      "id": 26443,
      "name": "杰塞维茨",
      "name_default": "Jesewitz",
      "native": "Jesewitz",
      "type": "adm4",
      "level": null,
      "parent_id": null,
      "population": 3092,
      "latitude": "51.42276000",
      "longitude": "12.56312000",
      "timezone": "Europe/Berlin",
      "wikiDataId": "Q16047",
      "country_code": "DE",
      "state_code": "SN",
      "state_id": 3021,
      "country_id": 82
    },
    {
      "id": 26455,
      "name": "约翰内斯堡",
      "name_default": "Johanngeorgenstadt",
      "native": "Johanngegenstadt",
      "type": "city",
      "level": null,
      "parent_id": null,
      "population": 5573,
      "latitude": "50.43254000",
      "longitude": "12.71140000",
      "timezone": "Europe/Berlin",
      "wikiDataId": "Q57903",
      "country_code": "DE",
      "state_code": "SN",
      "state_id": 3021,
      "country_id": 82
    },
    {
      "id": 26467,
      "name": "约赫施塔特",
      "name_default": "Jöhstadt",
      "native": "Jöhstadt",
      "type": "city",
      "level": null,
      "parent_id": null,
      "population": 3310,
      "latitude": "50.51229000",
      "longitude": "13.09460000",
      "timezone": "Europe/Berlin",
      "wikiDataId": "Q57908",
      "country_code": "DE",
      "state_code": "SN",
      "state_id": 3021,
      "country_id": 82
    },
    {
      "id": 26500,
      "name": "卡门茨",
      "name_default": "Kamenz",
      "native": "Kamenz",
      "type": "city",
      "level": null,
      "parent_id": null,
      "population": 16861,
      "latitude": "51.26798000",
      "longitude": "14.09374000",
      "timezone": "Europe/Berlin",
      "wikiDataId": "Q81722",
      "country_code": "DE",
      "state_code": "SN",
      "state_id": 3021,
      "country_id": 82
    },
    {
      "id": 26595,
      "name": "基希贝格",
      "name_default": "Kirchberg",
      "native": "Kirchberg",
      "type": "city",
      "level": null,
      "parent_id": null,
      "population": 7979,
      "latitude": "50.62190000",
      "longitude": "12.52449000",
      "timezone": "Europe/Berlin",
      "wikiDataId": "Q32065157",
      "country_code": "DE",
      "state_code": "SN",
      "state_id": 3021,
      "country_id": 82
    },
    {
      "id": 26644,
      "name": "基尔绍",
      "name_default": "Kirschau",
      "native": "Kirschau",
      "type": "city",
      "level": null,
      "parent_id": null,
      "population": 2397,
      "latitude": "51.09317000",
      "longitude": "14.42840000",
      "timezone": "Europe/Berlin",
      "wikiDataId": "Q550175",
      "country_code": "DE",
      "state_code": "SN",
      "state_id": 3021,
      "country_id": 82
    },
    {
      "id": 26651,
      "name": "基岑",
      "name_default": "Kitzen",
      "native": "Kitzaten",
      "type": "city",
      "level": null,
      "parent_id": null,
      "population": 2036,
      "latitude": "51.22172000",
      "longitude": "12.22349000",
      "timezone": "Europe/Berlin",
      "wikiDataId": "Q663696",
      "country_code": "DE",
      "state_code": "SN",
      "state_id": 3021,
      "country_id": 82
    },
    {
      "id": 26653,
      "name": "基茨舍尔",
      "name_default": "Kitzscher",
      "native": "Kitzscher",
      "type": "city",
      "level": null,
      "parent_id": null,
      "population": 5243,
      "latitude": "51.16444000",
      "longitude": "12.55260000",
      "timezone": "Europe/Berlin",
      "wikiDataId": "Q10768",
      "country_code": "DE",
      "state_code": "SN",
      "state_id": 3021,
      "country_id": 82
    },
    {
      "id": 26689,
      "name": "克林根塔尔",
      "name_default": "Klingenthal",
      "native": "Klingenthal",
      "type": "city",
      "level": null,
      "parent_id": null,
      "population": 7669,
      "latitude": "50.35963000",
      "longitude": "12.46463000",
      "timezone": "Europe/Berlin",
      "wikiDataId": "Q46866",
      "country_code": "DE",
      "state_code": "SN",
      "state_id": 3021,
      "country_id": 82
    },
    {
      "id": 26691,
      "name": "克利普豪森",
      "name_default": "Klipphausen",
      "native": "Klipphausen",
      "type": "adm4",
      "level": null,
      "parent_id": null,
      "population": 6161,
      "latitude": "51.06841000",
      "longitude": "13.51374000",
      "timezone": "Europe/Berlin",
      "wikiDataId": "Q8726",
      "country_code": "DE",
      "state_code": "SN",
      "state_id": 3021,
      "country_id": 82
    },
    {
      "id": 26692,
      "name": "克利滕",
      "name_default": "Klitten",
      "native": "Die Düne",
      "type": "city",
      "level": null,
      "parent_id": null,
      "population": 1510,
      "latitude": "51.35109000",
      "longitude": "14.60526000",
      "timezone": "Europe/Berlin",
      "wikiDataId": "Q703135",
      "country_code": "DE",
      "state_code": "SN",
      "state_id": 3021,
      "country_id": 82
    },
    {
      "id": 26707,
      "name": "科德斯多夫",
      "name_default": "Kodersdorf",
      "native": "Koderdorf",
      "type": "adm4",
      "level": null,
      "parent_id": null,
      "population": 2324,
      "latitude": "51.24272000",
      "longitude": "14.89336000",
      "timezone": "Europe/Berlin",
      "wikiDataId": "Q506108",
      "country_code": "DE",
      "state_code": "SN",
      "state_id": 3021,
      "country_id": 82
    },
    {
      "id": 26826,
      "name": "柯尼希斯布吕克",
      "name_default": "Königsbrück",
      "native": "Königsbrück",
      "type": "city",
      "level": null,
      "parent_id": null,
      "population": 4664,
      "latitude": "51.26451000",
      "longitude": "13.90540000",
      "timezone": "Europe/Berlin",
      "wikiDataId": "Q81739",
      "country_code": "DE",
      "state_code": "SN",
      "state_id": 3021,
      "country_id": 82
    },
    {
      "id": 26829,
      "name": "柯尼希斯费尔德",
      "name_default": "Königsfeld",
      "native": "Königsfeld",
      "type": "adm4",
      "level": null,
      "parent_id": null,
      "population": 1770,
      "latitude": "51.06667000",
      "longitude": "12.75000000",
      "timezone": "Europe/Berlin",
      "wikiDataId": "Q550822",
      "country_code": "DE",
      "state_code": "SN",
      "state_id": 3021,
      "country_id": 82
    },
    {
      "id": 26832,
      "name": "柯尼希斯海因",
      "name_default": "Königshain",
      "native": "Königshain",
      "type": "adm4",
      "level": null,
      "parent_id": null,
      "population": 1194,
      "latitude": "51.18333000",
      "longitude": "14.86667000",
      "timezone": "Europe/Berlin",
      "wikiDataId": "Q506096",
      "country_code": "DE",
      "state_code": "SN",
      "state_id": 3021,
      "country_id": 82
    },
    {
      "id": 26834,
      "name": "柯尼希施泰因",
      "name_default": "Königstein",
      "native": "Königstein",
      "type": "city",
      "level": null,
      "parent_id": null,
      "population": 3011,
      "latitude": "50.91570000",
      "longitude": "14.07186000",
      "timezone": "Europe/Berlin",
      "wikiDataId": "Q6783",
      "country_code": "DE",
      "state_code": "SN",
      "state_id": 3021,
      "country_id": 82
    },
    {
      "id": 26837,
      "name": "柯尼希斯瓦尔德",
      "name_default": "Königswalde",
      "native": "Königswalde",
      "type": "adm4",
      "level": null,
      "parent_id": null,
      "population": 2173,
      "latitude": "50.55000000",
      "longitude": "13.05000000",
      "timezone": "Europe/Berlin",
      "wikiDataId": "Q57797",
      "country_code": "DE",
      "state_code": "SN",
      "state_id": 3021,
      "country_id": 82
    },
    {
      "id": 26838,
      "name": "柯尼希斯瓦塔",
      "name_default": "Königswartha",
      "native": "Königswartha",
      "type": "adm4",
      "level": null,
      "parent_id": null,
      "population": 3387,
      "latitude": "51.31028000",
      "longitude": "14.32797000",
      "timezone": "Europe/Berlin",
      "wikiDataId": "Q93250",
      "country_code": "DE",
      "state_code": "SN",
      "state_id": 3021,
      "country_id": 82
    },
    {
      "id": 26729,
      "name": "科萨",
      "name_default": "Kossa",
      "native": "Kuss",
      "type": "city",
      "level": null,
      "parent_id": null,
      "population": 2514,
      "latitude": "51.61707000",
      "longitude": "12.68197000",
      "timezone": "Europe/Berlin",
      "wikiDataId": "Q32066745",
      "country_code": "DE",
      "state_code": "SN",
      "state_id": 3021,
      "country_id": 82
    },
    {
      "id": 26742,
      "name": "克劳施维茨",
      "name_default": "Krauschwitz",
      "native": "Krauschwitz",
      "type": "adm4",
      "level": null,
      "parent_id": null,
      "population": 3328,
      "latitude": "51.52153000",
      "longitude": "14.71211000",
      "timezone": "Europe/Berlin",
      "wikiDataId": "Q557646",
      "country_code": "DE",
      "state_code": "SN",
      "state_id": 3021,
      "country_id": 82
    },
    {
      "id": 26748,
      "name": "克雷沙",
      "name_default": "Kreischa",
      "native": "Kreischa",
      "type": "adm4",
      "level": null,
      "parent_id": null,
      "population": 4592,
      "latitude": "50.94534000",
      "longitude": "13.75514000",
      "timezone": "Europe/Berlin",
      "wikiDataId": "Q6787",
      "country_code": "DE",
      "state_code": "SN",
      "state_id": 3021,
      "country_id": 82
    },
    {
      "id": 26761,
      "name": "克里布施泰因",
      "name_default": "Kriebstein",
      "native": "Kriebstein",
      "type": "adm4",
      "level": null,
      "parent_id": null,
      "population": 2710,
      "latitude": "51.05000000",
      "longitude": "13.01667000",
      "timezone": "Europe/Berlin",
      "wikiDataId": "Q70985",
      "country_code": "DE",
      "state_code": "SN",
      "state_id": 3021,
      "country_id": 82
    },
    {
      "id": 26776,
      "name": "克罗斯蒂茨",
      "name_default": "Krostitz",
      "native": "Krostitz",
      "type": "adm4",
      "level": null,
      "parent_id": null,
      "population": 4189,
      "latitude": "51.46208000",
      "longitude": "12.45360000",
      "timezone": "Europe/Berlin",
      "wikiDataId": "Q16049",
      "country_code": "DE",
      "state_code": "SN",
      "state_id": 3021,
      "country_id": 82
    },
    {
      "id": 26788,
      "name": "弓箭",
      "name_default": "Kubschütz",
      "native": "Kubschütz",
      "type": "adm4",
      "level": null,
      "parent_id": null,
      "population": 2490,
      "latitude": "51.16667000",
      "longitude": "14.50000000",
      "timezone": "Europe/Berlin",
      "wikiDataId": "Q93253",
      "country_code": "DE",
      "state_code": "SN",
      "state_id": 3021,
      "country_id": 82
    },
    {
      "id": 26801,
      "name": "库洛特·戈里施",
      "name_default": "Kurort Gohrisch",
      "native": "Kurort Gohrisch",
      "type": "city",
      "level": null,
      "parent_id": null,
      "population": 2234,
      "latitude": "50.91234000",
      "longitude": "14.10687000",
      "timezone": "Europe/Berlin",
      "wikiDataId": "Q6698",
      "country_code": "DE",
      "state_code": "SN",
      "state_id": 3021,
      "country_id": 82
    },
    {
      "id": 26802,
      "name": "库洛特·琼斯多夫",
      "name_default": "Kurort Jonsdorf",
      "native": "Kurort Jonsdorf",
      "type": "city",
      "level": null,
      "parent_id": null,
      "population": 1905,
      "latitude": "50.85751000",
      "longitude": "14.70922000",
      "timezone": "Europe/Berlin",
      "wikiDataId": "Q544821",
      "country_code": "DE",
      "state_code": "SN",
      "state_id": 3021,
      "country_id": 82
    },
    {
      "id": 26803,
      "name": "库洛特·奥伯维森塔尔",
      "name_default": "Kurort Oberwiesenthal",
      "native": "Kurort Oberwiesenthal",
      "type": "city",
      "level": null,
      "parent_id": null,
      "population": 2592,
      "latitude": "50.41943000",
      "longitude": "12.96836000",
      "timezone": "Europe/Berlin",
      "wikiDataId": "Q57926",
      "country_code": "DE",
      "state_code": "SN",
      "state_id": 3021,
      "country_id": 82
    },
    {
      "id": 26804,
      "name": "库洛特·奥伊宾",
      "name_default": "Kurort Oybin",
      "native": "Resort",
      "type": "city",
      "level": null,
      "parent_id": null,
      "population": 1617,
      "latitude": "50.84105000",
      "longitude": "14.74124000",
      "timezone": "Europe/Berlin",
      "wikiDataId": "Q57926",
      "country_code": "DE",
      "state_code": "SN",
      "state_id": 3021,
      "country_id": 82
    },
    {
      "id": 26886,
      "name": "兰珀茨瓦尔德",
      "name_default": "Lampertswalde",
      "native": "Lampertswalde",
      "type": "adm4",
      "level": null,
      "parent_id": null,
      "population": 2510,
      "latitude": "51.31108000",
      "longitude": "13.67694000",
      "timezone": "Europe/Berlin",
      "wikiDataId": "Q8730",
      "country_code": "DE",
      "state_code": "SN",
      "state_id": 3021,
      "country_id": 82
    },
    {
      "id": 26910,
      "name": "朗根伯恩斯多夫",
      "name_default": "Langenbernsdorf",
      "native": "Langenbernsdorf",
      "type": "adm4",
      "level": null,
      "parent_id": null,
      "population": 3505,
      "latitude": "50.75583000",
      "longitude": "12.32669000",
      "timezone": "Europe/Berlin",
      "wikiDataId": "Q17120",
      "country_code": "DE",
      "state_code": "SN",
      "state_id": 3021,
      "country_id": 82
    },
    {
      "id": 26991,
      "name": "劳西格",
      "name_default": "Laußig",
      "native": "Laußig",
      "type": "adm4",
      "level": null,
      "parent_id": null,
      "population": 2082,
      "latitude": "51.54676000",
      "longitude": "12.62930000",
      "timezone": "Europe/Berlin",
      "wikiDataId": "Q16051",
      "country_code": "DE",
      "state_code": "SN",
      "state_id": 3021,
      "country_id": 82
    },
    {
      "id": 26992,
      "name": "劳斯尼茨",
      "name_default": "Laußnitz",
      "native": "Laußnitz",
      "type": "adm4",
      "level": null,
      "parent_id": null,
      "population": 1832,
      "latitude": "51.25000000",
      "longitude": "13.88333000",
      "timezone": "Europe/Berlin",
      "wikiDataId": "Q93254",
      "country_code": "DE",
      "state_code": "SN",
      "state_id": 3021,
      "country_id": 82
    },
    {
      "id": 26982,
      "name": "劳特",
      "name_default": "Lauter",
      "native": "Lauter",
      "type": "city",
      "level": null,
      "parent_id": null,
      "population": 5028,
      "latitude": "50.56264000",
      "longitude": "12.73513000",
      "timezone": "Europe/Berlin",
      "wikiDataId": "Q57911",
      "country_code": "DE",
      "state_code": "SN",
      "state_id": 3021,
      "country_id": 82
    },
    {
      "id": 26993,
      "name": "拉瓦尔德",
      "name_default": "Lawalde",
      "native": "Lawalde",
      "type": "adm4",
      "level": null,
      "parent_id": null,
      "population": 1764,
      "latitude": "51.08333000",
      "longitude": "14.60000000",
      "timezone": "Europe/Berlin",
      "wikiDataId": "Q544955",
      "country_code": "DE",
      "state_code": "SN",
      "state_id": 3021,
      "country_id": 82
    },
    {
      "id": 27028,
      "name": "莱比锡",
      "name_default": "Leipzig",
      "native": "Leipzig",
      "type": "adm3",
      "level": null,
      "parent_id": null,
      "population": 619879,
      "latitude": "51.33962000",
      "longitude": "12.37129000",
      "timezone": "Europe/Berlin",
      "wikiDataId": "Q2079",
      "country_code": "DE",
      "state_code": "SN",
      "state_id": 3021,
      "country_id": 82
    },
    {
      "id": 27029,
      "name": "莱斯尼希",
      "name_default": "Leisnig",
      "native": "Wird das SHG erlauben",
      "type": "city",
      "level": null,
      "parent_id": null,
      "population": 8177,
      "latitude": "51.15743000",
      "longitude": "12.92790000",
      "timezone": "Europe/Berlin",
      "wikiDataId": "Q71133",
      "country_code": "DE",
      "state_code": "SN",
      "state_id": 3021,
      "country_id": 82
    },
    {
      "id": 27040,
      "name": "伦格费尔德",
      "name_default": "Lengefeld",
      "native": "Lengefeld",
      "type": "city",
      "level": null,
      "parent_id": null,
      "population": 4834,
      "latitude": "50.71911000",
      "longitude": "13.19290000",
      "timezone": "Europe/Berlin",
      "wikiDataId": "Q57916",
      "country_code": "DE",
      "state_code": "SN",
      "state_id": 3021,
      "country_id": 82
    },
    {
      "id": 27041,
      "name": "伦根费尔德",
      "name_default": "Lengenfeld",
      "native": "Lengenfeld",
      "type": "city",
      "level": null,
      "parent_id": null,
      "population": 7084,
      "latitude": "50.56940000",
      "longitude": "12.36408000",
      "timezone": "Europe/Berlin",
      "wikiDataId": "Q32093011",
      "country_code": "DE",
      "state_code": "SN",
      "state_id": 3021,
      "country_id": 82
    },
    {
      "id": 27057,
      "name": "洛伊布尼茨",
      "name_default": "Leubnitz",
      "native": "Leubnitz",
      "type": "city",
      "level": null,
      "parent_id": null,
      "population": 1509,
      "latitude": "50.72313000",
      "longitude": "12.35660000",
      "timezone": "Europe/Berlin",
      "wikiDataId": "Q1412212",
      "country_code": "DE",
      "state_code": "SN",
      "state_id": 3021,
      "country_id": 82
    },
    {
      "id": 27058,
      "name": "洛伊布斯多夫",
      "name_default": "Leubsdorf",
      "native": "Leubsdorf",
      "type": "adm4",
      "level": null,
      "parent_id": null,
      "population": 3981,
      "latitude": "50.80000000",
      "longitude": "13.16667000",
      "timezone": "Europe/Berlin",
      "wikiDataId": "Q1412212",
      "country_code": "DE",
      "state_code": "SN",
      "state_id": 3021,
      "country_id": 82
    },
    {
      "id": 27067,
      "name": "洛伊特斯多夫",
      "name_default": "Leutersdorf",
      "native": "Leutersdorf",
      "type": "adm4",
      "level": null,
      "parent_id": null,
      "population": 4284,
      "latitude": "50.95000000",
      "longitude": "14.65000000",
      "timezone": "Europe/Berlin",
      "wikiDataId": "Q550813",
      "country_code": "DE",
      "state_code": "SN",
      "state_id": 3021,
      "country_id": 82
    },
    {
      "id": 27080,
      "name": "利希滕贝格",
      "name_default": "Lichtenberg",
      "native": "Lichtenberg",
      "type": "city",
      "level": null,
      "parent_id": null,
      "population": 2679,
      "latitude": "50.83492000",
      "longitude": "13.42478000",
      "timezone": "Europe/Berlin",
      "wikiDataId": "Q32094915",
      "country_code": "DE",
      "state_code": "SN",
      "state_id": 3021,
      "country_id": 82
    },
    {
      "id": 27083,
      "name": "利希滕斯坦",
      "name_default": "Lichtenstein",
      "native": "Lichtenstein",
      "type": "city",
      "level": null,
      "parent_id": null,
      "population": 9304,
      "latitude": "50.75659000",
      "longitude": "12.63025000",
      "timezone": "Europe/Berlin",
      "wikiDataId": "Q20081",
      "country_code": "DE",
      "state_code": "SN",
      "state_id": 3021,
      "country_id": 82
    },
    {
      "id": 27084,
      "name": "利希滕坦",
      "name_default": "Lichtentanne",
      "native": "Lichtentanne",
      "type": "adm4",
      "level": null,
      "parent_id": null,
      "population": 6026,
      "latitude": "50.69255000",
      "longitude": "12.42585000",
      "timezone": "Europe/Berlin",
      "wikiDataId": "Q17122",
      "country_code": "DE",
      "state_code": "SN",
      "state_id": 3021,
      "country_id": 82
    },
    {
      "id": 27091,
      "name": "利布施塔特",
      "name_default": "Liebstadt",
      "native": "Liebstadt",
      "type": "city",
      "level": null,
      "parent_id": null,
      "population": 1248,
      "latitude": "50.86417000",
      "longitude": "13.85694000",
      "timezone": "Europe/Berlin",
      "wikiDataId": "Q8199",
      "country_code": "DE",
      "state_code": "SN",
      "state_id": 3021,
      "country_id": 82
    },
    {
      "id": 27097,
      "name": "林巴赫",
      "name_default": "Limbach",
      "native": "Limbach",
      "type": "adm4",
      "level": null,
      "parent_id": null,
      "population": 1574,
      "latitude": "50.58333000",
      "longitude": "12.25000000",
      "timezone": "Europe/Berlin",
      "wikiDataId": "Q46764",
      "country_code": "DE",
      "state_code": "SN",
      "state_id": 3021,
      "country_id": 82
    },
    {
      "id": 27098,
      "name": "林巴赫-奥伯弗罗纳",
      "name_default": "Limbach-Oberfrohna",
      "native": "Limbach-Oberfrohna",
      "type": "city",
      "level": null,
      "parent_id": null,
      "population": 23923,
      "latitude": "50.85882000",
      "longitude": "12.76165000",
      "timezone": "Europe/Berlin",
      "wikiDataId": "Q20076",
      "country_code": "DE",
      "state_code": "SN",
      "state_id": 3021,
      "country_id": 82
    },
    {
      "id": 27185,
      "name": "勒鲍",
      "name_default": "Löbau",
      "native": "Löbau",
      "type": "city",
      "level": null,
      "parent_id": null,
      "population": 18374,
      "latitude": "51.09954000",
      "longitude": "14.66738000",
      "timezone": "Europe/Berlin",
      "wikiDataId": "Q156768",
      "country_code": "DE",
      "state_code": "SN",
      "state_id": 3021,
      "country_id": 82
    },
    {
      "id": 27189,
      "name": "勒布尼茨",
      "name_default": "Löbnitz",
      "native": "Löbnitz",
      "type": "adm4",
      "level": null,
      "parent_id": null,
      "population": 2106,
      "latitude": "51.59238000",
      "longitude": "12.46347000",
      "timezone": "Europe/Berlin",
      "wikiDataId": "Q47039",
      "country_code": "DE",
      "state_code": "SN",
      "state_id": 3021,
      "country_id": 82
    },