{
  "locale": "zh-CN",
  "country": {
    "id": 142,
    "code": "MX",
    "iso3": "MEX",
    "numeric_code": "484",
    "name": "墨西哥",
    "name_default": "Mexico",
    "native": "México",
    "capital": "Ciudad de México",
    "phonecode": "52",
    "currency": "MXN",
    "currency_name": "Mexican peso",
    "currency_symbol": "$",
    "tld": ".mx",
    "population": 130575786,
    "gdp": 1692640,
    "region": "Americas",
    "region_id": 2,
    "subregion": "Northern America",
    "subregion_id": 6,
    "nationality": "Mexican",
    "timezones": [
      {
        "zoneName": "America/Bahia_Banderas",
        "gmtOffset": -21600,
        "gmtOffsetName": "UTC-06:00",
        "abbreviation": "CST",
        "tzName": "Central Standard Time (North America"
      },
      {
        "zoneName": "America/Cancun",
        "gmtOffset": -18000,
        "gmtOffsetName": "UTC-05:00",
        "abbreviation": "EST",
        "tzName": "Eastern Standard Time (North America"
      },
      {
        "zoneName": "America/Chihuahua",
        "gmtOffset": -25200,
        "gmtOffsetName": "UTC-07:00",
        "abbreviation": "MST",
        "tzName": "Mountain Standard Time (North America"
      },
      {
        "zoneName": "America/Hermosillo",
        "gmtOffset": -25200,
        "gmtOffsetName": "UTC-07:00",
        "abbreviation": "MST",
        "tzName": "Mountain Standard Time (North America"
      },
      {
        "zoneName": "America/Matamoros",
        "gmtOffset": -21600,
        "gmtOffsetName": "UTC-06:00",
        "abbreviation": "CST",
        "tzName": "Central Standard Time (North America"
      },
      {
        "zoneName": "America/Mazatlan",
        "gmtOffset": -25200,
        "gmtOffsetName": "UTC-07:00",
        "abbreviation": "MST",
        "tzName": "Mountain Standard Time (North America"
      },
      {
        "zoneName": "America/Merida",
        "gmtOffset": -21600,
        "gmtOffsetName": "UTC-06:00",
        "abbreviation": "CST",
        "tzName": "Central Standard Time (North America"
      },
      {
        "zoneName": "America/Mexico_City",
        "gmtOffset": -21600,
        "gmtOffsetName": "UTC-06:00",
        "abbreviation": "CST",
        "tzName": "Central Standard Time (North America"
      },
      {
        "zoneName": "America/Monterrey",
        "gmtOffset": -21600,
        "gmtOffsetName": "UTC-06:00",
        "abbreviation": "CST",
        "tzName": "Central Standard Time (North America"
      },
      {
        "zoneName": "America/Ojinaga",
        "gmtOffset": -25200,
        "gmtOffsetName": "UTC-07:00",
        "abbreviation": "MST",
        "tzName": "Mountain Standard Time (North America"
      },
      {
        "zoneName": "America/Tijuana",
        "gmtOffset": -28800,
        "gmtOffsetName": "UTC-08:00",
        "abbreviation": "PST",
        "tzName": "Pacific Standard Time (North America"
      }
    ],
    "latitude": "23.00000000",
    "longitude": "-102.00000000",
    "emoji": "🇲🇽",
    "emojiU": "U+1F1F2 U+1F1FD"
  },
  "state": {
    "id": 3476,
    "code": "PUE",
    "iso2": "PUE",
    "iso3166_2": "MX-PUE",
    "fips_code": "21",
    "name": "普埃布拉",
    "name_default": "Puebla",
    "native": "Puebla",
    "type": "state",
    "level": null,
    "parent_id": null,
    "population": 6583278,
    "latitude": "19.04143980",
    "longitude": "-98.20627270",
    "timezone": "America/Mexico_City",
    "wikiDataId": "Q79923",
    "country_code": "MX"
  },
  "cities": [
    {
      "id": 68006,
      "name": "3月18日",
      "name_default": "18 de Marzo",
      "native": "18 de Marzo",
      "type": "city",
      "level": null,
      "parent_id": null,
      "population": 1029,
      "latitude": "18.96889000",
      "longitude": "-98.16028000",
      "timezone": "America/Mexico_City",
      "wikiDataId": "Q20228734",
      "country_code": "MX",
      "state_code": "PUE",
      "state_id": 3476,
      "country_id": 142
    },
    {
      "id": 68027,
      "name": "阿卡耶特",
      "name_default": "Acajete",
      "native": "Acajete",
      "type": "adm2",
      "level": null,
      "parent_id": null,
      "population": 20923,
      "latitude": "19.11154000",
      "longitude": "-97.95231000",
      "timezone": "America/Mexico_City",
      "wikiDataId": "Q20129532",
      "country_code": "MX",
      "state_code": "PUE",
      "state_id": 3476,
      "country_id": 142
    },
    {
      "id": 68042,
      "name": "阿卡特诺",
      "name_default": "Acateno",
      "native": "ACATH",
      "type": "city",
      "level": null,
      "parent_id": null,
      "population": 9095,
      "latitude": "20.11324000",
      "longitude": "-97.22710000",
      "timezone": "America/Mexico_City",
      "wikiDataId": "Q1998759",
      "country_code": "MX",
      "state_code": "PUE",
      "state_id": 3476,
      "country_id": 142
    },
    {
      "id": 68044,
      "name": "阿卡特佩克",
      "name_default": "Acatepec",
      "native": "Acatis",
      "type": "city",
      "level": null,
      "parent_id": null,
      "population": 3066,
      "latitude": "18.37236000",
      "longitude": "-97.03651000",
      "timezone": "America/Mexico_City",
      "wikiDataId": "Q49845960",
      "country_code": "MX",
      "state_code": "PUE",
      "state_id": 3476,
      "country_id": 142
    },
    {
      "id": 68049,
      "name": "阿卡特兰",
      "name_default": "Acatlán",
      "native": "Acatlán",
      "type": "city",
      "level": null,
      "parent_id": null,
      "population": 1647,
      "latitude": "18.22374000",
      "longitude": "-98.07685000",
      "timezone": "America/Mexico_City",
      "wikiDataId": "Q9035926",
      "country_code": "MX",
      "state_code": "PUE",
      "state_id": 3476,
      "country_id": 142
    },
    {
      "id": 68051,
      "name": "阿卡特兰·德奥索里奥",
      "name_default": "Acatlán de Osorio",
      "native": "Acatlán de Osorio",
      "type": "city",
      "level": null,
      "parent_id": null,
      "population": 19341,
      "latitude": "18.20250000",
      "longitude": "-98.04864000",
      "timezone": "America/Mexico_City",
      "wikiDataId": "Q2651821",
      "country_code": "MX",
      "state_code": "PUE",
      "state_id": 3476,
      "country_id": 142
    },
    {
      "id": 68053,
      "name": "阿卡钦戈",
      "name_default": "Acatzingo",
      "native": "Acatzingo",
      "type": "adm2",
      "level": null,
      "parent_id": null,
      "population": 25811,
      "latitude": "18.98196000",
      "longitude": "-97.78363000",
      "timezone": "America/Mexico_City",
      "wikiDataId": "Q16487291",
      "country_code": "MX",
      "state_code": "PUE",
      "state_id": 3476,
      "country_id": 142
    },
    {
      "id": 68056,
      "name": "Acaxtlahuacán de Albino Zertuche",
      "name_default": "Acaxtlahuacán de Albino Zertuche",
      "native": "Acaxtlahuacán de Albino Zertuche",
      "type": "adm2",
      "level": null,
      "parent_id": null,
      "population": 1707,
      "latitude": "18.01714000",
      "longitude": "-98.54018000",
      "timezone": "America/Mexico_City",
      "wikiDataId": "Q2990957",
      "country_code": "MX",
      "state_code": "PUE",
      "state_id": 3476,
      "country_id": 142
    },
    {
      "id": 68069,
      "name": "阿克特奥潘",
      "name_default": "Acteopan",
      "native": "Actoopan",
      "type": "adm2",
      "level": null,
      "parent_id": null,
      "population": 2098,
      "latitude": "18.76388000",
      "longitude": "-98.71366000",
      "timezone": "America/Mexico_City",
      "wikiDataId": "Q1998829",
      "country_code": "MX",
      "state_code": "PUE",
      "state_id": 3476,
      "country_id": 142
    },
    {
      "id": 68070,
      "name": "阿克蒂潘",
      "name_default": "Actipan",
      "native": "Actipan",
      "type": "city",
      "level": null,
      "parent_id": null,
      "population": 3631,
      "latitude": "18.93689000",
      "longitude": "-97.90252000",
      "timezone": "America/Mexico_City",
      "wikiDataId": "Q1998829",
      "country_code": "MX",
      "state_code": "PUE",
      "state_id": 3476,
      "country_id": 142
    },
    {
      "id": 68071,
      "name": "莫雷洛斯行动",
      "name_default": "Actipan de Morelos",
      "native": "Actipan de Morelos",
      "type": "city",
      "level": null,
      "parent_id": null,
      "population": 7144,
      "latitude": "18.96003000",
      "longitude": "-97.79904000",
      "timezone": "America/Mexico_City",
      "wikiDataId": "Q20130034",
      "country_code": "MX",
      "state_code": "PUE",
      "state_id": 3476,
      "country_id": 142
    },
    {
      "id": 68074,
      "name": "阿夸科",
      "name_default": "Acuaco",
      "native": "Acuaco",
      "type": "city",
      "level": null,
      "parent_id": null,
      "population": 1071,
      "latitude": "19.76250000",
      "longitude": "-97.56444000",
      "timezone": "America/Mexico_City",
      "wikiDataId": "Q20228771",
      "country_code": "MX",
      "state_code": "PUE",
      "state_id": 3476,
      "country_id": 142
    },
    {
      "id": 68076,
      "name": "Acuexcomac",
      "name_default": "Acuexcomac",
      "native": "Acúxcomac",
      "type": "city",
      "level": null,
      "parent_id": null,
      "population": 4432,
      "latitude": "19.03742000",
      "longitude": "-98.38501000",
      "timezone": "America/Mexico_City",
      "wikiDataId": "Q20232045",
      "country_code": "MX",
      "state_code": "PUE",
      "state_id": 3476,
      "country_id": 142
    },
    {
      "id": 68137,
      "name": "阿瓦卡特兰",
      "name_default": "Ahuacatlán",
      "native": "Ahuacatlán",
      "type": "city",
      "level": null,
      "parent_id": null,
      "population": 1860,
      "latitude": "20.13722000",
      "longitude": "-98.00750000",
      "timezone": "America/Mexico_City",
      "wikiDataId": "Q20261252",
      "country_code": "MX",
      "state_code": "PUE",
      "state_id": 3476,
      "country_id": 142
    },
    {
      "id": 68143,
      "name": "阿瓦坦潘",
      "name_default": "Ahuatempan",
      "native": "Ahuatempan",
      "type": "city",
      "level": null,
      "parent_id": null,
      "population": 4105,
      "latitude": "18.41269000",
      "longitude": "-98.01850000",
      "timezone": "America/Mexico_City",
      "wikiDataId": "Q4518831",
      "country_code": "MX",
      "state_code": "PUE",
      "state_id": 3476,
      "country_id": 142
    },
    {
      "id": 68145,
      "name": "阿胡特佩克",
      "name_default": "Ahuatepec",
      "native": "Ahuatepec",
      "type": "city",
      "level": null,
      "parent_id": null,
      "population": 4366,
      "latitude": "18.85831000",
      "longitude": "-97.91764000",
      "timezone": "America/Mexico_City",
      "wikiDataId": "Q4518831",
      "country_code": "MX",
      "state_code": "PUE",
      "state_id": 3476,
      "country_id": 142
    },
    {
      "id": 68147,
      "name": "阿胡特佩克·德·卡米诺",
      "name_default": "Ahuatepec de Camino",
      "native": "Ahuatepec de Camino",
      "type": "city",
      "level": null,
      "parent_id": null,
      "population": 1387,
      "latitude": "19.04087000",
      "longitude": "-97.43457000",
      "timezone": "America/Mexico_City",
      "wikiDataId": "Q4518831",
      "country_code": "MX",
      "state_code": "PUE",
      "state_id": 3476,
      "country_id": 142
    },
    {
      "id": 68149,
      "name": "阿瓦特兰",
      "name_default": "Ahuatlán",
      "native": "Ahuatlán",
      "type": "adm2",
      "level": null,
      "parent_id": null,
      "population": 516,
      "latitude": "18.57930000",
      "longitude": "-98.27791000",
      "timezone": "America/Mexico_City",
      "wikiDataId": "Q1998734",
      "country_code": "MX",
      "state_code": "PUE",
      "state_id": 3476,
      "country_id": 142
    },
    {
      "id": 68150,
      "name": "阿瓦辛蒂特拉",
      "name_default": "Ahuaxintitla",
      "native": "Ahuaxintitla",
      "type": "city",
      "level": null,
      "parent_id": null,
      "population": 1096,
      "latitude": "20.25325000",
      "longitude": "-97.89561000",
      "timezone": "America/Mexico_City",
      "wikiDataId": "Q20133503",
      "country_code": "MX",
      "state_code": "PUE",
      "state_id": 3476,
      "country_id": 142
    },
    {
      "id": 68151,
      "name": "阿瓦佐特佩克",
      "name_default": "Ahuazotepec",
      "native": "Ahuazotepec",
      "type": "adm2",
      "level": null,
      "parent_id": null,
      "population": 2351,
      "latitude": "20.04535000",
      "longitude": "-98.16332000",
      "timezone": "America/Mexico_City",
      "wikiDataId": "Q2984709",
      "country_code": "MX",
      "state_code": "PUE",
      "state_id": 3476,
      "country_id": 142
    },
    {
      "id": 68153,
      "name": "阿韦韦蒂特拉",
      "name_default": "Ahuehuetitla",
      "native": "Ahuehuetitla",
      "type": "city",
      "level": null,
      "parent_id": null,
      "population": 1210,
      "latitude": "18.21272000",
      "longitude": "-98.21949000",
      "timezone": "America/Mexico_City",
      "wikiDataId": "Q1998679",
      "country_code": "MX",
      "state_code": "PUE",
      "state_id": 3476,
      "country_id": 142
    },
    {
      "id": 68164,
      "name": "阿贾尔潘",
      "name_default": "Ajalpan",
      "native": "AJalpan",
      "type": "adm2",
      "level": null,
      "parent_id": null,
      "population": 28031,
      "latitude": "18.37908000",
      "longitude": "-97.25867000",
      "timezone": "America/Mexico_City",
      "wikiDataId": "Q2651855",
      "country_code": "MX",
      "state_code": "PUE",
      "state_id": 3476,
      "country_id": 142
    },
    {
      "id": 76393,
      "name": "阿拉莫斯·特佩蒂特兰",
      "name_default": "Álamos Tepetitlán",
      "native": "Álamos Tepetitlán",
      "type": "city",
      "level": null,
      "parent_id": null,
      "population": 1378,
      "latitude": "19.19619000",
      "longitude": "-97.43858000",
      "timezone": "America/Mexico_City",
      "wikiDataId": "Q20133897",
      "country_code": "MX",
      "state_code": "PUE",
      "state_id": 3476,
      "country_id": 142
    },
    {
      "id": 68176,
      "name": "白化病泽尔图切",
      "name_default": "Albino Zertuche",
      "native": "Albino zertuche",
      "type": "adm2",
      "level": null,
      "parent_id": null,
      "population": 1790,
      "latitude": "18.01275000",
      "longitude": "-98.55511000",
      "timezone": "America/Mexico_City",
      "wikiDataId": "Q1998869",
      "country_code": "MX",
      "state_code": "PUE",
      "state_id": 3476,
      "country_id": 142
    },
    {
      "id": 68201,
      "name": "阿尔瓦卡",
      "name_default": "Alhuaca",
      "native": "Alhuaca",
      "type": "city",
      "level": null,
      "parent_id": null,
      "population": 1704,
      "latitude": "18.56795000",
      "longitude": "-97.16594000",
      "timezone": "America/Mexico_City",
      "wikiDataId": "Q20134372",
      "country_code": "MX",
      "state_code": "PUE",
      "state_id": 3476,
      "country_id": 142
    },
    {
      "id": 68204,
      "name": "阿霍胡卡",
      "name_default": "Aljojuca",
      "native": "Aljojuca",
      "type": "city",
      "level": null,
      "parent_id": null,
      "population": 3821,
      "latitude": "19.09933000",
      "longitude": "-97.52973000",
      "timezone": "America/Mexico_City",
      "wikiDataId": "Q3846302",
      "country_code": "MX",
      "state_code": "PUE",
      "state_id": 3476,
      "country_id": 142
    },
    {
      "id": 68206,
      "name": "阿连德",
      "name_default": "Allende",
      "native": "Allende",
      "type": "city",
      "level": null,
      "parent_id": null,
      "population": 1064,
      "latitude": "19.53879000",
      "longitude": "-97.59711000",
      "timezone": "America/Mexico_City",
      "wikiDataId": "Q20268891",
      "country_code": "MX",
      "state_code": "PUE",
      "state_id": 3476,
      "country_id": 142
    },
    {
      "id": 68210,
      "name": "阿尔梅卡特拉",
      "name_default": "Almecatla",
      "native": "Almecatla",
      "type": "city",
      "level": null,
      "parent_id": null,
      "population": 13217,
      "latitude": "19.14286000",
      "longitude": "-98.23597000",
      "timezone": "America/Mexico_City",
      "wikiDataId": "Q20231735",
      "country_code": "MX",
      "state_code": "PUE",
      "state_id": 3476,
      "country_id": 142
    },
    {
      "id": 68213,
      "name": "阿尔莫隆加",
      "name_default": "Almolonga",
      "native": "Almolonga",
      "type": "city",
      "level": null,
      "parent_id": null,
      "population": 1442,
      "latitude": "18.47627000",
      "longitude": "-97.96353000",
      "timezone": "America/Mexico_City",
      "wikiDataId": "Q20231735",
      "country_code": "MX",
      "state_code": "PUE",
      "state_id": 3476,
      "country_id": 142
    },
    {
      "id": 68226,
      "name": "阿尔特佩西",
      "name_default": "Altepexi",
      "native": "Altepexi",
      "type": "adm2",
      "level": null,
      "parent_id": null,
      "population": 18217,
      "latitude": "18.37035000",
      "longitude": "-97.29966000",
      "timezone": "America/Mexico_City",
      "wikiDataId": "Q24832",
      "country_code": "MX",
      "state_code": "PUE",
      "state_id": 3476,
      "country_id": 142
    },
    {
      "id": 76398,
      "name": "阿尔瓦罗·奥布雷贡",
      "name_default": "Álvaro Obregón",
      "native": "Álvaro Obregón",
      "type": "city",
      "level": null,
      "parent_id": null,
      "population": 1641,
      "latitude": "19.02781000",
      "longitude": "-97.90219000",
      "timezone": "America/Mexico_City",
      "wikiDataId": "Q20135248",
      "country_code": "MX",
      "state_code": "PUE",
      "state_id": 3476,
      "country_id": 142
    },
    {
      "id": 68242,
      "name": "阿马蒂特兰·德阿苏埃塔",
      "name_default": "Amatitlán de Azueta",
      "native": "Amatitlán de Azueta",
      "type": "city",
      "level": null,
      "parent_id": null,
      "population": 1647,
      "latitude": "18.17631000",
      "longitude": "-98.07640000",
      "timezone": "America/Mexico_City",
      "wikiDataId": "Q630287",
      "country_code": "MX",
      "state_code": "PUE",
      "state_id": 3476,
      "country_id": 142
    },
    {
      "id": 68254,
      "name": "阿梅卢卡",
      "name_default": "Ameluca",
      "native": "Ameluca",
      "type": "city",
      "level": null,
      "parent_id": null,
      "population": 1126,
      "latitude": "20.56344000",
      "longitude": "-97.82571000",
      "timezone": "America/Mexico_City",
      "wikiDataId": "Q20135619",
      "country_code": "MX",
      "state_code": "PUE",
      "state_id": 3476,
      "country_id": 142
    },
    {
      "id": 68256,
      "name": "阿米斯特兰",
      "name_default": "Amixtlán",
      "native": "Amixtlán",
      "type": "city",
      "level": null,
      "parent_id": null,
      "population": 2518,
      "latitude": "20.04778000",
      "longitude": "-97.79918000",
      "timezone": "America/Mexico_City",
      "wikiDataId": "Q2001208",
      "country_code": "MX",
      "state_code": "PUE",
      "state_id": 3476,
      "country_id": 142
    },
    {
      "id": 68257,
      "name": "阿莫佐克",
      "name_default": "Amozoc",
      "native": "Amozoc",
      "type": "city",
      "level": null,
      "parent_id": null,
      "population": 117244,
      "latitude": "19.05019000",
      "longitude": "-98.04154000",
      "timezone": "America/Mexico_City",
      "wikiDataId": "Q4748021",
      "country_code": "MX",
      "state_code": "PUE",
      "state_id": 3476,
      "country_id": 142
    },
    {
      "id": 68258,
      "name": "阿莫索克·德·莫塔",
      "name_default": "Amozoc de Mota",
      "native": "Motazoc",
      "type": "city",
      "level": null,
      "parent_id": null,
      "population": 95322,
      "latitude": "19.04611000",
      "longitude": "-98.04500000",
      "timezone": "America/Mexico_City",
      "wikiDataId": "Q2844093",
      "country_code": "MX",
      "state_code": "PUE",
      "state_id": 3476,
      "country_id": 142
    },
    {
      "id": 68268,
      "name": "Analco de Ponciano Arriaga (圣克鲁斯安纳尔科)",
      "name_default": "Analco de Ponciano Arriaga (Santa Cruz Analco)",
      "native": "Analco de Ponciano Arriaga (Santa Cruz Analco)",
      "type": "city",
      "level": null,
      "parent_id": null,
      "population": 2521,
      "latitude": "19.26444000",
      "longitude": "-98.50028000",
      "timezone": "America/Mexico_City",
      "wikiDataId": "Q20136248",
      "country_code": "MX",
      "state_code": "PUE",
      "state_id": 3476,
      "country_id": 142
    },
    {
      "id": 68290,
      "name": "萨拉戈萨的阿潘戈",
      "name_default": "Apango de Zaragoza",
      "native": "Apango de Zaragoza",
      "type": "city",
      "level": null,
      "parent_id": null,
      "population": 2500,
      "latitude": "19.06833000",
      "longitude": "-97.94028000",
      "timezone": "America/Mexico_City",
      "wikiDataId": "Q20136746",
      "country_code": "MX",
      "state_code": "PUE",
      "state_id": 3476,
      "country_id": 142
    },
    {
      "id": 68292,
      "name": "阿潘泰奥潘",
      "name_default": "Apantéopan",
      "native": "Apantéopano",
      "type": "city",
      "level": null,
      "parent_id": null,
      "population": 1647,
      "latitude": "19.35820000",
      "longitude": "-97.19104000",
      "timezone": "America/Mexico_City",
      "wikiDataId": "Q20251934",
      "country_code": "MX",
      "state_code": "PUE",
      "state_id": 3476,
      "country_id": 142
    },
    {
      "id": 68293,
      "name": "阿帕潘蒂拉",
      "name_default": "Apapantilla",
      "native": "Apapantilla",
      "type": "city",
      "level": null,
      "parent_id": null,
      "population": 2061,
      "latitude": "20.40356000",
      "longitude": "-97.84665000",
      "timezone": "America/Mexico_City",
      "wikiDataId": "Q20251934",
      "country_code": "MX",
      "state_code": "PUE",
      "state_id": 3476,
      "country_id": 142
    },
    {
      "id": 68298,
      "name": "阿帕塔乌扬",
      "name_default": "Apatauyan",
      "native": "Apatauyan",
      "type": "city",
      "level": null,
      "parent_id": null,
      "population": 1700,
      "latitude": "19.79911000",
      "longitude": "-97.44440000",
      "timezone": "America/Mexico_City",
      "wikiDataId": "Q20251947",
      "country_code": "MX",
      "state_code": "PUE",
      "state_id": 3476,
      "country_id": 142
    },
    {
      "id": 68327,
      "name": "阿奎斯特拉",
      "name_default": "Aquixtla",
      "native": "Estexta",
      "type": "adm2",
      "level": null,
      "parent_id": null,
      "population": 901,
      "latitude": "19.77957000",
      "longitude": "-97.93526000",
      "timezone": "America/Mexico_City",
      "wikiDataId": "Q1998668",
      "country_code": "MX",
      "state_code": "PUE",
      "state_id": 3476,
      "country_id": 142
    },
    {
      "id": 68377,
      "name": "宪法第一条",
      "name_default": "Artículo Primero Constitucional",
      "native": "Artículo Primero Constitucional",
      "type": "city",
      "level": null,
      "parent_id": null,
      "population": 1360,
      "latitude": "18.97412000",
      "longitude": "-98.15848000",
      "timezone": "America/Mexico_City",
      "wikiDataId": "Q20138838",
      "country_code": "MX",
      "state_code": "PUE",
      "state_id": 3476,
      "country_id": 142
    },
    {
      "id": 68389,
      "name": "阿塔尔潘",
      "name_default": "Atalpan",
      "native": "Atalpan",
      "type": "city",
      "level": null,
      "parent_id": null,
      "population": 1510,
      "latitude": "19.84374000",
      "longitude": "-97.56008000",
      "timezone": "America/Mexico_City",
      "wikiDataId": "Q3846570",
      "country_code": "MX",
      "state_code": "PUE",
      "state_id": 3476,
      "country_id": 142
    },
    {
      "id": 68394,
      "name": "阿特卡克斯",
      "name_default": "Atecax",
      "native": "Atecax",
      "type": "city",
      "level": null,
      "parent_id": null,
      "population": 1433,
      "latitude": "19.69870000",
      "longitude": "-97.36698000",
      "timezone": "America/Mexico_City",
      "wikiDataId": "Q2651750",
      "country_code": "MX",
      "state_code": "PUE",
      "state_id": 3476,
      "country_id": 142
    },
    {
      "id": 68396,
      "name": "阿坦潘",
      "name_default": "Atempan",
      "native": "Parachoques",
      "type": "city",
      "level": null,
      "parent_id": null,
      "population": 6457,
      "latitude": "19.83945000",
      "longitude": "-97.45855000",
      "timezone": "America/Mexico_City",
      "wikiDataId": "Q20261276",
      "country_code": "MX",
      "state_code": "PUE",
      "state_id": 3476,
      "country_id": 142
    },
    {
      "id": 68398,
      "name": "阿廷钦戈",
      "name_default": "Atencingo",
      "native": "Atencingo",
      "type": "city",
      "level": null,
      "parent_id": null,
      "population": 10879,
      "latitude": "18.51347000",
      "longitude": "-98.60542000",
      "timezone": "America/Mexico_City",
      "wikiDataId": "Q5710542",
      "country_code": "MX",
      "state_code": "PUE",
      "state_id": 3476,
      "country_id": 142
    },
    {
      "id": 68402,
      "name": "阿特克斯卡尔",
      "name_default": "Atexcal",
      "native": "Ateño",
      "type": "city",
      "level": null,
      "parent_id": null,
      "population": 319,
      "latitude": "18.36391000",
      "longitude": "-97.68770000",
      "timezone": "America/Mexico_City",
      "wikiDataId": "Q2001136",
      "country_code": "MX",
      "state_code": "PUE",
      "state_id": 3476,
      "country_id": 142
    },
    {
      "id": 68408,
      "name": "阿特拉",
      "name_default": "Atla",
      "native": "Atla",
      "type": "city",
      "level": null,
      "parent_id": null,
      "population": 2172,
      "latitude": "20.27527000",
      "longitude": "-98.12469000",
      "timezone": "America/Mexico_City",
      "wikiDataId": "Q20228917",
      "country_code": "MX",
      "state_code": "PUE",
      "state_id": 3476,
      "country_id": 142
    },
    {
      "id": 68420,
      "name": "阿特莱基扎扬",
      "name_default": "Atlequizayan",
      "native": "Atlequizayan",
      "type": "adm2",
      "level": null,
      "parent_id": null,
      "population": 1554,
      "latitude": "20.01214000",
      "longitude": "-97.62423000",
      "timezone": "America/Mexico_City",
      "wikiDataId": "Q4816914",
      "country_code": "MX",
      "state_code": "PUE",
      "state_id": 3476,
      "country_id": 142
    },
    {
      "id": 68422,
      "name": "阿特利斯科",
      "name_default": "Atlixco",
      "native": "Atlixco",
      "type": "city",
      "level": null,
      "parent_id": null,
      "population": 89314,
      "latitude": "18.90815000",
      "longitude": "-98.43613000",
      "timezone": "America/Mexico_City",
      "wikiDataId": "Q757401",
      "country_code": "MX",
      "state_code": "PUE",
      "state_id": 3476,
      "country_id": 142
    },
    {
      "id": 68426,
      "name": "阿托卢卡",
      "name_default": "Atoluca",
      "native": "Atoluca",
      "type": "city",
      "level": null,
      "parent_id": null,
      "population": 5187,
      "latitude": "19.85500000",
      "longitude": "-97.35361000",
      "timezone": "America/Mexico_City",
      "wikiDataId": "Q19819771",
      "country_code": "MX",
      "state_code": "PUE",
      "state_id": 3476,
      "country_id": 142
    },
    {
      "id": 68435,
      "name": "阿托亚坦潘",
      "name_default": "Atoyatempan",
      "native": "Atoyatempan",
      "type": "adm2",
      "level": null,
      "parent_id": null,
      "population": 6154,
      "latitude": "18.81925000",
      "longitude": "-97.91390000",
      "timezone": "America/Mexico_City",
      "wikiDataId": "Q2656491",
      "country_code": "MX",
      "state_code": "PUE",
      "state_id": 3476,
      "country_id": 142
    },
    {
      "id": 68438,
      "name": "阿扎拉",
      "name_default": "Atzala",
      "native": "Acceso",
      "type": "city",
      "level": null,
      "parent_id": null,
      "population": 1123,
      "latitude": "18.54639000",
      "longitude": "-98.55306000",
      "timezone": "America/Mexico_City",
      "wikiDataId": "Q20139472",
      "country_code": "MX",
      "state_code": "PUE",
      "state_id": 3476,
      "country_id": 142
    },
    {
      "id": 68440,
      "name": "阿扎兰",
      "name_default": "Atzalán",
      "native": "Atzalán",
      "type": "city",
      "level": null,
      "parent_id": null,
      "population": 1377,
      "latitude": "19.82472000",
      "longitude": "-97.44417000",
      "timezone": "America/Mexico_City",
      "wikiDataId": "Q20139477",
      "country_code": "MX",
      "state_code": "PUE",
      "state_id": 3476,
      "country_id": 142
    },
    {
      "id": 68441,
      "name": "阿钦戈（La Cumbre）",
      "name_default": "Atzingo (La Cumbre)",
      "native": "Atzingo (La Cumbre)",
      "type": "city",
      "level": null,
      "parent_id": null,
      "population": 3336,
      "latitude": "19.97972000",
      "longitude": "-97.96861000",
      "timezone": "America/Mexico_City",
      "wikiDataId": "Q20228927",
      "country_code": "MX",
      "state_code": "PUE",
      "state_id": 3476,
      "country_id": 142
    },
    {
      "id": 68442,
      "name": "阿齐茨金特拉",
      "name_default": "Atzitzintla",
      "native": "AccessIntla",
      "type": "adm2",
      "level": null,
      "parent_id": null,
      "population": 3170,
      "latitude": "18.89915000",
      "longitude": "-97.32440000",
      "timezone": "America/Mexico_City",
      "wikiDataId": "Q962255",
      "country_code": "MX",
      "state_code": "PUE",
      "state_id": 3476,
      "country_id": 142
    },
    {
      "id": 68455,
      "name": "阿克苏特拉",
      "name_default": "Axutla",
      "native": "Axico",
      "type": "adm2",
      "level": null,
      "parent_id": null,
      "population": 561,
      "latitude": "18.18938000",
      "longitude": "-98.38935000",
      "timezone": "America/Mexico_City",
      "wikiDataId": "Q3893112",
      "country_code": "MX",
      "state_code": "PUE",
      "state_id": 3476,
      "country_id": 142
    },
    {
      "id": 68456,
      "name": "阿克苏斯科",
      "name_default": "Axuxco",
      "native": "Axuxco",
      "type": "city",
      "level": null,
      "parent_id": null,
      "population": 1598,
      "latitude": "18.23045000",
      "longitude": "-97.20739000",
      "timezone": "America/Mexico_City",
      "wikiDataId": "Q3893112",
      "country_code": "MX",
      "state_code": "PUE",
      "state_id": 3476,
      "country_id": 142
    },
    {
      "id": 68464,
      "name": "阿约特拉",
      "name_default": "Ayotla",
      "native": "Ayotla",
      "type": "city",
      "level": null,
      "parent_id": null,
      "population": 1434,
      "latitude": "18.67004000",
      "longitude": "-98.37266000",
      "timezone": "America/Mexico_City",
      "wikiDataId": "Q20235613",
      "country_code": "MX",
      "state_code": "PUE",
      "state_id": 3476,
      "country_id": 142
    },
    {
      "id": 68465,
      "name": "阿约托斯科·德格雷罗",
      "name_default": "Ayotoxco de Guerrero",
      "native": "Ayotoxco de Guerrero",
      "type": "adm2",
      "level": null,
      "parent_id": null,
      "population": 2911,
      "latitude": "20.09589000",
      "longitude": "-97.40961000",
      "timezone": "America/Mexico_City",
      "wikiDataId": "Q3893079",
      "country_code": "MX",
      "state_code": "PUE",
      "state_id": 3476,
      "country_id": 142
    },
    {
      "id": 68470,
      "name": "阿尤特拉",
      "name_default": "Ayutla",
      "native": "Ayutla",
      "type": "city",
      "level": null,
      "parent_id": null,
      "population": 3162,
      "latitude": "18.54503000",
      "longitude": "-98.50537000",
      "timezone": "America/Mexico_City",
      "wikiDataId": "Q20139870",
      "country_code": "MX",
      "state_code": "PUE",
      "state_id": 3476,
      "country_id": 142
    },
    {
      "id": 68476,
      "name": "阿苏比拉",
      "name_default": "Azumbilla",
      "native": "Azumbilla",
      "type": "city",
      "level": null,
      "parent_id": null,
      "population": 3914,
      "latitude": "18.64552000",
      "longitude": "-97.39815000",
      "timezone": "America/Mexico_City",
      "wikiDataId": "Q10826418",
      "country_code": "MX",
      "state_code": "PUE",
      "state_id": 3476,
      "country_id": 142
    },
    {
      "id": 68546,
      "name": "新莱昂州",
      "name_default": "Barrio de Nuevo León",
      "native": "Barrio de Nuevo León",
      "type": "city",
      "level": null,
      "parent_id": null,
      "population": 2067,
      "latitude": "19.08861000",
      "longitude": "-98.29000000",
      "timezone": "America/Mexico_City",
      "wikiDataId": "Q20141931",
      "country_code": "MX",
      "state_code": "PUE",
      "state_id": 3476,
      "country_id": 142
    },
    {
      "id": 68581,
      "name": "维多利亚贝拉维斯塔 (圣何塞贝拉维斯塔)",
      "name_default": "Bellavista de Victoria (San José Bellavista)",
      "native": "Bellavista de Victoria (San José Bellavista)",
      "type": "city",
      "level": null,
      "parent_id": null,
      "population": 2492,
      "latitude": "18.87639000",
      "longitude": "-97.54389000",
      "timezone": "America/Mexico_City",
      "wikiDataId": "Q20229009",
      "country_code": "MX",
      "state_code": "PUE",
      "state_id": 3476,
      "country_id": 142
    },
    {
      "id": 68592,
      "name": "贝尼托·胡亚雷斯",
      "name_default": "Benito Juárez",
      "native": "Benito Juárez",
      "type": "city",
      "level": null,
      "parent_id": null,
      "population": 1335,
      "latitude": "19.81654000",
      "longitude": "-97.79108000",
      "timezone": "America/Mexico_City",
      "wikiDataId": "Q20144109",
      "country_code": "MX",
      "state_code": "PUE",
      "state_id": 3476,
      "country_id": 142
    },
    {
      "id": 68608,
      "name": "贝里斯坦",
      "name_default": "Beristain",
      "native": "Besista",
      "type": "city",
      "level": null,
      "parent_id": null,
      "population": 2335,
      "latitude": "20.09426000",
      "longitude": "-98.13290000",
      "timezone": "America/Mexico_City",
      "wikiDataId": "Q817772",
      "country_code": "MX",
      "state_code": "PUE",
      "state_id": 3476,
      "country_id": 142
    },
    {
      "id": 68615,
      "name": "欢迎",
      "name_default": "Bienvenido",
      "native": "Bienvenido",
      "type": "city",
      "level": null,
      "parent_id": null,
      "population": 1165,
      "latitude": "20.12235000",
      "longitude": "-97.74434000",
      "timezone": "America/Mexico_City",
      "wikiDataId": "Q20144308",
      "country_code": "MX",
      "state_code": "PUE",
      "state_id": 3476,
      "country_id": 142
    },
    {
      "id": 68662,
      "name": "布埃纳维斯塔",
      "name_default": "Buena Vista",
      "native": "Buena Vista",
      "type": "city",
      "level": null,
      "parent_id": null,
      "population": 1353,
      "latitude": "20.12767000",
      "longitude": "-97.45373000",
      "timezone": "America/Mexico_City",
      "wikiDataId": "Q20254454",
      "country_code": "MX",
      "state_code": "PUE",
      "state_id": 3476,
      "country_id": 142
    },
    {
      "id": 68683,
      "name": "布埃纳维斯塔·德·胡亚雷斯",
      "name_default": "Buenavista de Juárez",
      "native": "Buenavista de Juárez",
      "type": "city",
      "level": null,
      "parent_id": null,
      "population": 1892,
      "latitude": "18.94500000",
      "longitude": "-97.82778000",
      "timezone": "America/Mexico_City",
      "wikiDataId": "Q20229054",
      "country_code": "MX",
      "state_code": "PUE",
      "state_id": 3476,
      "country_id": 142
    },
    {
      "id": 68677,
      "name": "布埃纳维斯塔·特特拉",
      "name_default": "Buenavista Tetela",
      "native": "Buenavista Tetela",
      "type": "city",
      "level": null,
      "parent_id": null,
      "population": 1172,
      "latitude": "18.91967000",
      "longitude": "-98.17632000",
      "timezone": "America/Mexico_City",
      "wikiDataId": "Q20145981",
      "country_code": "MX",
      "state_code": "PUE",
      "state_id": 3476,
      "country_id": 142
    },
    {
      "id": 68690,
      "name": "布宜诺斯艾利斯",
      "name_default": "Buenos Aires",
      "native": "Buenos Aires",
      "type": "city",
      "level": null,
      "parent_id": null,
      "population": 1711,
      "latitude": "20.15333000",
      "longitude": "-97.74833000",
      "timezone": "America/Mexico_City",
      "wikiDataId": "Q20229066",
      "country_code": "MX",
      "state_code": "PUE",
      "state_id": 3476,
      "country_id": 142
    },
    {
      "id": 68712,
      "name": "卡卡洛什奇特尔",
      "name_default": "Cacaloxúchitl",
      "native": "Cacaloxúchitl",
      "type": "city",
      "level": null,
      "parent_id": null,
      "population": 3006,
      "latitude": "18.78747000",
      "longitude": "-98.48614000",
      "timezone": "America/Mexico_City",
      "wikiDataId": "Q20147183",
      "country_code": "MX",
      "state_code": "PUE",
      "state_id": 3476,
      "country_id": 142
    },
    {
      "id": 68724,
      "name": "卡拉诺特",
      "name_default": "Cala Norte",
      "native": "Cala Norte",
      "type": "city",
      "level": null,
      "parent_id": null,
      "population": 1357,
      "latitude": "19.84778000",
      "longitude": "-97.42306000",
      "timezone": "America/Mexico_City",
      "wikiDataId": "Q20261392",
      "country_code": "MX",
      "state_code": "PUE",
      "state_id": 3476,
      "country_id": 142
    },
    {
      "id": 68725,
      "name": "卡拉苏尔",
      "name_default": "Cala Sur",
      "native": "Cala en",
      "type": "city",
      "level": null,
      "parent_id": null,
      "population": 2511,
      "latitude": "19.83278000",
      "longitude": "-97.42111000",
      "timezone": "America/Mexico_City",
      "wikiDataId": "Q20147458",
      "country_code": "MX",
      "state_code": "PUE",
      "state_id": 3476,
      "country_id": 142
    },
    {
      "id": 68739,
      "name": "卡利潘",
      "name_default": "Calipan",
      "native": "Califa",
      "type": "city",
      "level": null,
      "parent_id": null,
      "population": 4099,
      "latitude": "18.29519000",
      "longitude": "-97.16376000",
      "timezone": "America/Mexico_City",
      "wikiDataId": "Q20261389",
      "country_code": "MX",
      "state_code": "PUE",
      "state_id": 3476,
      "country_id": 142
    },
    {
      "id": 68743,
      "name": "卡尔梅卡",
      "name_default": "Calmeca",
      "native": "Calmeca",
      "type": "city",
      "level": null,
      "parent_id": null,
      "population": 4669,
      "latitude": "18.63501000",
      "longitude": "-98.63414000",
      "timezone": "America/Mexico_City",
      "wikiDataId": "Q20261401",
      "country_code": "MX",
      "state_code": "PUE",
      "state_id": 3476,
      "country_id": 142
    },
    {
      "id": 68746,
      "name": "卡尔帕内里亚·阿特斯基利亚",
      "name_default": "Calpanería Atezquilla",
      "native": "Capitalíua atezquula",
      "type": "city",
      "level": null,
      "parent_id": null,
      "population": 1032,
      "latitude": "19.65556000",
      "longitude": "-97.99528000",
      "timezone": "America/Mexico_City",
      "wikiDataId": "Q20147783",
      "country_code": "MX",
      "state_code": "PUE",
      "state_id": 3476,
      "country_id": 142
    },
    {
      "id": 68765,
      "name": "卡莫库奥特拉",
      "name_default": "Camocuautla",
      "native": "Camocuautla",
      "type": "city",
      "level": null,
      "parent_id": null,
      "population": 1412,
      "latitude": "20.03805000",
      "longitude": "-97.75853000",
      "timezone": "America/Mexico_City",
      "wikiDataId": "Q3893085",
      "country_code": "MX",
      "state_code": "PUE",
      "state_id": 3476,
      "country_id": 142
    },
    {
      "id": 68766,
      "name": "卡莫特佩克",
      "name_default": "Camotepec",
      "native": "Camotepec",
      "type": "city",
      "level": null,
      "parent_id": null,
      "population": 2364,
      "latitude": "20.04720000",
      "longitude": "-98.06825000",
      "timezone": "America/Mexico_City",
      "wikiDataId": "Q3893085",
      "country_code": "MX",
      "state_code": "PUE",
      "state_id": 3476,
      "country_id": 142
    },
    {
      "id": 68791,
      "name": "坎德拉里亚·波特苏埃洛",
      "name_default": "Candelaria Portezuelo",
      "native": "Candelaria Portezuelo",
      "type": "city",
      "level": null,
      "parent_id": null,
      "population": 1013,
      "latitude": "19.04194000",
      "longitude": "-97.70083000",
      "timezone": "America/Mexico_City",
      "wikiDataId": "Q20275174",
      "country_code": "MX",
      "state_code": "PUE",
      "state_id": 3476,
      "country_id": 142
    },
    {
      "id": 68828,
      "name": "卡门·塞尔丹",
      "name_default": "Carmen Serdán",
      "native": "Carmen Serdán",
      "type": "city",
      "level": null,
      "parent_id": null,
      "population": 1234,
      "latitude": "19.03639000",
      "longitude": "-97.81194000",
      "timezone": "America/Mexico_City",
      "wikiDataId": "Q20256663",
      "country_code": "MX",
      "state_code": "PUE",
      "state_id": 3476,
      "country_id": 142
    },
    {
      "id": 68846,
      "name": "卡萨布兰卡",
      "name_default": "Casa Blanca",
      "native": "Casa Blanca",
      "type": "city",
      "level": null,
      "parent_id": null,
      "population": 17262,
      "latitude": "19.04222000",
      "longitude": "-98.11889000",
      "timezone": "America/Mexico_City",
      "wikiDataId": "Q20229170",
      "country_code": "MX",
      "state_code": "PUE",
      "state_id": 3476,
      "country_id": 142
    },
    {
      "id": 68868,
      "name": "卡斯瓦坎",
      "name_default": "Caxhuacán",
      "native": "Caxhuacán",
      "type": "adm2",
      "level": null,
      "parent_id": null,
      "population": 3383,
      "latitude": "20.06359000",
      "longitude": "-97.60688000",
      "timezone": "America/Mexico_City",
      "wikiDataId": "Q5055255",
      "country_code": "MX",
      "state_code": "PUE",
      "state_id": 3476,
      "country_id": 142
    },
    {
      "id": 68958,
      "name": "查尔奇瓦潘",
      "name_default": "Chalchihuapan",
      "native": "Chalchihuapan",
      "type": "city",
      "level": null,
      "parent_id": null,
      "population": 5061,
      "latitude": "18.97183000",
      "longitude": "-98.33698000",
      "timezone": "America/Mexico_City",
      "wikiDataId": "Q20237404",
      "country_code": "MX",
      "state_code": "PUE",
      "state_id": 3476,
      "country_id": 142
    },
    {
      "id": 68986,
      "name": "查普尔科",
      "name_default": "Chapulco",
      "native": "Chapulco",
      "type": "adm2",
      "level": null,
      "parent_id": null,
      "population": 5358,
      "latitude": "18.62586000",
      "longitude": "-97.40474000",
      "timezone": "America/Mexico_City",
      "wikiDataId": "Q20261503",
      "country_code": "MX",
      "state_code": "PUE",
      "state_id": 3476,
      "country_id": 142
    },
    {
      "id": 69014,
      "name": "基奥特拉·德塔皮亚",
      "name_default": "Chiautla de Tapia",
      "native": "Tapia",
      "type": "city",
      "level": null,
      "parent_id": null,
      "population": 11511,
      "latitude": "18.30149000",
      "longitude": "-98.60339000",
      "timezone": "America/Mexico_City",
      "wikiDataId": "Q20261531",
      "country_code": "MX",
      "state_code": "PUE",
      "state_id": 3476,
      "country_id": 142
    },
    {
      "id": 69016,
      "name": "奇卡瓦克斯特拉",
      "name_default": "Chicahuaxtla",
      "native": "Norma",
      "type": "city",
      "level": null,
      "parent_id": null,
      "population": 2640,
      "latitude": "20.14250000",
      "longitude": "-97.94556000",
      "timezone": "America/Mexico_City",
      "wikiDataId": "Q20229267",
      "country_code": "MX",
      "state_code": "PUE",
      "state_id": 3476,
      "country_id": 142
    },
    {
      "id": 69022,
      "name": "奇奇卡帕",
      "name_default": "Chichicapa",
      "native": "Polluelo",
      "type": "city",
      "level": null,
      "parent_id": null,
      "population": 1183,
      "latitude": "18.40056000",
      "longitude": "-97.04694000",
      "timezone": "America/Mexico_City",
      "wikiDataId": "Q20229269",
      "country_code": "MX",
      "state_code": "PUE",
      "state_id": 3476,
      "country_id": 142
    },
    {
      "id": 69025,
      "name": "奇奇库奥特拉",
      "name_default": "Chichicuautla",
      "native": "Chichicuutla",
      "type": "city",
      "level": null,
      "parent_id": null,
      "population": 1846,
      "latitude": "19.39073000",
      "longitude": "-97.39394000",
      "timezone": "America/Mexico_City",
      "wikiDataId": "Q20264777",
      "country_code": "MX",
      "state_code": "PUE",
      "state_id": 3476,
      "country_id": 142
    },
    {
      "id": 69032,
      "name": "奇奇基拉",
      "name_default": "Chichiquila",
      "native": "Chichiquila",
      "type": "city",
      "level": null,
      "parent_id": null,
      "population": 2812,
      "latitude": "19.20073000",
      "longitude": "-97.06691000",
      "timezone": "America/Mexico_City",
      "wikiDataId": "Q5096058",
      "country_code": "MX",
      "state_code": "PUE",
      "state_id": 3476,
      "country_id": 142
    },
    {
      "id": 69042,
      "name": "奇孔库奥特拉",
      "name_default": "Chiconcuautla",
      "native": "Chiconcuautla",
      "type": "city",
      "level": null,
      "parent_id": null,
      "population": 3332,
      "latitude": "20.09517000",
      "longitude": "-97.93896000",
      "timezone": "America/Mexico_City",
      "wikiDataId": "Q5096475",
      "country_code": "MX",
      "state_code": "PUE",
      "state_id": 3476,
      "country_id": 142
    },
    {
      "id": 69045,
      "name": "奇康特拉",
      "name_default": "Chicontla",
      "native": "Chicontla",
      "type": "city",
      "level": null,
      "parent_id": null,
      "population": 3305,
      "latitude": "20.24402000",
      "longitude": "-97.83063000",
      "timezone": "America/Mexico_City",
      "wikiDataId": "Q4968555",
      "country_code": "MX",
      "state_code": "PUE",
      "state_id": 3476,
      "country_id": 142
    },
    {
      "id": 69052,
      "name": "基耶特拉",
      "name_default": "Chietla",
      "native": "Chietla",
      "type": "city",
      "level": null,
      "parent_id": null,
      "population": 5726,
      "latitude": "18.52028000",
      "longitude": "-98.57889000",
      "timezone": "America/Mexico_City",
      "wikiDataId": "Q20229286",
      "country_code": "MX",
      "state_code": "PUE",
      "state_id": 3476,
      "country_id": 142
    },
    {
      "id": 69053,
      "name": "奇格梅卡蒂特兰",
      "name_default": "Chigmecatitlán",
      "native": "Chigmecatitlán",
      "type": "adm2",
      "level": null,
      "parent_id": null,
      "population": 1137,
      "latitude": "18.64634000",
      "longitude": "-98.07203000",
      "timezone": "America/Mexico_City",
      "wikiDataId": "Q5097216",
      "country_code": "MX",
      "state_code": "PUE",
      "state_id": 3476,
      "country_id": 142
    },
    {
      "id": 69054,
      "name": "奇格纳瓦潘",
      "name_default": "Chignahuapan",
      "native": "Chignahuapan",
      "type": "adm2",
      "level": null,
      "parent_id": null,
      "population": 19608,
      "latitude": "19.83866000",
      "longitude": "-98.03171000",
      "timezone": "America/Mexico_City",
      "wikiDataId": "Q2984119",
      "country_code": "MX",
      "state_code": "PUE",
      "state_id": 3476,
      "country_id": 142
    },
    {
      "id": 69059,
      "name": "奇拉",
      "name_default": "Chila",
      "native": "Chila",
      "type": "adm2",
      "level": null,
      "parent_id": null,
      "population": 4515,
      "latitude": "17.96747000",
      "longitude": "-97.87478000",
      "timezone": "America/Mexico_City",
      "wikiDataId": "Q5097549",
      "country_code": "MX",
      "state_code": "PUE",
      "state_id": 3476,
      "country_id": 142
    },
    {
      "id": 69060,
      "name": "奇拉·德·胡亚雷斯",
      "name_default": "Chila de Juárez",
      "native": "Cyla de Juraz",
      "type": "city",
      "level": null,
      "parent_id": null,
      "population": 1385,
      "latitude": "20.28113000",
      "longitude": "-98.20937000",
      "timezone": "America/Mexico_City",
      "wikiDataId": "Q5097549",
      "country_code": "MX",
      "state_code": "PUE",
      "state_id": 3476,
      "country_id": 142
    },
    {
      "id": 69061,
      "name": "奇拉德拉萨尔",
      "name_default": "Chila de la Sal",
      "native": "Chila de la Sal",
      "type": "adm2",
      "level": null,
      "parent_id": null,
      "population": 762,
      "latitude": "18.10975000",
      "longitude": "-98.48574000",
      "timezone": "America/Mexico_City",
      "wikiDataId": "Q5097553",
      "country_code": "MX",
      "state_code": "PUE",
      "state_id": 3476,
      "country_id": 142
    },
    {
      "id": 69068,
      "name": "奇尔乔特拉",
      "name_default": "Chilchotla",
      "native": "Chilchotla",
      "type": "city",
      "level": null,
      "parent_id": null,
      "population": 1004,
      "latitude": "19.26916000",
      "longitude": "-97.19916000",
      "timezone": "America/Mexico_City",
      "wikiDataId": "Q5097637",
      "country_code": "MX",
      "state_code": "PUE",
      "state_id": 3476,
      "country_id": 142
    },
    {
      "id": 69084,
      "name": "奇南特拉",
      "name_default": "Chinantla",
      "native": "Chinantla",
      "type": "city",
      "level": null,
      "parent_id": null,
      "population": 2221,
      "latitude": "18.23423000",
      "longitude": "-98.27627000",
      "timezone": "America/Mexico_City",
      "wikiDataId": "Q3890514",
      "country_code": "MX",
      "state_code": "PUE",
      "state_id": 3476,
      "country_id": 142
    },
    {
      "id": 69085,
      "name": "奇纳特拉",
      "name_default": "Chinautla",
      "native": "Chinautla",
      "type": "city",
      "level": null,
      "parent_id": null,
      "population": 11096,
      "latitude": "19.81996000",
      "longitude": "-97.38859000",
      "timezone": "America/Mexico_City",
      "wikiDataId": "Q5097219",
      "country_code": "MX",
      "state_code": "PUE",
      "state_id": 3476,
      "country_id": 142
    },
    {
      "id": 69088,
      "name": "奇帕瓦特兰",
      "name_default": "Chipahuatlán",
      "native": "Chipahuatlán",
      "type": "city",
      "level": null,
      "parent_id": null,
      "population": 1148,
      "latitude": "20.06111000",
      "longitude": "-97.68861000",
      "timezone": "America/Mexico_City",
      "wikiDataId": "Q20229302",
      "country_code": "MX",
      "state_code": "PUE",
      "state_id": 3476,
      "country_id": 142
    },
    {
      "id": 69089,
      "name": "奇皮洛·德·弗朗西斯科·哈维尔·米纳",
      "name_default": "Chipilo de Francisco Javier Mina",
      "native": "Chipilo de Francisco Javier Mina",
      "type": "city",
      "level": null,
      "parent_id": null,
      "population": 3493,
      "latitude": "19.00611000",
      "longitude": "-98.33056000",
      "timezone": "America/Mexico_City",
      "wikiDataId": "Q276054",
      "country_code": "MX",
      "state_code": "PUE",
      "state_id": 3476,
      "country_id": 142
    },
    {
      "id": 69103,
      "name": "乔卢拉",
      "name_default": "Cholula",
      "native": "Colula",
      "type": "city",
      "level": null,
      "parent_id": null,
      "population": 292881,
      "latitude": "19.06406000",
      "longitude": "-98.30352000",
      "timezone": "America/Mexico_City",
      "wikiDataId": "Q1007232",
      "country_code": "MX",
      "state_code": "PUE",
      "state_id": 3476,
      "country_id": 142
    },
    {
      "id": 69135,
      "name": "五月五日节",
      "name_default": "Cinco de Mayo",
      "native": "Cinco de Mayo",
      "type": "city",
      "level": null,
      "parent_id": null,
      "population": 1893,
      "latitude": "20.13167000",
      "longitude": "-97.63000000",
      "timezone": "America/Mexico_City",
      "wikiDataId": "Q20261573",
      "country_code": "MX",
      "state_code": "PUE",
      "state_id": 3476,
      "country_id": 142
    },
    {
      "id": 69187,
      "name": "基奥特拉德塔皮亚城",
      "name_default": "Ciudad de Chiautla de Tapia",
      "native": "Ciudad de Chiautla de Tapia",
      "type": "city",
      "level": null,
      "parent_id": null,
      "population": 11511,
      "latitude": "18.30000000",
      "longitude": "-98.60389000",
      "timezone": "America/Mexico_City",
      "wikiDataId": "Q20229329",
      "country_code": "MX",
      "state_code": "PUE",
      "state_id": 3476,
      "country_id": 142
    },
    {
      "id": 69188,
      "name": "库埃特扎兰城",
      "name_default": "Ciudad de Cuetzalan",
      "native": "Ciudad de Cuetzalan",
      "type": "city",
      "level": null,
      "parent_id": null,
      "population": 5957,
      "latitude": "20.01861000",
      "longitude": "-97.52111000",
      "timezone": "America/Mexico_City",
      "wikiDataId": "Q20261589",
      "country_code": "MX",
      "state_code": "PUE",
      "state_id": 3476,
      "country_id": 142
    },
    {
      "id": 69192,
      "name": "特拉特劳基特佩克城",
      "name_default": "Ciudad de Tlatlauquitepec",
      "native": "Ciudad de TlatlauquitePec",
      "type": "city",
      "level": null,
      "parent_id": null,
      "population": 9047,
      "latitude": "19.85278000",
      "longitude": "-97.49528000",
      "timezone": "America/Mexico_City",
      "wikiDataId": "Q20275841",
      "country_code": "MX",
      "state_code": "PUE",
      "state_id": 3476,
      "country_id": 142
    },
    {
      "id": 69181,
      "name": "塞尔丹城",
      "name_default": "Ciudad Serdán",
      "native": "Ciudad Serdán",
      "type": "adm2",
      "level": null,
      "parent_id": null,
      "population": 23824,
      "latitude": "18.98856000",
      "longitude": "-97.44643000",
      "timezone": "America/Mexico_City",
      "wikiDataId": "Q2277969",
      "country_code": "MX",
      "state_code": "PUE",
      "state_id": 3476,
      "country_id": 142
    },
    {
      "id": 69217,
      "name": "科阿韦斯科",
      "name_default": "Coahuixco",
      "native": "Coahuixco",
      "type": "city",
      "level": null,
      "parent_id": null,
      "population": 2566,
      "latitude": "19.80556000",
      "longitude": "-97.41028000",
      "timezone": "America/Mexico_City",
      "wikiDataId": "Q20261604",
      "country_code": "MX",
      "state_code": "PUE",
      "state_id": 3476,
      "country_id": 142
    },
    {
      "id": 69226,
      "name": "科阿特佩克",
      "name_default": "Coatepec",
      "native": "Coatepec",
      "type": "city",
      "level": null,
      "parent_id": null,
      "population": 681,
      "latitude": "20.06236000",
      "longitude": "-97.73069000",
      "timezone": "America/Mexico_City",
      "wikiDataId": "Q5138604",
      "country_code": "MX",
      "state_code": "PUE",
      "state_id": 3476,
      "country_id": 142
    },
    {
      "id": 69232,
      "name": "科钦戈",
      "name_default": "Coatzingo",
      "native": "Coatzingo",
      "type": "adm2",
      "level": null,
      "parent_id": null,
      "population": 2243,
      "latitude": "18.61199000",
      "longitude": "-98.17267000",
      "timezone": "America/Mexico_City",
      "wikiDataId": "Q5138665",
      "country_code": "MX",
      "state_code": "PUE",
      "state_id": 3476,
      "country_id": 142
    },
    {
      "id": 69252,
      "name": "科韦坎",
      "name_default": "Cohuecán",
      "native": "Cohuecán",
      "type": "city",
      "level": null,
      "parent_id": null,
      "population": 1856,
      "latitude": "18.78268000",
      "longitude": "-98.72085000",
      "timezone": "America/Mexico_City",
      "wikiDataId": "Q5141439",
      "country_code": "MX",
      "state_code": "PUE",
      "state_id": 3476,
      "country_id": 142
    },
    {
      "id": 69276,
      "name": "Colonia Agrícola de Ocotepec (科洛尼亚圣何塞)",
      "name_default": "Colonia Agrícola de Ocotepec (Colonia San José)",
      "native": "Colonia Agrícola de Ocotepec (Colonia San José)",
      "type": "city",
      "level": null,
      "parent_id": null,
      "population": 1898,
      "latitude": "18.92972000",
      "longitude": "-98.54444000",
      "timezone": "America/Mexico_City",
      "wikiDataId": "Q20229365",
      "country_code": "MX",
      "state_code": "PUE",
      "state_id": 3476,
      "country_id": 142
    },
    {
      "id": 69344,
      "name": "科洛尼亚·奥布雷拉",
      "name_default": "Colonia Obrera",
      "native": "Colonia Obrera",
      "type": "city",
      "level": null,
      "parent_id": null,
      "population": 1258,
      "latitude": "19.22944000",
      "longitude": "-97.79750000",
      "timezone": "America/Mexico_City",
      "wikiDataId": "Q20131215",
      "country_code": "MX",
      "state_code": "PUE",
      "state_id": 3476,
      "country_id": 142
    },
    {
      "id": 69413,
      "name": "科卢坎",
      "name_default": "Colucan",
      "native": "Colucano",
      "type": "city",
      "level": null,
      "parent_id": null,
      "population": 2577,
      "latitude": "18.50905000",
      "longitude": "-98.48078000",
      "timezone": "America/Mexico_City",
      "wikiDataId": "Q5149161",
      "country_code": "MX",
      "state_code": "PUE",
      "state_id": 3476,
      "country_id": 142
    },
    {
      "id": 69420,
      "name": "科马尔特佩克",
      "name_default": "Comaltepec",
      "native": "ComalTepec",
      "type": "city",
      "level": null,
      "parent_id": null,
      "population": 3236,
      "latitude": "19.85893000",
      "longitude": "-97.59938000",
      "timezone": "America/Mexico_City",
      "wikiDataId": "Q20132978",
      "country_code": "MX",
      "state_code": "PUE",
      "state_id": 3476,
      "country_id": 142
    },
    {
      "id": 69433,
      "name": "康塞普西翁卡普拉克 (La Ex-Hacienda)",
      "name_default": "Concepción Capulac (La Ex-Hacienda)",
      "native": "Concepción Capulac (La Ex-Hacienda)",
      "type": "city",
      "level": null,
      "parent_id": null,
      "population": 2514,
      "latitude": "19.09444000",
      "longitude": "-98.06139000",
      "timezone": "America/Mexico_City",
      "wikiDataId": "Q20133253",
      "country_code": "MX",
      "state_code": "PUE",
      "state_id": 3476,
      "country_id": 142
    },
    {
      "id": 69436,
      "name": "康塞普西翁库奥特拉",
      "name_default": "Concepción Cuautla",
      "native": "Concepción Cuautla",
      "type": "city",
      "level": null,
      "parent_id": null,
      "population": 1709,
      "latitude": "18.86722000",
      "longitude": "-97.98475000",
      "timezone": "America/Mexico_City",
      "wikiDataId": "Q20133258",
      "country_code": "MX",
      "state_code": "PUE",
      "state_id": 3476,
      "country_id": 142
    },
    {
      "id": 69473,
      "name": "科皮拉",
      "name_default": "Copila",
      "native": "bebé",
      "type": "city",
      "level": null,
      "parent_id": null,
      "population": 1406,
      "latitude": "20.27300000",
      "longitude": "-98.08294000",
      "timezone": "America/Mexico_City",
      "wikiDataId": "Q5168311",
      "country_code": "MX",
      "state_code": "PUE",
      "state_id": 3476,
      "country_id": 142
    },
    {
      "id": 69480,
      "name": "科罗南戈",
      "name_default": "Coronango",
      "native": "Coronango",
      "type": "city",
      "level": null,
      "parent_id": null,
      "population": 14859,
      "latitude": "19.12090000",
      "longitude": "-98.30594000",
      "timezone": "America/Mexico_City",
      "wikiDataId": "Q20297692",
      "country_code": "MX",
      "state_code": "PUE",
      "state_id": 3476,
      "country_id": 142
    },
    {
      "id": 69481,
      "name": "蒂托·埃尔南德斯上校",
      "name_default": "Coronel Tito Hernández",
      "native": "Coronel Tito Hernández",
      "type": "city",
      "level": null,
      "parent_id": null,
      "population": 2432,
      "latitude": "20.45642000",
      "longitude": "-97.73607000",
      "timezone": "America/Mexico_City",
      "wikiDataId": "Q20297692",
      "country_code": "MX",
      "state_code": "PUE",
      "state_id": 3476,
      "country_id": 142
    },
    {
      "id": 69511,
      "name": "科克斯卡特兰",
      "name_default": "Coxcatlán",
      "native": "Coxcatlán",
      "type": "adm2",
      "level": null,
      "parent_id": null,
      "population": 6300,
      "latitude": "18.26709000",
      "longitude": "-97.15078000",
      "timezone": "America/Mexico_City",
      "wikiDataId": "Q20135264",
      "country_code": "MX",
      "state_code": "PUE",
      "state_id": 3476,
      "country_id": 142
    },
    {
      "id": 69512,
      "name": "科克索利科",
      "name_default": "Coxolico",
      "native": "Coxolico",
      "type": "city",
      "level": null,
      "parent_id": null,
      "population": 1349,
      "latitude": "18.45104000",
      "longitude": "-97.02991000",
      "timezone": "America/Mexico_City",
      "wikiDataId": "Q20135292",
      "country_code": "MX",
      "state_code": "PUE",
      "state_id": 3476,
      "country_id": 142
    },
    {
      "id": 69519,
      "name": "科约米阿潘",
      "name_default": "Coyomeapan",
      "native": "Coyomeapan",
      "type": "city",
      "level": null,
      "parent_id": null,
      "population": 1108,
      "latitude": "18.28206000",
      "longitude": "-96.99336000",
      "timezone": "America/Mexico_City",
      "wikiDataId": "Q1998751",
      "country_code": "MX",
      "state_code": "PUE",
      "state_id": 3476,
      "country_id": 142
    },
    {
      "id": 69522,
      "name": "科约特佩克",
      "name_default": "Coyotepec",
      "native": "Coyotepec",
      "type": "city",
      "level": null,
      "parent_id": null,
      "population": 101,
      "latitude": "18.41656000",
      "longitude": "-97.82703000",
      "timezone": "America/Mexico_City",
      "wikiDataId": "Q5180099",
      "country_code": "MX",
      "state_code": "PUE",
      "state_id": 3476,
      "country_id": 142
    },
    {
      "id": 69549,
      "name": "库阿克诺帕兰",
      "name_default": "Cuacnopalan",
      "native": "Cuacnopalano",
      "type": "city",
      "level": null,
      "parent_id": null,
      "population": 8516,
      "latitude": "18.81758000",
      "longitude": "-97.51116000",
      "timezone": "America/Mexico_City",
      "wikiDataId": "Q20261722",
      "country_code": "MX",
      "state_code": "PUE",
      "state_id": 3476,
      "country_id": 142
    },
    {
      "id": 69550,
      "name": "库阿库伊拉",
      "name_default": "Cuacuila",
      "native": "Cuacuila",
      "type": "city",
      "level": null,
      "parent_id": null,
      "population": 3050,
      "latitude": "20.17205000",
      "longitude": "-98.03150000",
      "timezone": "America/Mexico_City",
      "wikiDataId": "Q20261722",
      "country_code": "MX",
      "state_code": "PUE",
      "state_id": 3476,
      "country_id": 142
    },
    {
      "id": 69559,
      "name": "夸纳拉",
      "name_default": "Cuanalá",
      "native": "Cuanalá",
      "type": "adm2",
      "level": null,
      "parent_id": null,
      "population": 5728,
      "latitude": "19.10917000",
      "longitude": "-98.32788000",
      "timezone": "America/Mexico_City",
      "wikiDataId": "Q20261739",
      "country_code": "MX",
      "state_code": "PUE",
      "state_id": 3476,
      "country_id": 142
    },
    {
      "id": 69562,
      "name": "库阿皮阿斯特拉·德马德罗",
      "name_default": "Cuapiaxtla de Madero",
      "native": "Cuapiaxtla de Madero",
      "type": "adm2",
      "level": null,
      "parent_id": null,
      "population": 7139,
      "latitude": "18.91544000",
      "longitude": "-97.82382000",
      "timezone": "America/Mexico_City",
      "wikiDataId": "Q5191855",
      "country_code": "MX",
      "state_code": "PUE",
      "state_id": 3476,
      "country_id": 142
    },
    {
      "id": 69569,
      "name": "四条路",
      "name_default": "Cuatro Caminos",
      "native": "Cuatro Caminos",
      "type": "city",
      "level": null,
      "parent_id": null,
      "population": 1236,
      "latitude": "18.49130000",
      "longitude": "-97.12901000",
      "timezone": "America/Mexico_City",
      "wikiDataId": "Q20229497",
      "country_code": "MX",
      "state_code": "PUE",
      "state_id": 3476,
      "country_id": 142
    },
    {
      "id": 69573,
      "name": "库奥赫塔马萨科",
      "name_default": "Cuauhtamazaco",
      "native": "Cuauhtamazaco",
      "type": "city",
      "level": null,
      "parent_id": null,
      "population": 1107,
      "latitude": "20.02500000",
      "longitude": "-97.48722000",
      "timezone": "America/Mexico_City",
      "wikiDataId": "Q20229502",
      "country_code": "MX",
      "state_code": "PUE",
      "state_id": 3476,
      "country_id": 142
    },
    {
      "id": 69584,
      "name": "夸乌特莫克",
      "name_default": "Cuauhtémoc",
      "native": "Cuauhtémoc",
      "type": "city",
      "level": null,
      "parent_id": null,
      "population": 1382,
      "latitude": "19.22306000",
      "longitude": "-97.33833000",
      "timezone": "America/Mexico_City",
      "wikiDataId": "Q20261763",
      "country_code": "MX",
      "state_code": "PUE",
      "state_id": 3476,
      "country_id": 142
    },
    {
      "id": 69586,
      "name": "库奥滕潘",
      "name_default": "Cuautempan",
      "native": "Cuautempan",
      "type": "adm2",
      "level": null,
      "parent_id": null,
      "population": 1094,
      "latitude": "19.91612000",
      "longitude": "-97.79097000",
      "timezone": "America/Mexico_City",
      "wikiDataId": "Q5191896",
      "country_code": "MX",
      "state_code": "PUE",
      "state_id": 3476,
      "country_id": 142
    },
    {
      "id": 69589,
      "name": "库奥廷恰恩",
      "name_default": "Cuautinchán",
      "native": "Cuautinchán",
      "type": "city",
      "level": null,
      "parent_id": null,
      "population": 2454,
      "latitude": "18.95463000",
      "longitude": "-98.01566000",
      "timezone": "America/Mexico_City",
      "wikiDataId": "Q5191852",
      "country_code": "MX",
      "state_code": "PUE",
      "state_id": 3476,
      "country_id": 142
    },
    {
      "id": 69593,
      "name": "库奥特兰辛戈",
      "name_default": "Cuautlancingo",
      "native": "Cuautlancingo",
      "type": "adm2",
      "level": null,
      "parent_id": null,
      "population": 25104,
      "latitude": "19.08995000",
      "longitude": "-98.27319000",
      "timezone": "America/Mexico_City",
      "wikiDataId": "Q1998658",
      "country_code": "MX",
      "state_code": "PUE",
      "state_id": 3476,
      "country_id": 142
    },
    {
      "id": 69595,
      "name": "库奥托托拉",
      "name_default": "Cuautotola",
      "native": "Cuautotola",
      "type": "city",
      "level": null,
      "parent_id": null,
      "population": 1016,
      "latitude": "20.06841000",
      "longitude": "-97.79806000",
      "timezone": "America/Mexico_City",
      "wikiDataId": "Q20222295",
      "country_code": "MX",
      "state_code": "PUE",
      "state_id": 3476,
      "country_id": 142
    },
    {
      "id": 69596,
      "name": "库奥托托拉潘（圣何塞）",
      "name_default": "Cuautotolapan (San José)",
      "native": "Cuautotolapan (San José)",
      "type": "city",
      "level": null,
      "parent_id": null,
      "population": 1732,
      "latitude": "18.43299000",
      "longitude": "-97.12091000",
      "timezone": "America/Mexico_City",
      "wikiDataId": "Q20229518",
      "country_code": "MX",
      "state_code": "PUE",
      "state_id": 3476,
      "country_id": 142
    },
    {
      "id": 69598,
      "name": "库阿索斯潘",
      "name_default": "Cuaxoxpan",
      "native": "Cuaxoxpan",
      "type": "city",
      "level": null,
      "parent_id": null,
      "population": 1421,
      "latitude": "19.80806000",
      "longitude": "-97.34583000",
      "timezone": "America/Mexico_City",
      "wikiDataId": "Q20137645",
      "country_code": "MX",
      "state_code": "PUE",
      "state_id": 3476,
      "country_id": 142
    },
    {
      "id": 69599,
      "name": "库阿苏克斯帕",
      "name_default": "Cuaxuxpa",
      "native": "Cuaxuxpa",
      "type": "city",
      "level": null,
      "parent_id": null,
      "population": 1772,
      "latitude": "18.46211000",
      "longitude": "-97.03556000",
      "timezone": "America/Mexico_City",
      "wikiDataId": "Q20229523",
      "country_code": "MX",
      "state_code": "PUE",
      "state_id": 3476,
      "country_id": 142
    },
    {
      "id": 69600,
      "name": "库尤卡·德安德拉德",
      "name_default": "Cuayuca de Andrade",
      "native": "Cuayuca de Andrade",
      "type": "city",
      "level": null,
      "parent_id": null,
      "population": 3163,
      "latitude": "18.44416000",
      "longitude": "-98.19193000",
      "timezone": "America/Mexico_City",
      "wikiDataId": "Q5138674",
      "country_code": "MX",
      "state_code": "PUE",
      "state_id": 3476,
      "country_id": 142
    },
    {
      "id": 69618,
      "name": "库埃斯塔·布兰卡",
      "name_default": "Cuesta Blanca",
      "native": "Cuesta Blanca",
      "type": "city",
      "level": null,
      "parent_id": null,
      "population": 3946,
      "latitude": "18.84536000",
      "longitude": "-97.46753000",
      "timezone": "America/Mexico_City",
      "wikiDataId": "Q20137897",
      "country_code": "MX",
      "state_code": "PUE",
      "state_id": 3476,
      "country_id": 142
    },
    {
      "id": 69622,
      "name": "库埃特扎兰",
      "name_default": "Cuetzalan",
      "native": "Cuetzalan",
      "type": "adm2",
      "level": null,
      "parent_id": null,
      "population": 5513,
      "latitude": "20.01766000",
      "longitude": "-97.52277000",
      "timezone": "America/Mexico_City",
      "wikiDataId": "Q2651808",
      "country_code": "MX",
      "state_code": "PUE",
      "state_id": 3476,
      "country_id": 142
    },
    {
      "id": 69623,
      "name": "库埃察兰德尔普罗格雷索",
      "name_default": "Cuetzalan del Progreso",
      "native": "Cuetzalan del Progreso",
      "type": "city",
      "level": null,
      "parent_id": null,
      "population": 1309,
      "latitude": "20.03857000",
      "longitude": "-97.49268000",
      "timezone": "America/Mexico_City",
      "wikiDataId": "Q5192626",
      "country_code": "MX",
      "state_code": "PUE",
      "state_id": 3476,
      "country_id": 142
    },
    {
      "id": 69624,
      "name": "库埃克斯帕拉",
      "name_default": "Cuexpala",
      "native": "Cuexpala",
      "type": "city",
      "level": null,
      "parent_id": null,
      "population": 1153,
      "latitude": "18.62720000",
      "longitude": "-98.55842000",
      "timezone": "America/Mexico_City",
      "wikiDataId": "Q5192626",
      "country_code": "MX",
      "state_code": "PUE",
      "state_id": 3476,
      "country_id": 142
    },
    {
      "id": 69652,
      "name": "库约阿科",
      "name_default": "Cuyoaco",
      "native": "Cuyoaco",
      "type": "city",
      "level": null,
      "parent_id": null,
      "population": 1903,
      "latitude": "19.60192000",
      "longitude": "-97.62024000",
      "timezone": "America/Mexico_City",
      "wikiDataId": "Q608391",
      "country_code": "MX",
      "state_code": "PUE",
      "state_id": 3476,
      "country_id": 142
    },
    {
      "id": 69705,
      "name": "多洛雷斯·伊达尔戈",
      "name_default": "Dolores Hidalgo",
      "native": "Dolores Hidalgo",
      "type": "city",
      "level": null,
      "parent_id": null,
      "population": 1082,
      "latitude": "18.75697000",
      "longitude": "-97.86062000",
      "timezone": "America/Mexico_City",
      "wikiDataId": "Q20139391",
      "country_code": "MX",
      "state_code": "PUE",
      "state_id": 3476,
      "country_id": 142
    },
    {
      "id": 69708,
      "name": "多明戈·阿里纳斯",
      "name_default": "Domingo Arenas",
      "native": "Domingo Arenas",
      "type": "adm2",
      "level": null,
      "parent_id": null,
      "population": 5864,
      "latitude": "19.13998000",
      "longitude": "-98.45678000",
      "timezone": "America/Mexico_City",
      "wikiDataId": "Q5290343",
      "country_code": "MX",
      "state_code": "PUE",
      "state_id": 3476,
      "country_id": 142
    },
    {
      "id": 69862,
      "name": "埃尔卡普洛（La Quebradora）",
      "name_default": "El Capulo (La Quebradora)",
      "native": "El Capulo (La Quebrador)",
      "type": "city",
      "level": null,
      "parent_id": null,
      "population": 1019,
      "latitude": "18.94944000",
      "longitude": "-98.26889000",
      "timezone": "America/Mexico_City",
      "wikiDataId": "Q20261896",
      "country_code": "MX",
      "state_code": "PUE",
      "state_id": 3476,
      "country_id": 142
    },
    {
      "id": 69874,
      "name": "埃尔卡门",
      "name_default": "El Carmen",
      "native": "El Carmen",
      "type": "city",
      "level": null,
      "parent_id": null,
      "population": 1156,
      "latitude": "19.24167000",
      "longitude": "-97.20111000",
      "timezone": "America/Mexico_City",
      "wikiDataId": "Q20229653",
      "country_code": "MX",
      "state_code": "PUE",
      "state_id": 3476,
      "country_id": 142
    },
    {
      "id": 69897,
      "name": "埃尔查卡尔",
      "name_default": "El Chacal",
      "native": "El Chacal",
      "type": "city",
      "level": null,
      "parent_id": null,
      "population": 1211,
      "latitude": "20.22228000",
      "longitude": "-97.46025000",
      "timezone": "America/Mexico_City",
      "wikiDataId": "Q20277814",
      "country_code": "MX",
      "state_code": "PUE",
      "state_id": 3476,
      "country_id": 142
    },
    {
      "id": 69953,
      "name": "埃尔恩坎托德尔塞里尔",
      "name_default": "El Encanto del Cerril",
      "native": "El Encanto del Cerril",
      "type": "city",
      "level": null,
      "parent_id": null,
      "population": 2191,
      "latitude": "18.93194000",
      "longitude": "-98.42556000",
      "timezone": "America/Mexico_City",
      "wikiDataId": "Q20229740",
      "country_code": "MX",
      "state_code": "PUE",
      "state_id": 3476,
      "country_id": 142
    },
    {
      "id": 69973,
      "name": "联盟之力",
      "name_default": "El Fuerte de la Unión",
      "native": "El Fuerte de la Unión",
      "type": "city",
      "level": null,
      "parent_id": null,
      "population": 2356,
      "latitude": "19.43077000",
      "longitude": "-97.56064000",
      "timezone": "America/Mexico_City",
      "wikiDataId": "Q1324181",
      "country_code": "MX",
      "state_code": "PUE",
      "state_id": 3476,
      "country_id": 142
    },
    {
      "id": 70041,
      "name": "埃尔米拉多",
      "name_default": "El Mirador",
      "native": "El Mirador",
      "type": "city",
      "level": null,
      "parent_id": null,
      "population": 1195,
      "latitude": "19.55694000",
      "longitude": "-97.77194000",
      "timezone": "America/Mexico_City",
      "wikiDataId": "Q20229847",
      "country_code": "MX",
      "state_code": "PUE",
      "state_id": 3476,
      "country_id": 142
    },
    {
      "id": 70047,
      "name": "埃尔莫利诺",
      "name_default": "El Molino",
      "native": "El Molino",
      "type": "city",
      "level": null,
      "parent_id": null,
      "population": 1466,
      "latitude": "19.81333000",
      "longitude": "-97.58028000",
      "timezone": "America/Mexico_City",
      "wikiDataId": "Q20229864",
      "country_code": "MX",
      "state_code": "PUE",
      "state_id": 3476,
      "country_id": 142
    },
    {
      "id": 70080,
      "name": "埃尔帕尔马",
      "name_default": "El Palmar",
      "native": "El Palmar",
      "type": "city",
      "level": null,
      "parent_id": null,
      "population": 1560,
      "latitude": "19.13972000",
      "longitude": "-97.05306000",
      "timezone": "America/Mexico_City",
      "wikiDataId": "Q20252288",
      "country_code": "MX",
      "state_code": "PUE",
      "state_id": 3476,
      "country_id": 142
    },
    {
      "id": 70132,
      "name": "埃尔普罗格雷索",
      "name_default": "El Progreso",
      "native": "El Progreso",
      "type": "city",
      "level": null,
      "parent_id": null,
      "population": 1305,
      "latitude": "20.01917000",
      "longitude": "-97.36472000",
      "timezone": "America/Mexico_City",
      "wikiDataId": "Q20229982",
      "country_code": "MX",
      "state_code": "PUE",
      "state_id": 3476,
      "country_id": 142
    },
    {
      "id": 70162,
      "name": "埃尔林孔西特拉尔特佩特尔",
      "name_default": "El Rincón Citlaltépetl",
      "native": "El Rincón Citlaltépetl",
      "type": "city",
      "level": null,
      "parent_id": null,
      "population": 5326,
      "latitude": "19.15556000",
      "longitude": "-97.89444000",
      "timezone": "America/Mexico_City",
      "wikiDataId": "Q20255636",
      "country_code": "MX",
      "state_code": "PUE",
      "state_id": 3476,
      "country_id": 142
    },
    {
      "id": 70251,
      "name": "埃尔贝拉德罗",
      "name_default": "El Veladero",
      "native": "El Veladero",
      "type": "city",
      "level": null,
      "parent_id": null,
      "population": 1186,
      "latitude": "18.96421000",
      "longitude": "-97.48289000",
      "timezone": "America/Mexico_City",
      "wikiDataId": "Q20281331",
      "country_code": "MX",
      "state_code": "PUE",
      "state_id": 3476,
      "country_id": 142
    },
    {
      "id": 70273,
      "name": "埃洛克索奇特兰",
      "name_default": "Eloxochitlán",
      "native": "Eloxochitlán",
      "type": "city",
      "level": null,
      "parent_id": null,
      "population": 555,
      "latitude": "18.50883000",
      "longitude": "-96.92271000",
      "timezone": "America/Mexico_City",
      "wikiDataId": "Q5829881",
      "country_code": "MX",
      "state_code": "PUE",
      "state_id": 3476,
      "country_id": 142
    },
    {
      "id": 70275,
      "name": "解放格查拉帕",
      "name_default": "Emancipación Quetzalapa",
      "native": "Emancipación Quetzalapa",
      "type": "city",
      "level": null,
      "parent_id": null,
      "population": 1042,
      "latitude": "19.17333000",
      "longitude": "-97.39203000",
      "timezone": "America/Mexico_City",
      "wikiDataId": "Q2651860",
      "country_code": "MX",
      "state_code": "PUE",
      "state_id": 3476,
      "country_id": 142
    },
    {
      "id": 70295,
      "name": "埃米利奥·卡兰萨（圣克鲁斯）",
      "name_default": "Emilio Carranza (Santa Cruz)",
      "native": "Emilio Carranza (Santa Cruz)",
      "type": "city",
      "level": null,
      "parent_id": null,
      "population": 1554,
      "latitude": "19.71278000",
      "longitude": "-97.65278000",
      "timezone": "America/Mexico_City",
      "wikiDataId": "Q20134578",
      "country_code": "MX",
      "state_code": "PUE",
      "state_id": 3476,
      "country_id": 142
    },
    {
      "id": 70296,
      "name": "埃米利奥·波特斯·吉尔",
      "name_default": "Emilio Portes Gil",
      "native": "Emilio Portes Gil",
      "type": "city",
      "level": null,
      "parent_id": null,
      "population": 2985,
      "latitude": "19.30751000",
      "longitude": "-97.51027000",
      "timezone": "America/Mexico_City",
      "wikiDataId": "Q20134578",
      "country_code": "MX",
      "state_code": "PUE",
      "state_id": 3476,
      "country_id": 142
    },
    {
      "id": 70327,
      "name": "埃斯佩兰萨",
      "name_default": "Esperanza",
      "native": "Esperanza",
      "type": "adm2",
      "level": null,
      "parent_id": null,
      "population": 7833,
      "latitude": "18.85853000",
      "longitude": "-97.37641000",
      "timezone": "America/Mexico_City",
      "wikiDataId": "Q20142521",
      "country_code": "MX",
      "state_code": "PUE",
      "state_id": 3476,
      "country_id": 142
    },
    {
      "id": 70466,
      "name": "弗朗西斯科·I·马德罗",
      "name_default": "Francisco I. Madero",
      "native": "Francisco I. Madero",
      "type": "city",
      "level": null,
      "parent_id": null,
      "population": 3028,
      "latitude": "19.24985000",
      "longitude": "-97.22648000",
      "timezone": "America/Mexico_City",
      "wikiDataId": "Q20266297",
      "country_code": "MX",
      "state_code": "PUE",
      "state_id": 3476,
      "country_id": 142
    },
    {
      "id": 70471,
      "name": "弗朗西斯科·伊格纳西奥·马德罗",
      "name_default": "Francisco Ignacio Madero",
      "native": "Francisco Ignacio Madero",
      "type": "city",
      "level": null,
      "parent_id": null,
      "population": 1925,
      "latitude": "18.49306000",
      "longitude": "-97.46384000",
      "timezone": "America/Mexico_City",
      "wikiDataId": "Q20139675",
      "country_code": "MX",
      "state_code": "PUE",
      "state_id": 3476,
      "country_id": 142
    },
    {
      "id": 70476,
      "name": "弗朗西斯科·萨拉比亚",
      "name_default": "Francisco Sarabia",
      "native": "Francisco Sarabia",
      "type": "city",
      "level": null,
      "parent_id": null,
      "population": 1294,
      "latitude": "18.96417000",
      "longitude": "-98.31389000",
      "timezone": "America/Mexico_City",
      "wikiDataId": "Q20139841",
      "country_code": "MX",
      "state_code": "PUE",
      "state_id": 3476,
      "country_id": 142
    },
    {
      "id": 70482,
      "name": "弗朗西斯科·维拉",
      "name_default": "Francisco Villa",
      "native": "Francisco Villa",
      "type": "city",
      "level": null,
      "parent_id": null,
      "population": 1033,
      "latitude": "18.84446000",
      "longitude": "-97.76336000",
      "timezone": "America/Mexico_City",
      "wikiDataId": "Q20140062",
      "country_code": "MX",
      "state_code": "PUE",
      "state_id": 3476,
      "country_id": 142
    },
    {
      "id": 70483,
      "name": "弗朗西斯科·Z·梅纳",
      "name_default": "Francisco Z. Mena",
      "native": "Francisco Z. Mena",
      "type": "city",
      "level": null,
      "parent_id": null,
      "population": 16677,
      "latitude": "20.72614000",
      "longitude": "-97.81882000",
      "timezone": "America/Mexico_City",
      "wikiDataId": "Q5484072",
      "country_code": "MX",
      "state_code": "PUE",
      "state_id": 3476,
      "country_id": 142
    },
    {
      "id": 70506,
      "name": "加拉西亚·拉·卡莱拉",
      "name_default": "Galaxia la Calera",
      "native": "Galaxia la Calera",
      "type": "city",
      "level": null,
      "parent_id": null,
      "population": 2850,
      "latitude": "18.99900000",
      "longitude": "-98.15250000",
      "timezone": "America/Mexico_City",
      "wikiDataId": "Q20230163",
      "country_code": "MX",
      "state_code": "PUE",
      "state_id": 3476,
      "country_id": 142
    },
    {
      "id": 70531,
      "name": "费利佩·安赫莱斯将军",
      "name_default": "General Felipe Ángeles",
      "native": "General Felipe Ángeles",
      "type": "city",
      "level": null,
      "parent_id": null,
      "population": 850,
      "latitude": "19.00786000",
      "longitude": "-97.68282000",
      "timezone": "America/Mexico_City",
      "wikiDataId": "Q5531906",
      "country_code": "MX",
      "state_code": "PUE",
      "state_id": 3476,
      "country_id": 142
    },
    {
      "id": 70548,
      "name": "吉尔伯托·卡马乔",
      "name_default": "Gilberto Camacho",
      "native": "Gilberto Camacho",
      "type": "city",
      "level": null,
      "parent_id": null,
      "population": 1633,
      "latitude": "20.37365000",
      "longitude": "-97.88546000",
      "timezone": "America/Mexico_City",
      "wikiDataId": "Q20282369",
      "country_code": "MX",
      "state_code": "PUE",
      "state_id": 3476,
      "country_id": 142
    },
    {
      "id": 70647,
      "name": "戈麦斯·波尼恩特",
      "name_default": "Gómez Poniente",
      "native": "Gómez Poniente",
      "type": "city",
      "level": null,
      "parent_id": null,
      "population": 1614,
      "latitude": "19.77250000",
      "longitude": "-97.48694000",
      "timezone": "America/Mexico_City",
      "wikiDataId": "Q20230169",
      "country_code": "MX",
      "state_code": "PUE",
      "state_id": 3476,
      "country_id": 142
    },
    {
      "id": 70556,
      "name": "冈萨雷斯·奥尔特加",
      "name_default": "González Ortega",
      "native": "González Ortega",
      "type": "city",
      "level": null,
      "parent_id": null,
      "population": 2041,
      "latitude": "19.34268000",
      "longitude": "-97.27023000",
      "timezone": "America/Mexico_City",
      "wikiDataId": "Q20282435",
      "country_code": "MX",
      "state_code": "PUE",
      "state_id": 3476,
      "country_id": 142
    },
    {
      "id": 70559,
      "name": "格拉哈莱斯",
      "name_default": "Grajales",
      "native": "Grajales",
      "type": "adm2",
      "level": null,
      "parent_id": null,
      "population": 10054,
      "latitude": "19.22796000",
      "longitude": "-97.80307000",
      "timezone": "America/Mexico_City",
      "wikiDataId": "Q2613309",
      "country_code": "MX",
      "state_code": "PUE",
      "state_id": 3476,
      "country_id": 142
    },
    {
      "id": 70576,
      "name": "瓜达卢佩",
      "name_default": "Guadalupe",
      "native": "Guadalupo",
      "type": "city",
      "level": null,
      "parent_id": null,
      "population": 938,
      "latitude": "18.06521000",
      "longitude": "-98.14673000",
      "timezone": "America/Mexico_City",
      "wikiDataId": "Q5613245",
      "country_code": "MX",
      "state_code": "PUE",
      "state_id": 3476,
      "country_id": 142
    },
    {
      "id": 70579,
      "name": "瓜达卢佩·卡尔德隆",
      "name_default": "Guadalupe Calderón",
      "native": "Guadalupe Calderón",
      "type": "city",
      "level": null,
      "parent_id": null,
      "population": 1100,
      "latitude": "18.96611000",
      "longitude": "-97.85833000",
      "timezone": "America/Mexico_City",
      "wikiDataId": "Q20262216",
      "country_code": "MX",
      "state_code": "PUE",
      "state_id": 3476,
      "country_id": 142
    },
    {
      "id": 70581,
      "name": "瓜达卢佩·恩里克斯",
      "name_default": "Guadalupe Enríquez",
      "native": "Guadalupe Enríquez",
      "type": "city",
      "level": null,
      "parent_id": null,
      "population": 1757,
      "latitude": "18.89374000",
      "longitude": "-97.58759000",
      "timezone": "America/Mexico_City",
      "wikiDataId": "Q20142608",
      "country_code": "MX",
      "state_code": "PUE",
      "state_id": 3476,
      "country_id": 142
    },
    {
      "id": 70586,
      "name": "瓜达卢佩自由",
      "name_default": "Guadalupe Libertad",
      "native": "Guadalupe Libertad",
      "type": "city",
      "level": null,
      "parent_id": null,
      "population": 1476,
      "latitude": "19.18789000",
      "longitude": "-97.38744000",
      "timezone": "America/Mexico_City",
      "wikiDataId": "Q20264177",
      "country_code": "MX",
      "state_code": "PUE",
      "state_id": 3476,
      "country_id": 142
    },
    {
      "id": 70588,
      "name": "瓜达卢佩莫雷洛斯",
      "name_default": "Guadalupe Morelos",
      "native": "Guadalupe Morelos",
      "type": "city",
      "level": null,
      "parent_id": null,
      "population": 1058,
      "latitude": "19.02556000",
      "longitude": "-97.80417000",
      "timezone": "America/Mexico_City",
      "wikiDataId": "Q20230188",
      "country_code": "MX",
      "state_code": "PUE",
      "state_id": 3476,
      "country_id": 142
    },
    {
      "id": 70589,
      "name": "瓜达卢佩圣安娜",
      "name_default": "Guadalupe Santa Ana",
      "native": "Guadalupe Santa Ana",
      "type": "city",
      "level": null,
      "parent_id": null,
      "population": 2195,
      "latitude": "18.09140000",
      "longitude": "-98.12079000",
      "timezone": "America/Mexico_City",
      "wikiDataId": "Q20230188",
      "country_code": "MX",
      "state_code": "PUE",
      "state_id": 3476,
      "country_id": 142
    },
    {
      "id": 70590,
      "name": "瓜达卢佩·萨拉维亚",
      "name_default": "Guadalupe Sarabia",
      "native": "Guadalupe Sarabia",
      "type": "city",
      "level": null,
      "parent_id": null,
      "population": 1519,
      "latitude": "19.53096000",
      "longitude": "-97.42752000",
      "timezone": "America/Mexico_City",
      "wikiDataId": "Q20230188",
      "country_code": "MX",
      "state_code": "PUE",
      "state_id": 3476,
      "country_id": 142
    },
    {
      "id": 70598,
      "name": "瓜达卢佩维多利亚",
      "name_default": "Guadalupe Victoria",
      "native": "Guadalupe Victoria",
      "type": "city",
      "level": null,
      "parent_id": null,
      "population": 10035,
      "latitude": "19.29110000",
      "longitude": "-97.34290000",
      "timezone": "America/Mexico_City",
      "wikiDataId": "Q3890918",
      "country_code": "MX",
      "state_code": "PUE",
      "state_id": 3476,
      "country_id": 142
    },
    {
      "id": 70607,
      "name": "瓜达卢佩·萨拉戈萨",
      "name_default": "Guadalupe Zaragoza",
      "native": "Guadalupe Zaragoza",
      "type": "city",
      "level": null,
      "parent_id": null,
      "population": 2820,
      "latitude": "19.35833000",
      "longitude": "-98.53750000",
      "timezone": "America/Mexico_City",
      "wikiDataId": "Q20143066",
      "country_code": "MX",
      "state_code": "PUE",
      "state_id": 3476,
      "country_id": 142
    },
    {
      "id": 70668,
      "name": "赫尔梅内吉尔多·加莱亚纳",
      "name_default": "Hermenegildo Galeana",
      "native": "Hermenegildo Galeana",
      "type": "city",
      "level": null,
      "parent_id": null,
      "population": 1047,
      "latitude": "18.25667000",
      "longitude": "-98.10222000",
      "timezone": "America/Mexico_City",
      "wikiDataId": "Q20283210",
      "country_code": "MX",
      "state_code": "PUE",
      "state_id": 3476,
      "country_id": 142
    },
    {
      "id": 70706,
      "name": "蜂蜜",
      "name_default": "Honey",
      "native": "Miel",
      "type": "city",
      "level": null,
      "parent_id": null,
      "population": 1317,
      "latitude": "20.25454000",
      "longitude": "-98.23090000",
      "timezone": "America/Mexico_City",
      "wikiDataId": "Q1998711",
      "country_code": "MX",
      "state_code": "PUE",
      "state_id": 3476,
      "country_id": 142
    },
    {
      "id": 70715,
      "name": "华奇南特拉",
      "name_default": "Huachinantla",
      "native": "Y",
      "type": "city",
      "level": null,
      "parent_id": null,
      "population": 1465,
      "latitude": "18.28175000",
      "longitude": "-98.96796000",
      "timezone": "America/Mexico_City",
      "wikiDataId": "Q20207417",
      "country_code": "MX",
      "state_code": "PUE",
      "state_id": 3476,
      "country_id": 142
    },
    {
      "id": 70717,
      "name": "华华克斯特拉",
      "name_default": "Huahuaxtla",
      "native": "Cena",
      "type": "city",
      "level": null,
      "parent_id": null,
      "population": 2471,
      "latitude": "19.91627000",
      "longitude": "-97.63717000",
      "timezone": "America/Mexico_City",
      "wikiDataId": "Q3844382",
      "country_code": "MX",
      "state_code": "PUE",
      "state_id": 3476,
      "country_id": 142
    },
    {
      "id": 70722,
      "name": "华霍尤卡",
      "name_default": "Huajoyuca",
      "native": "Y",
      "type": "city",
      "level": null,
      "parent_id": null,
      "population": 1922,
      "latitude": "18.51240000",
      "longitude": "-97.93737000",
      "timezone": "America/Mexico_City",
      "wikiDataId": "Q2651771",
      "country_code": "MX",
      "state_code": "PUE",
      "state_id": 3476,
      "country_id": 142
    },
    {
      "id": 70738,
      "name": "瓦克丘拉",
      "name_default": "Huaquechula",
      "native": "Andch",
      "type": "adm2",
      "level": null,
      "parent_id": null,
      "population": 3005,
      "latitude": "18.77116000",
      "longitude": "-98.54460000",
      "timezone": "America/Mexico_City",
      "wikiDataId": "Q2447288",
      "country_code": "MX",
      "state_code": "PUE",
      "state_id": 3476,
      "country_id": 142
    },
    {
      "id": 70742,
      "name": "瓦特拉特劳卡",
      "name_default": "Huatlatlauca",
      "native": "Huatlatlauca",
      "type": "adm2",
      "level": null,
      "parent_id": null,
      "population": 6317,
      "latitude": "18.69189000",
      "longitude": "-98.03819000",
      "timezone": "America/Mexico_City",
      "wikiDataId": "Q10769258",
      "country_code": "MX",
      "state_code": "PUE",
      "state_id": 3476,
      "country_id": 142
    },
    {
      "id": 70744,
      "name": "瓦乌奇南戈",
      "name_default": "Huauchinango",
      "native": "Huauchinango",
      "type": "adm2",
      "level": null,
      "parent_id": null,
      "population": 58957,
      "latitude": "20.17376000",
      "longitude": "-98.05491000",
      "timezone": "America/Mexico_City",
      "wikiDataId": "Q20145539",
      "country_code": "MX",
      "state_code": "PUE",
      "state_id": 3476,
      "country_id": 142
    },
    {
      "id": 70747,
      "name": "华特拉·德·希门尼斯",
      "name_default": "Huautla de Jiménez",
      "native": "Huautla de Jiménez",
      "type": "city",
      "level": null,
      "parent_id": null,
      "population": 10528,
      "latitude": "18.13150000",
      "longitude": "-96.84088000",
      "timezone": "America/Mexico_City",
      "wikiDataId": "Q27769221",
      "country_code": "MX",
      "state_code": "PUE",
      "state_id": 3476,
      "country_id": 142
    },
    {
      "id": 70748,
      "name": "瓦斯卡莱卡",
      "name_default": "Huaxcaleca",
      "native": "Huaxcaleca",
      "type": "city",
      "level": null,
      "parent_id": null,
      "population": 2081,
      "latitude": "19.23401000",
      "longitude": "-97.07696000",
      "timezone": "America/Mexico_City",
      "wikiDataId": "Q27769221",
      "country_code": "MX",
      "state_code": "PUE",
      "state_id": 3476,
      "country_id": 142
    },
    {
      "id": 70758,
      "name": "韦韦特拉",
      "name_default": "Huehuetla",
      "native": "Huehuetla",
      "type": "adm2",
      "level": null,
      "parent_id": null,
      "population": 1764,
      "latitude": "20.10391000",
      "longitude": "-97.62507000",
      "timezone": "America/Mexico_City",
      "wikiDataId": "Q3142191",
      "country_code": "MX",
      "state_code": "PUE",
      "state_id": 3476,
      "country_id": 142
    },
    {
      "id": 70759,
      "name": "韦韦特兰·埃尔·奇科",
      "name_default": "Huehuetlan el Chico",
      "native": "Huehuetlan el Chico",
      "type": "adm2",
      "level": null,
      "parent_id": null,
      "population": 4742,
      "latitude": "18.37347000",
      "longitude": "-98.69002000",
      "timezone": "America/Mexico_City",
      "wikiDataId": "Q27778063",
      "country_code": "MX",
      "state_code": "PUE",
      "state_id": 3476,
      "country_id": 142
    },
    {
      "id": 70760,
      "name": "韦韦特兰·埃尔·格兰德",
      "name_default": "Huehuetlán el Grande",
      "native": "Huehuetlán el Grande",
      "type": "city",
      "level": null,
      "parent_id": null,
      "population": 7242,
      "latitude": "18.74693000",
      "longitude": "-98.15770000",
      "timezone": "America/Mexico_City",
      "wikiDataId": "Q5929197",
      "country_code": "MX",
      "state_code": "PUE",
      "state_id": 3476,
      "country_id": 142
    },
    {
      "id": 70764,
      "name": "韦约纳潘",
      "name_default": "Huejonapan",
      "native": "Huejonapan",
      "type": "city",
      "level": null,
      "parent_id": null,
      "population": 1753,
      "latitude": "18.46971000",
      "longitude": "-97.92149000",
      "timezone": "America/Mexico_City",
      "wikiDataId": "Q20145659",
      "country_code": "MX",
      "state_code": "PUE",
      "state_id": 3476,
      "country_id": 142
    },
    {
      "id": 70766,
      "name": "休约津戈",
      "name_default": "Huejotzingo",
      "native": "Huejotzingo",
      "type": "adm2",
      "level": null,
      "parent_id": null,
      "population": 25684,
      "latitude": "19.15892000",
      "longitude": "-98.40824000",
      "timezone": "America/Mexico_City",
      "wikiDataId": "Q20204317",
      "country_code": "MX",
      "state_code": "PUE",
      "state_id": 3476,
      "country_id": 142
    },
    {
      "id": 70775,
      "name": "韦亚潘",
      "name_default": "Hueyapan",
      "native": "Hueyapan",
      "type": "city",
      "level": null,
      "parent_id": null,
      "population": 6478,
      "latitude": "19.91856000",
      "longitude": "-97.41023000",
      "timezone": "America/Mexico_City",
      "wikiDataId": "Q5904324",
      "country_code": "MX",
      "state_code": "PUE",
      "state_id": 3476,
      "country_id": 142
    },
    {
      "id": 70780,
      "name": "休约特利潘",
      "name_default": "Hueyotlipan",
      "native": "Hueyotlipan",
      "type": "adm2",
      "level": null,
      "parent_id": null,
      "population": 5176,
      "latitude": "18.89148000",
      "longitude": "-97.86575000",
      "timezone": "America/Mexico_City",
      "wikiDataId": "Q7420560",
      "country_code": "MX",
      "state_code": "PUE",
      "state_id": 3476,
      "country_id": 142
    },
    {
      "id": 70783,
      "name": "休伊塔马尔科",
      "name_default": "Hueytamalco",
      "native": "Hueytamalco",
      "type": "adm2",
      "level": null,
      "parent_id": null,
      "population": 5335,
      "latitude": "19.94029000",
      "longitude": "-97.28848000",
      "timezone": "America/Mexico_City",
      "wikiDataId": "Q20230241",
      "country_code": "MX",
      "state_code": "PUE",
      "state_id": 3476,
      "country_id": 142
    },
    {
      "id": 70785,
      "name": "韦伊特拉尔潘",
      "name_default": "Hueytlalpan",
      "native": "Hueytlalpa",
      "type": "city",
      "level": null,
      "parent_id": null,
      "population": 2023,
      "latitude": "20.02707000",
      "longitude": "-97.69694000",
      "timezone": "America/Mexico_City",
      "wikiDataId": "Q5929406",
      "country_code": "MX",
      "state_code": "PUE",
      "state_id": 3476,
      "country_id": 142
    },
    {
      "id": 70790,
      "name": "乌拉卡皮克斯特拉",
      "name_default": "Huilacapixtla",
      "native": "Huilacapixtla",
      "type": "city",
      "level": null,
      "parent_id": null,
      "population": 1580,
      "latitude": "20.21232000",
      "longitude": "-98.08185000",
      "timezone": "America/Mexico_City",
      "wikiDataId": "Q27769230",
      "country_code": "MX",
      "state_code": "PUE",
      "state_id": 3476,
      "country_id": 142
    },
    {
      "id": 70807,
      "name": "维齐拉克",
      "name_default": "Huitzilac",
      "native": "Huitzilac",
      "type": "city",
      "level": null,
      "parent_id": null,
      "population": 1188,
      "latitude": "20.60669000",
      "longitude": "-97.74207000",
      "timezone": "America/Mexico_City",
      "wikiDataId": "Q2466899",
      "country_code": "MX",
      "state_code": "PUE",
      "state_id": 3476,
      "country_id": 142
    },