{
  "locale": "fr",
  "country": {
    "id": 181,
    "code": "RO",
    "iso3": "ROU",
    "numeric_code": "642",
    "name": "Roumanie",
    "name_default": "Romania",
    "native": "România",
    "capital": "Bucharest",
    "phonecode": "40",
    "currency": "RON",
    "currency_name": "Romanian leu",
    "currency_symbol": "lei",
    "tld": ".ro",
    "population": 19036031,
    "gdp": 403395,
    "region": "Europe",
    "region_id": 4,
    "subregion": "Eastern Europe",
    "subregion_id": 15,
    "nationality": "Romanian",
    "timezones": [
      {
        "zoneName": "Europe/Bucharest",
        "gmtOffset": 7200,
        "gmtOffsetName": "UTC+02:00",
        "abbreviation": "EET",
        "tzName": "Eastern European Time"
      }
    ],
    "latitude": "46.00000000",
    "longitude": "25.00000000",
    "emoji": "🇷🇴",
    "emojiU": "U+1F1F7 U+1F1F4"
  },
  "state": {
    "id": 4722,
    "code": "AG",
    "iso2": "AG",
    "iso3166_2": "RO-AG",
    "fips_code": "03",
    "name": "Argès",
    "name_default": "Arges",
    "native": "Arges",
    "type": "department",
    "level": null,
    "parent_id": null,
    "population": null,
    "latitude": "44.99397640",
    "longitude": "24.84886850",
    "timezone": "Europe/Bucharest",
    "wikiDataId": "Q179567",
    "country_code": "RO"
  },
  "cities": [
    {
      "id": 89914,
      "name": "Albeşti",
      "name_default": "Albeşti",
      "native": "Albeşti",
      "type": "adm2",
      "level": null,
      "parent_id": null,
      "population": 4503,
      "latitude": "45.30955000",
      "longitude": "25.00780000",
      "timezone": "Europe/Bucharest",
      "wikiDataId": "Q12077540",
      "country_code": "RO",
      "state_code": "AG",
      "state_id": 4722,
      "country_id": 181
    },
    {
      "id": 89919,
      "name": "Albeştii Pământeni",
      "name_default": "Albeştii Pământeni",
      "native": "Albeştii Pământeni",
      "type": "city",
      "level": null,
      "parent_id": null,
      "population": 5815,
      "latitude": "45.20642110",
      "longitude": "24.66780310",
      "timezone": "Europe/Bucharest",
      "wikiDataId": "Q12077551",
      "country_code": "RO",
      "state_code": "AG",
      "state_id": 4722,
      "country_id": 181
    },
    {
      "id": 89921,
      "name": "Albeștii Ungureni",
      "name_default": "Albeștii Ungureni",
      "native": "Albeștii Ungureni",
      "type": "city",
      "level": null,
      "parent_id": null,
      "population": 2017,
      "latitude": "45.22529000",
      "longitude": "24.67254000",
      "timezone": "Europe/Bucharest",
      "wikiDataId": "Q12077553",
      "country_code": "RO",
      "state_code": "AG",
      "state_id": 4722,
      "country_id": 181
    },
    {
      "id": 89923,
      "name": "Albota",
      "name_default": "Albota",
      "native": "Albota",
      "type": "adm2",
      "level": null,
      "parent_id": null,
      "population": 1865,
      "latitude": "44.78333000",
      "longitude": "24.85000000",
      "timezone": "Europe/Bucharest",
      "wikiDataId": "Q2348255",
      "country_code": "RO",
      "state_code": "AG",
      "state_id": 4722,
      "country_id": 181
    },
    {
      "id": 89924,
      "name": "Albota de Jos",
      "name_default": "Albota de Jos",
      "native": "Albota de Jos",
      "type": "city",
      "level": null,
      "parent_id": null,
      "population": 3866,
      "latitude": "44.76667000",
      "longitude": "24.83333000",
      "timezone": "Europe/Bucharest",
      "wikiDataId": "Q31877379",
      "country_code": "RO",
      "state_code": "AG",
      "state_id": 4722,
      "country_id": 181
    },
    {
      "id": 89964,
      "name": "Aninoasa",
      "name_default": "Aninoasa",
      "native": "Aninoasa",
      "type": "adm2",
      "level": null,
      "parent_id": null,
      "population": 3334,
      "latitude": "45.18333000",
      "longitude": "24.93333000",
      "timezone": "Europe/Bucharest",
      "wikiDataId": "Q744742",
      "country_code": "RO",
      "state_code": "AG",
      "state_id": 4722,
      "country_id": 181
    },
    {
      "id": 89985,
      "name": "Aréfu",
      "name_default": "Arefu",
      "native": "Arefu",
      "type": "city",
      "level": null,
      "parent_id": null,
      "population": 1300,
      "latitude": "45.33333000",
      "longitude": "24.60000000",
      "timezone": "Europe/Bucharest",
      "wikiDataId": "Q610233",
      "country_code": "RO",
      "state_code": "AG",
      "state_id": 4722,
      "country_id": 181
    },
    {
      "id": 89988,
      "name": "Argeșelu",
      "name_default": "Argeșelu",
      "native": "Argeni",
      "type": "city",
      "level": null,
      "parent_id": null,
      "population": 1501,
      "latitude": "44.92740000",
      "longitude": "24.87115000",
      "timezone": "Europe/Bucharest",
      "wikiDataId": "Q12078979",
      "country_code": "RO",
      "state_code": "AG",
      "state_id": 4722,
      "country_id": 181
    },
    {
      "id": 90467,
      "name": "Babana",
      "name_default": "Băbana",
      "native": "Băbana",
      "type": "adm2",
      "level": null,
      "parent_id": null,
      "population": 3210,
      "latitude": "44.90000000",
      "longitude": "24.70000000",
      "timezone": "Europe/Bucharest",
      "wikiDataId": "Q2348288",
      "country_code": "RO",
      "state_code": "AG",
      "state_id": 4722,
      "country_id": 181
    },
    {
      "id": 90483,
      "name": "Bădești",
      "name_default": "Bădești",
      "native": "Bădești",
      "type": "city",
      "level": null,
      "parent_id": null,
      "population": 1530,
      "latitude": "45.17157000",
      "longitude": "24.86064000",
      "timezone": "Europe/Bucharest",
      "wikiDataId": "Q12081470",
      "country_code": "RO",
      "state_code": "AG",
      "state_id": 4722,
      "country_id": 181
    },
    {
      "id": 90487,
      "name": "Băiculeşti",
      "name_default": "Băiculeşti",
      "native": "Băiculeşti",
      "type": "adm2",
      "level": null,
      "parent_id": null,
      "population": 5577,
      "latitude": "45.06667000",
      "longitude": "24.70000000",
      "timezone": "Europe/Bucharest",
      "wikiDataId": "Q1148364",
      "country_code": "RO",
      "state_code": "AG",
      "state_id": 4722,
      "country_id": 181
    },
    {
      "id": 90501,
      "name": "Băjești",
      "name_default": "Băjești",
      "native": "Băjești",
      "type": "city",
      "level": null,
      "parent_id": null,
      "population": 1260,
      "latitude": "45.02615000",
      "longitude": "24.94006000",
      "timezone": "Europe/Bucharest",
      "wikiDataId": "Q12081503",
      "country_code": "RO",
      "state_code": "AG",
      "state_id": 4722,
      "country_id": 181
    },
    {
      "id": 90512,
      "name": "Bălileşti",
      "name_default": "Bălileşti",
      "native": "Bălileşti",
      "type": "adm2",
      "level": null,
      "parent_id": null,
      "population": 3670,
      "latitude": "45.06667000",
      "longitude": "24.93333000",
      "timezone": "Europe/Bucharest",
      "wikiDataId": "Q2534288",
      "country_code": "RO",
      "state_code": "AG",
      "state_id": 4722,
      "country_id": 181
    },
    {
      "id": 90548,
      "name": "Bărăști",
      "name_default": "Bărăști",
      "native": "Bărăști",
      "type": "city",
      "level": null,
      "parent_id": null,
      "population": 1099,
      "latitude": "45.25369000",
      "longitude": "24.59651000",
      "timezone": "Europe/Bucharest",
      "wikiDataId": "Q12082271",
      "country_code": "RO",
      "state_code": "AG",
      "state_id": 4722,
      "country_id": 181
    },
    {
      "id": 90449,
      "name": "Bârla",
      "name_default": "Bârla",
      "native": "Primi",
      "type": "adm2",
      "level": null,
      "parent_id": null,
      "population": 5795,
      "latitude": "44.42606000",
      "longitude": "24.77743000",
      "timezone": "Europe/Bucharest",
      "wikiDataId": "Q2621227",
      "country_code": "RO",
      "state_code": "AG",
      "state_id": 4722,
      "country_id": 181
    },
    {
      "id": 90451,
      "name": "Bârlogu",
      "name_default": "Bârlogu",
      "native": "Clopot",
      "type": "city",
      "level": null,
      "parent_id": null,
      "population": 1193,
      "latitude": "44.62658000",
      "longitude": "25.08066000",
      "timezone": "Europe/Bucharest",
      "wikiDataId": "Q12082633",
      "country_code": "RO",
      "state_code": "AG",
      "state_id": 4722,
      "country_id": 181
    },
    {
      "id": 90073,
      "name": "Bascov",
      "name_default": "Başcov",
      "native": "Bașcov",
      "type": "adm2",
      "level": null,
      "parent_id": null,
      "population": 8759,
      "latitude": "44.90000000",
      "longitude": "24.81667000",
      "timezone": "Europe/Bucharest",
      "wikiDataId": "Q2484442",
      "country_code": "RO",
      "state_code": "AG",
      "state_id": 4722,
      "country_id": 181
    },
    {
      "id": 90086,
      "name": "Beleţi",
      "name_default": "Beleţi",
      "native": "Beleţi",
      "type": "city",
      "level": null,
      "parent_id": null,
      "population": 1974,
      "latitude": "44.90000000",
      "longitude": "25.08333000",
      "timezone": "Europe/Bucharest",
      "wikiDataId": "Q12081746",
      "country_code": "RO",
      "state_code": "AG",
      "state_id": 4722,
      "country_id": 181
    },
    {
      "id": 90102,
      "name": "Berevoeşti",
      "name_default": "Berevoeşti",
      "native": "Neîngrijit",
      "type": "adm2",
      "level": null,
      "parent_id": null,
      "population": 3385,
      "latitude": "45.23333000",
      "longitude": "24.91667000",
      "timezone": "Europe/Bucharest",
      "wikiDataId": "Q1896955",
      "country_code": "RO",
      "state_code": "AG",
      "state_id": 4722,
      "country_id": 181
    },
    {
      "id": 90185,
      "name": "Bogaţi",
      "name_default": "Bogaţi",
      "native": "Bogaţi",
      "type": "adm2",
      "level": null,
      "parent_id": null,
      "population": 4038,
      "latitude": "44.86667000",
      "longitude": "25.13333000",
      "timezone": "Europe/Bucharest",
      "wikiDataId": "Q2534330",
      "country_code": "RO",
      "state_code": "AG",
      "state_id": 4722,
      "country_id": 181
    },
    {
      "id": 90242,
      "name": "Boténi",
      "name_default": "Boteni",
      "native": "Boteni",
      "type": "adm2",
      "level": null,
      "parent_id": null,
      "population": 2733,
      "latitude": "45.18333000",
      "longitude": "25.11667000",
      "timezone": "Europe/Bucharest",
      "wikiDataId": "Q367260",
      "country_code": "RO",
      "state_code": "AG",
      "state_id": 4722,
      "country_id": 181
    },
    {
      "id": 90257,
      "name": "Boţeşti",
      "name_default": "Boţeşti",
      "native": "Boţeşti",
      "type": "adm2",
      "level": null,
      "parent_id": null,
      "population": 1330,
      "latitude": "45.01667000",
      "longitude": "25.13333000",
      "timezone": "Europe/Bucharest",
      "wikiDataId": "Q2534261",
      "country_code": "RO",
      "state_code": "AG",
      "state_id": 4722,
      "country_id": 181
    },
    {
      "id": 90262,
      "name": "Bradu",
      "name_default": "Bradu",
      "native": "Barbă",
      "type": "adm2",
      "level": null,
      "parent_id": null,
      "population": 629,
      "latitude": "44.78013920",
      "longitude": "24.89776120",
      "timezone": "Europe/Bucharest",
      "wikiDataId": "Q2348302",
      "country_code": "RO",
      "state_code": "AG",
      "state_id": 4722,
      "country_id": 181
    },
    {
      "id": 90326,
      "name": "Brăduleţ",
      "name_default": "Brăduleţ",
      "native": "Brăduleţ",
      "type": "adm2",
      "level": null,
      "parent_id": null,
      "population": 2130,
      "latitude": "45.28333000",
      "longitude": "24.76667000",
      "timezone": "Europe/Bucharest",
      "wikiDataId": "Q2534269",
      "country_code": "RO",
      "state_code": "AG",
      "state_id": 4722,
      "country_id": 181
    },
    {
      "id": 90367,
      "name": "Bucșenești",
      "name_default": "Bucșenești",
      "native": "Bucșenești",
      "type": "city",
      "level": null,
      "parent_id": null,
      "population": 1058,
      "latitude": "45.30096000",
      "longitude": "24.65841000",
      "timezone": "Europe/Bucharest",
      "wikiDataId": "Q12085542",
      "country_code": "RO",
      "state_code": "AG",
      "state_id": 4722,
      "country_id": 181
    },
    {
      "id": 90368,
      "name": "Bucșenești-Lotași",
      "name_default": "Bucșenești-Lotași",
      "native": "Bucșenești-Lotași",
      "type": "city",
      "level": null,
      "parent_id": null,
      "population": 1185,
      "latitude": "45.01307000",
      "longitude": "24.96845000",
      "timezone": "Europe/Bucharest",
      "wikiDataId": "Q12085544",
      "country_code": "RO",
      "state_code": "AG",
      "state_id": 4722,
      "country_id": 181
    },
    {
      "id": 90378,
      "name": "Budeasa Mică",
      "name_default": "Budeasa Mică",
      "native": "Budeasa Mică",
      "type": "city",
      "level": null,
      "parent_id": null,
      "population": 3789,
      "latitude": "44.95000000",
      "longitude": "24.85000000",
      "timezone": "Europe/Bucharest",
      "wikiDataId": "Q12085377",
      "country_code": "RO",
      "state_code": "AG",
      "state_id": 4722,
      "country_id": 181
    },
    {
      "id": 90392,
      "name": "Bughea de Jos",
      "name_default": "Bughea de Jos",
      "native": "Bughea de Jos",
      "type": "adm2",
      "level": null,
      "parent_id": null,
      "population": 2950,
      "latitude": "45.26667000",
      "longitude": "25.00000000",
      "timezone": "Europe/Bucharest",
      "wikiDataId": "Q948699",
      "country_code": "RO",
      "state_code": "AG",
      "state_id": 4722,
      "country_id": 181
    },
    {
      "id": 90394,
      "name": "Bughea de Sus",
      "name_default": "Bughea de Sus",
      "native": "Bughea de ea",
      "type": "adm2",
      "level": null,
      "parent_id": null,
      "population": 2966,
      "latitude": "45.29812320",
      "longitude": "25.03283540",
      "timezone": "Europe/Bucharest",
      "wikiDataId": "Q957334",
      "country_code": "RO",
      "state_code": "AG",
      "state_id": 4722,
      "country_id": 181
    },
    {
      "id": 90434,
      "name": "Buzoeşti",
      "name_default": "Buzoeşti",
      "native": "Buzoeşti",
      "type": "adm2",
      "level": null,
      "parent_id": null,
      "population": 5056,
      "latitude": "44.58333000",
      "longitude": "24.91667000",
      "timezone": "Europe/Bucharest",
      "wikiDataId": "Q1896983",
      "country_code": "RO",
      "state_code": "AG",
      "state_id": 4722,
      "country_id": 181
    },
    {
      "id": 93832,
      "name": "Căldăraru",
      "name_default": "Căldăraru",
      "native": "Căldăraru",
      "type": "adm2",
      "level": null,
      "parent_id": null,
      "population": 2975,
      "latitude": "44.45000000",
      "longitude": "24.95000000",
      "timezone": "Europe/Bucharest",
      "wikiDataId": "Q2534249",
      "country_code": "RO",
      "state_code": "AG",
      "state_id": 4722,
      "country_id": 181
    },
    {
      "id": 93838,
      "name": "Călineşti",
      "name_default": "Călineşti",
      "native": "Călineşti",
      "type": "adm2",
      "level": null,
      "parent_id": null,
      "population": 10419,
      "latitude": "44.81667000",
      "longitude": "25.05000000",
      "timezone": "Europe/Bucharest",
      "wikiDataId": "Q1151110",
      "country_code": "RO",
      "state_code": "AG",
      "state_id": 4722,
      "country_id": 181
    },
    {
      "id": 93800,
      "name": "Câmpulung",
      "name_default": "Câmpulung",
      "native": "Câmpulung",
      "type": "adm2",
      "level": null,
      "parent_id": null,
      "population": 0,
      "latitude": "45.26667000",
      "longitude": "25.05000000",
      "timezone": "Europe/Bucharest",
      "wikiDataId": "Q16898097",
      "country_code": "RO",
      "state_code": "AG",
      "state_id": 4722,
      "country_id": 181
    },
    {
      "id": 93864,
      "name": "Căpățânenii Pământeni",
      "name_default": "Căpățânenii Pământeni",
      "native": "Căpățânenii Pământeni",
      "type": "city",
      "level": null,
      "parent_id": null,
      "population": 544,
      "latitude": "45.31667000",
      "longitude": "24.65000000",
      "timezone": "Europe/Bucharest",
      "wikiDataId": "Q12109587",
      "country_code": "RO",
      "state_code": "AG",
      "state_id": 4722,
      "country_id": 181
    },
    {
      "id": 90571,
      "name": "Capu Piscului",
      "name_default": "Capu Piscului",
      "native": "Capu Piscului",
      "type": "city",
      "level": null,
      "parent_id": null,
      "population": 1139,
      "latitude": "45.17999000",
      "longitude": "24.97679000",
      "timezone": "Europe/Bucharest",
      "wikiDataId": "Q12108411",
      "country_code": "RO",
      "state_code": "AG",
      "state_id": 4722,
      "country_id": 181
    },
    {
      "id": 93876,
      "name": "Căteasca",
      "name_default": "Căteasca",
      "native": "Căteasca",
      "type": "adm2",
      "level": null,
      "parent_id": null,
      "population": 3716,
      "latitude": "44.76667000",
      "longitude": "25.08333000",
      "timezone": "Europe/Bucharest",
      "wikiDataId": "Q2348282",
      "country_code": "RO",
      "state_code": "AG",
      "state_id": 4722,
      "country_id": 181
    },
    {
      "id": 90617,
      "name": "Ceparii Pământeni",
      "name_default": "Ceparii Pământeni",
      "native": "Ceparii Pământeni",
      "type": "adm2",
      "level": null,
      "parent_id": null,
      "population": 494,
      "latitude": "45.21667000",
      "longitude": "24.56667000",
      "timezone": "Europe/Bucharest",
      "wikiDataId": "Q12169533",
      "country_code": "RO",
      "state_code": "AG",
      "state_id": 4722,
      "country_id": 181
    },
    {
      "id": 90650,
      "name": "Cetăţeni",
      "name_default": "Cetăţeni",
      "native": "Cetăţeni",
      "type": "adm2",
      "level": null,
      "parent_id": null,
      "population": 2732,
      "latitude": "45.20000000",
      "longitude": "25.18333000",
      "timezone": "Europe/Bucharest",
      "wikiDataId": "Q2534279",
      "country_code": "RO",
      "state_code": "AG",
      "state_id": 4722,
      "country_id": 181
    },
    {
      "id": 90699,
      "name": "Cicănești",
      "name_default": "Cicănești",
      "native": "Cicănești",
      "type": "adm2",
      "level": null,
      "parent_id": null,
      "population": 506,
      "latitude": "45.24601000",
      "longitude": "24.60526000",
      "timezone": "Europe/Bucharest",
      "wikiDataId": "Q2534337",
      "country_code": "RO",
      "state_code": "AG",
      "state_id": 4722,
      "country_id": 181
    },
    {
      "id": 90718,
      "name": "Ciofrângeni",
      "name_default": "Ciofrângeni",
      "native": "Ciofrângeni",
      "type": "adm2",
      "level": null,
      "parent_id": null,
      "population": 2643,
      "latitude": "45.08333000",
      "longitude": "24.53333000",
      "timezone": "Europe/Bucharest",
      "wikiDataId": "Q2348382",
      "country_code": "RO",
      "state_code": "AG",
      "state_id": 4722,
      "country_id": 181
    },
    {
      "id": 90721,
      "name": "Ciomăgeşti",
      "name_default": "Ciomăgeşti",
      "native": "Ciomăgeşti",
      "type": "adm2",
      "level": null,
      "parent_id": null,
      "population": 1362,
      "latitude": "44.83333000",
      "longitude": "24.45000000",
      "timezone": "Europe/Bucharest",
      "wikiDataId": "Q2535277",
      "country_code": "RO",
      "state_code": "AG",
      "state_id": 4722,
      "country_id": 181
    },
    {
      "id": 90748,
      "name": "Ciulnița",
      "name_default": "Ciulnița",
      "native": "Ciulnița",
      "type": "city",
      "level": null,
      "parent_id": null,
      "population": 1049,
      "latitude": "44.78769000",
      "longitude": "25.15388000",
      "timezone": "Europe/Bucharest",
      "wikiDataId": "Q12170775",
      "country_code": "RO",
      "state_code": "AG",
      "state_id": 4722,
      "country_id": 181
    },
    {
      "id": 90784,
      "name": "Cocu",
      "name_default": "Cocu",
      "native": "Cocu",
      "type": "adm2",
      "level": null,
      "parent_id": null,
      "population": 2662,
      "latitude": "44.86667000",
      "longitude": "24.65000000",
      "timezone": "Europe/Bucharest",
      "wikiDataId": "Q2534627",
      "country_code": "RO",
      "state_code": "AG",
      "state_id": 4722,
      "country_id": 181
    },
    {
      "id": 90796,
      "name": "Colibași",
      "name_default": "Colibași",
      "native": "Colibași",
      "type": "city",
      "level": null,
      "parent_id": null,
      "population": 1928,
      "latitude": "44.93544000",
      "longitude": "24.90905000",
      "timezone": "Europe/Bucharest",
      "wikiDataId": "Q12111861",
      "country_code": "RO",
      "state_code": "AG",
      "state_id": 4722,
      "country_id": 181
    },
    {
      "id": 90845,
      "name": "Comuna Albeștii de Muscel",
      "name_default": "Comuna Albeștii de Muscel",
      "native": "Comuna Albeștii de Muscel",
      "type": "adm2",
      "level": null,
      "parent_id": null,
      "population": null,
      "latitude": "45.31667000",
      "longitude": "25.00000000",
      "timezone": "Europe/Bucharest",
      "wikiDataId": "Q1884138",
      "country_code": "RO",
      "state_code": "AG",
      "state_id": 4722,
      "country_id": 181
    },
    {
      "id": 90846,
      "name": "Comuna Albota",
      "name_default": "Comuna Albota",
      "native": "Comuna Albota",
      "type": "city",
      "level": null,
      "parent_id": null,
      "population": null,
      "latitude": "44.78287000",
      "longitude": "24.81838000",
      "timezone": "Europe/Bucharest",
      "wikiDataId": "Q12724500",
      "country_code": "RO",
      "state_code": "AG",
      "state_id": 4722,
      "country_id": 181
    },
    {
      "id": 90872,
      "name": "Comuna Aninoasa",
      "name_default": "Comuna Aninoasa",
      "native": "Comuna Aninoasa",
      "type": "adm2",
      "level": null,
      "parent_id": null,
      "population": null,
      "latitude": "45.20222000",
      "longitude": "24.91206000",
      "timezone": "Europe/Bucharest",
      "wikiDataId": "Q2218703",
      "country_code": "RO",
      "state_code": "AG",
      "state_id": 4722,
      "country_id": 181
    },
    {
      "id": 90888,
      "name": "Comuna Arefu",
      "name_default": "Comuna Arefu",
      "native": "Comuna Arefu",
      "type": "city",
      "level": null,
      "parent_id": null,
      "population": null,
      "latitude": "45.33142000",
      "longitude": "24.62944000",
      "timezone": "Europe/Bucharest",
      "wikiDataId": "Q12724513",
      "country_code": "RO",
      "state_code": "AG",
      "state_id": 4722,
      "country_id": 181
    },
    {
      "id": 91199,
      "name": "Comuna Băbana",
      "name_default": "Comuna Băbana",
      "native": "Comuna Băbana",
      "type": "adm2",
      "level": null,
      "parent_id": null,
      "population": null,
      "latitude": "44.87539000",
      "longitude": "24.71918000",
      "timezone": "Europe/Bucharest",
      "wikiDataId": "Q16425440",
      "country_code": "RO",
      "state_code": "AG",
      "state_id": 4722,
      "country_id": 181
    },
    {
      "id": 91206,
      "name": "Comuna Băiculeşti",
      "name_default": "Comuna Băiculeşti",
      "native": "Comuna Băiculeşti",
      "type": "adm2",
      "level": null,
      "parent_id": null,
      "population": 32178,
      "latitude": "45.06017000",
      "longitude": "24.67331000",
      "timezone": "Europe/Bucharest",
      "wikiDataId": "Q4799044",
      "country_code": "RO",
      "state_code": "AG",
      "state_id": 4722,
      "country_id": 181
    },
    {
      "id": 91217,
      "name": "Comuna Bălileşti",
      "name_default": "Comuna Bălileşti",
      "native": "Comuna Bălileşti",
      "type": "city",
      "level": null,
      "parent_id": null,
      "population": 1260,
      "latitude": "45.07981000",
      "longitude": "24.93943000",
      "timezone": "Europe/Bucharest",
      "wikiDataId": "Q1896963",
      "country_code": "RO",
      "state_code": "AG",
      "state_id": 4722,
      "country_id": 181
    },
    {
      "id": 91188,
      "name": "Comuna Bârla",
      "name_default": "Comuna Bârla",
      "native": "Comuna Bârla",
      "type": "city",
      "level": null,
      "parent_id": null,
      "population": 850,
      "latitude": "44.42636000",
      "longitude": "24.77949000",
      "timezone": "Europe/Bucharest",
      "wikiDataId": "Q16425457",
      "country_code": "RO",
      "state_code": "AG",
      "state_id": 4722,
      "country_id": 181
    },
    {
      "id": 90942,
      "name": "Comuna Başcov",
      "name_default": "Comuna Başcov",
      "native": "Comuna Başcov",
      "type": "city",
      "level": null,
      "parent_id": null,
      "population": 812,
      "latitude": "44.89295000",
      "longitude": "24.78532000",
      "timezone": "Europe/Bucharest",
      "wikiDataId": "Q5067012",
      "country_code": "RO",
      "state_code": "AG",
      "state_id": 4722,
      "country_id": 181
    },
    {
      "id": 90951,
      "name": "Comuna Beleţi-Negreşti",
      "name_default": "Comuna Beleţi-Negreşti",
      "native": "Comuna Beleţi-Negreşti",
      "type": "city",
      "level": null,
      "parent_id": null,
      "population": null,
      "latitude": "44.94651000",
      "longitude": "25.08603000",
      "timezone": "Europe/Bucharest",
      "wikiDataId": "Q1896908",
      "country_code": "RO",
      "state_code": "AG",
      "state_id": 4722,
      "country_id": 181
    },
    {
      "id": 90963,
      "name": "Comuna Berevoeşti",
      "name_default": "Comuna Berevoeşti",
      "native": "Comuna Berevoeşti",
      "type": "city",
      "level": null,
      "parent_id": null,
      "population": null,
      "latitude": "45.25327000",
      "longitude": "24.94292000",
      "timezone": "Europe/Bucharest",
      "wikiDataId": "Q12724537",
      "country_code": "RO",
      "state_code": "AG",
      "state_id": 4722,
      "country_id": 181
    },
    {
      "id": 91020,
      "name": "Comuna Bogaţi",
      "name_default": "Comuna Bogaţi",
      "native": "Comuna Bogaţi",
      "type": "adm2",
      "level": null,
      "parent_id": null,
      "population": null,
      "latitude": "44.87344000",
      "longitude": "25.15045000",
      "timezone": "Europe/Bucharest",
      "wikiDataId": "Q1884147",
      "country_code": "RO",
      "state_code": "AG",
      "state_id": 4722,
      "country_id": 181
    },
    {
      "id": 91059,
      "name": "Comuna Boteni",
      "name_default": "Comuna Boteni",
      "native": "Comuna Boteni",
      "type": "city",
      "level": null,
      "parent_id": null,
      "population": null,
      "latitude": "45.17937000",
      "longitude": "25.13073000",
      "timezone": "Europe/Bucharest",
      "wikiDataId": "Q16054846",
      "country_code": "RO",
      "state_code": "AG",
      "state_id": 4722,
      "country_id": 181
    },
    {
      "id": 91071,
      "name": "Comuna Boţeşti",
      "name_default": "Comuna Boţeşti",
      "native": "Comuna Boţeşti",
      "type": "adm2",
      "level": null,
      "parent_id": null,
      "population": null,
      "latitude": "45.00704000",
      "longitude": "25.14723000",
      "timezone": "Europe/Bucharest",
      "wikiDataId": "Q3396080",
      "country_code": "RO",
      "state_code": "AG",
      "state_id": 4722,
      "country_id": 181
    },
    {
      "id": 91115,
      "name": "Comuna Brăduleţ",
      "name_default": "Comuna Brăduleţ",
      "native": "Comuna Brăduleţ",
      "type": "adm2",
      "level": null,
      "parent_id": null,
      "population": null,
      "latitude": "45.27502000",
      "longitude": "24.77372000",
      "timezone": "Europe/Bucharest",
      "wikiDataId": "Q1896240",
      "country_code": "RO",
      "state_code": "AG",
      "state_id": 4722,
      "country_id": 181
    },
    {
      "id": 91144,
      "name": "Comuna Budeasa",
      "name_default": "Comuna Budeasa",
      "native": "Comuna Budeasa",
      "type": "city",
      "level": null,
      "parent_id": null,
      "population": null,
      "latitude": "44.95042000",
      "longitude": "24.80254000",
      "timezone": "Europe/Bucharest",
      "wikiDataId": "Q2348374",
      "country_code": "RO",
      "state_code": "AG",
      "state_id": 4722,
      "country_id": 181
    },
    {
      "id": 91152,
      "name": "Comuna Bughea de Jos",
      "name_default": "Comuna Bughea de Jos",
      "native": "Comuna Bughea de Jos",
      "type": "adm2",
      "level": null,
      "parent_id": null,
      "population": null,
      "latitude": "45.27404000",
      "longitude": "25.00324000",
      "timezone": "Europe/Bucharest",
      "wikiDataId": "Q1884111",
      "country_code": "RO",
      "state_code": "AG",
      "state_id": 4722,
      "country_id": 181
    },
    {
      "id": 91180,
      "name": "Comuna Buzoeşti",
      "name_default": "Comuna Buzoeşti",
      "native": "Comuna Buzoeşti",
      "type": "adm2",
      "level": null,
      "parent_id": null,
      "population": 6281,
      "latitude": "44.60205000",
      "longitude": "24.91856000",
      "timezone": "Europe/Bucharest",
      "wikiDataId": "Q12724602",
      "country_code": "RO",
      "state_code": "AG",
      "state_id": 4722,
      "country_id": 181
    },
    {
      "id": 91570,
      "name": "Comuna Căldăraru",
      "name_default": "Comuna Căldăraru",
      "native": "Comuna Căldăraru",
      "type": "adm2",
      "level": null,
      "parent_id": null,
      "population": null,
      "latitude": "44.45395000",
      "longitude": "24.94263000",
      "timezone": "Europe/Bucharest",
      "wikiDataId": "Q1896973",
      "country_code": "RO",
      "state_code": "AG",
      "state_id": 4722,
      "country_id": 181
    },
    {
      "id": 91572,
      "name": "Comuna Călineşti",
      "name_default": "Comuna Călineşti",
      "native": "Comuna Călineşti",
      "type": "city",
      "level": null,
      "parent_id": null,
      "population": null,
      "latitude": "44.85650000",
      "longitude": "25.01968000",
      "timezone": "Europe/Bucharest",
      "wikiDataId": "Q12724704",
      "country_code": "RO",
      "state_code": "AG",
      "state_id": 4722,
      "country_id": 181
    },
    {
      "id": 91592,
      "name": "Comuna Căteasca",
      "name_default": "Comuna Căteasca",
      "native": "Comuna Căteasca",
      "type": "city",
      "level": null,
      "parent_id": null,
      "population": 709,
      "latitude": "44.77056000",
      "longitude": "25.03633000",
      "timezone": "Europe/Bucharest",
      "wikiDataId": "Q16425471",
      "country_code": "RO",
      "state_code": "AG",
      "state_id": 4722,
      "country_id": 181
    },
    {
      "id": 91283,
      "name": "Comuna Cepari",
      "name_default": "Comuna Cepari",
      "native": "Comuna Cepari",
      "type": "city",
      "level": null,
      "parent_id": null,
      "population": null,
      "latitude": "45.20564000",
      "longitude": "24.53064000",
      "timezone": "Europe/Bucharest",
      "wikiDataId": "Q2296559",
      "country_code": "RO",
      "state_code": "AG",
      "state_id": 4722,
      "country_id": 181
    },
    {
      "id": 91306,
      "name": "Comuna Cetăţeni",
      "name_default": "Comuna Cetăţeni",
      "native": "Comuna Cetăţeni",
      "type": "city",
      "level": null,
      "parent_id": null,
      "population": null,
      "latitude": "45.19234000",
      "longitude": "25.20789000",
      "timezone": "Europe/Bucharest",
      "wikiDataId": "Q1884119",
      "country_code": "RO",
      "state_code": "AG",
      "state_id": 4722,
      "country_id": 181
    },
    {
      "id": 91335,
      "name": "Comuna Cicănești",
      "name_default": "Comuna Cicănești",
      "native": "Comuna Cicănești",
      "type": "adm2",
      "level": null,
      "parent_id": null,
      "population": 506,
      "latitude": "45.24577000",
      "longitude": "24.60629000",
      "timezone": "Europe/Bucharest",
      "wikiDataId": "Q1884129",
      "country_code": "RO",
      "state_code": "AG",
      "state_id": 4722,
      "country_id": 181
    },
    {
      "id": 91348,
      "name": "Comuna Ciofrângeni",
      "name_default": "Comuna Ciofrângeni",
      "native": "Comuna Ciofrângeni",
      "type": "city",
      "level": null,
      "parent_id": null,
      "population": null,
      "latitude": "45.10277000",
      "longitude": "24.53704000",
      "timezone": "Europe/Bucharest",
      "wikiDataId": "Q12724643",
      "country_code": "RO",
      "state_code": "AG",
      "state_id": 4722,
      "country_id": 181
    },
    {
      "id": 91352,
      "name": "Comuna Ciomăgeşti",
      "name_default": "Comuna Ciomăgeşti",
      "native": "Comuna Ciomăgeşti",
      "type": "city",
      "level": null,
      "parent_id": null,
      "population": null,
      "latitude": "44.85656000",
      "longitude": "24.47229000",
      "timezone": "Europe/Bucharest",
      "wikiDataId": "Q2219209",
      "country_code": "RO",
      "state_code": "AG",
      "state_id": 4722,
      "country_id": 181
    },
    {
      "id": 91391,
      "name": "Comuna Cocu",
      "name_default": "Comuna Cocu",
      "native": "Comuna Cocu",
      "type": "adm2",
      "level": null,
      "parent_id": null,
      "population": 2662,
      "latitude": "44.87429000",
      "longitude": "24.65112000",
      "timezone": "Europe/Bucharest",
      "wikiDataId": "Q3407517",
      "country_code": "RO",
      "state_code": "AG",
      "state_id": 4722,
      "country_id": 181
    },
    {
      "id": 91424,
      "name": "Comuna Corbeni",
      "name_default": "Comuna Corbeni",
      "native": "Comuna Corbeni",
      "type": "city",
      "level": null,
      "parent_id": null,
      "population": null,
      "latitude": "45.29597000",
      "longitude": "24.66207000",
      "timezone": "Europe/Bucharest",
      "wikiDataId": "Q10260525",
      "country_code": "RO",
      "state_code": "AG",
      "state_id": 4722,
      "country_id": 181
    },
    {
      "id": 91425,
      "name": "Comuna Corbi",
      "name_default": "Comuna Corbi",
      "native": "Comuna Corbi",
      "type": "city",
      "level": null,
      "parent_id": null,
      "population": null,
      "latitude": "45.25572000",
      "longitude": "24.81611000",
      "timezone": "Europe/Bucharest",
      "wikiDataId": "Q12724664",
      "country_code": "RO",
      "state_code": "AG",
      "state_id": 4722,
      "country_id": 181
    },
    {
      "id": 91475,
      "name": "Comuna Coşeşti",
      "name_default": "Comuna Coşeşti",
      "native": "Comuna Coşeşti",
      "type": "adm2",
      "level": null,
      "parent_id": null,
      "population": null,
      "latitude": "45.06431000",
      "longitude": "24.87202000",
      "timezone": "Europe/Bucharest",
      "wikiDataId": "Q12724673",
      "country_code": "RO",
      "state_code": "AG",
      "state_id": 4722,
      "country_id": 181
    },
    {
      "id": 91465,
      "name": "Comuna Cotmeana",
      "name_default": "Comuna Cotmeana",
      "native": "Comuna Cotmeana",
      "type": "adm2",
      "level": null,
      "parent_id": null,
      "population": null,
      "latitude": "45.00518000",
      "longitude": "24.62021000",
      "timezone": "Europe/Bucharest",
      "wikiDataId": "Q5056506",
      "country_code": "RO",
      "state_code": "AG",
      "state_id": 4722,
      "country_id": 181
    },
    {
      "id": 91518,
      "name": "Comuna Cuca",
      "name_default": "Comuna Cuca",
      "native": "Comuna Cuca",
      "type": "adm2",
      "level": null,
      "parent_id": null,
      "population": null,
      "latitude": "44.95654000",
      "longitude": "24.50636000",
      "timezone": "Europe/Bucharest",
      "wikiDataId": "Q1656374",
      "country_code": "RO",
      "state_code": "AG",
      "state_id": 4722,
      "country_id": 181
    },
    {
      "id": 91726,
      "name": "Comuna Dâmbovicioara",
      "name_default": "Comuna Dâmbovicioara",
      "native": "Comuna Dâmbovicioara",
      "type": "adm2",
      "level": null,
      "parent_id": null,
      "population": null,
      "latitude": "45.43452000",
      "longitude": "25.22737000",
      "timezone": "Europe/Bucharest",
      "wikiDataId": "Q16425485",
      "country_code": "RO",
      "state_code": "AG",
      "state_id": 4722,
      "country_id": 181
    },
    {
      "id": 91743,
      "name": "Comuna Dărmăneşti",
      "name_default": "Comuna Dărmăneşti",
      "native": "Comuna Dărmăneşti",
      "type": "adm2",
      "level": null,
      "parent_id": null,
      "population": null,
      "latitude": "45.00656000",
      "longitude": "24.90224000",
      "timezone": "Europe/Bucharest",
      "wikiDataId": "Q10753856",
      "country_code": "RO",
      "state_code": "AG",
      "state_id": 4722,
      "country_id": 181
    },
    {
      "id": 91606,
      "name": "Comuna Davideşti",
      "name_default": "Comuna Davideşti",
      "native": "Comuna Davideşti",
      "type": "adm2",
      "level": null,
      "parent_id": null,
      "population": null,
      "latitude": "45.00694000",
      "longitude": "25.03599000",
      "timezone": "Europe/Bucharest",
      "wikiDataId": "Q1884092",
      "country_code": "RO",
      "state_code": "AG",
      "state_id": 4722,
      "country_id": 181
    },
    {
      "id": 91637,
      "name": "Comuna Dobreşti",
      "name_default": "Comuna Dobreşti",
      "native": "Comuna Dobreşti",
      "type": "city",
      "level": null,
      "parent_id": null,
      "population": null,
      "latitude": "44.94992000",
      "longitude": "25.11907000",
      "timezone": "Europe/Bucharest",
      "wikiDataId": "Q3396053",
      "country_code": "RO",
      "state_code": "AG",
      "state_id": 4722,
      "country_id": 181
    },
    {
      "id": 91659,
      "name": "Comuna Domneşti",
      "name_default": "Comuna Domneşti",
      "native": "Comuna Domneşti",
      "type": "city",
      "level": null,
      "parent_id": null,
      "population": 1860,
      "latitude": "45.20562000",
      "longitude": "24.83945000",
      "timezone": "Europe/Bucharest",
      "wikiDataId": "Q12724732",
      "country_code": "RO",
      "state_code": "AG",
      "state_id": 4722,
      "country_id": 181
    },
    {
      "id": 91686,
      "name": "Comuna Drăganu",
      "name_default": "Comuna Drăganu",
      "native": "Comuna Drăganu",
      "type": "city",
      "level": null,
      "parent_id": null,
      "population": null,
      "latitude": "44.93761000",
      "longitude": "24.70301000",
      "timezone": "Europe/Bucharest",
      "wikiDataId": "Q2534730",
      "country_code": "RO",
      "state_code": "AG",
      "state_id": 4722,
      "country_id": 181
    },
    {
      "id": 91676,
      "name": "Comuna Dragoslavele",
      "name_default": "Comuna Dragoslavele",
      "native": "Comuna Dragoslavele",
      "type": "city",
      "level": null,
      "parent_id": null,
      "population": 2474,
      "latitude": "45.33451000",
      "longitude": "25.17010000",
      "timezone": "Europe/Bucharest",
      "wikiDataId": "Q12724737",
      "country_code": "RO",
      "state_code": "AG",
      "state_id": 4722,
      "country_id": 181
    },
    {
      "id": 91888,
      "name": "Comuna Godeni",
      "name_default": "Comuna Godeni",
      "native": "Comuna Godeni",
      "type": "adm2",
      "level": null,
      "parent_id": null,
      "population": null,
      "latitude": "45.22311000",
      "longitude": "24.97842000",
      "timezone": "Europe/Bucharest",
      "wikiDataId": "Q2348455",
      "country_code": "RO",
      "state_code": "AG",
      "state_id": 4722,
      "country_id": 181
    },
    {
      "id": 92032,
      "name": "Comuna Hârseşti",
      "name_default": "Comuna Hârseşti",
      "native": "Comuna Hârseşti",
      "type": "adm2",
      "level": null,
      "parent_id": null,
      "population": 2841,
      "latitude": "44.51091000",
      "longitude": "24.78294000",
      "timezone": "Europe/Bucharest",
      "wikiDataId": "Q12724860",
      "country_code": "RO",
      "state_code": "AG",
      "state_id": 4722,
      "country_id": 181
    },
    {
      "id": 92033,
      "name": "Comuna Hârtieşti",
      "name_default": "Comuna Hârtieşti",
      "native": "Comuna Hârtieşti",
      "type": "adm2",
      "level": null,
      "parent_id": null,
      "population": null,
      "latitude": "45.12629000",
      "longitude": "25.11343000",
      "timezone": "Europe/Bucharest",
      "wikiDataId": "Q12724861",
      "country_code": "RO",
      "state_code": "AG",
      "state_id": 4722,
      "country_id": 181
    },
    {
      "id": 92152,
      "name": "Comuna Leordeni",
      "name_default": "Comuna Leordeni",
      "native": "Comuna Leordeni",
      "type": "city",
      "level": null,
      "parent_id": null,
      "population": 1062,
      "latitude": "44.79117000",
      "longitude": "25.16299000",
      "timezone": "Europe/Bucharest",
      "wikiDataId": "Q12724899",
      "country_code": "RO",
      "state_code": "AG",
      "state_id": 4722,
      "country_id": 181
    },
    {
      "id": 92154,
      "name": "Comuna Lereşti",
      "name_default": "Comuna Lereşti",
      "native": "Comuna Lereşti",
      "type": "adm2",
      "level": null,
      "parent_id": null,
      "population": null,
      "latitude": "45.32789000",
      "longitude": "25.06951000",
      "timezone": "Europe/Bucharest",
      "wikiDataId": "Q5067938",
      "country_code": "RO",
      "state_code": "AG",
      "state_id": 4722,
      "country_id": 181
    },
    {
      "id": 92203,
      "name": "Comuna Lunca Corbului",
      "name_default": "Comuna Lunca Corbului",
      "native": "Comuna Lunca Corbului",
      "type": "adm2",
      "level": null,
      "parent_id": null,
      "population": 3350,
      "latitude": "44.68361000",
      "longitude": "24.76056000",
      "timezone": "Europe/Bucharest",
      "wikiDataId": "Q12724909",
      "country_code": "RO",
      "state_code": "AG",
      "state_id": 4722,
      "country_id": 181
    },
    {
      "id": 92399,
      "name": "Comuna Mălureni",
      "name_default": "Comuna Mălureni",
      "native": "Comuna Mălureni",
      "type": "city",
      "level": null,
      "parent_id": null,
      "population": null,
      "latitude": "45.04780000",
      "longitude": "24.77875000",
      "timezone": "Europe/Bucharest",
      "wikiDataId": "Q5067074",
      "country_code": "RO",
      "state_code": "AG",
      "state_id": 4722,
      "country_id": 181
    },
    {
      "id": 92416,
      "name": "Comuna Mărăcineni",
      "name_default": "Comuna Mărăcineni",
      "native": "Comuna Mărăcineni",
      "type": "adm2",
      "level": null,
      "parent_id": null,
      "population": null,
      "latitude": "44.90857000",
      "longitude": "24.87484000",
      "timezone": "Europe/Bucharest",
      "wikiDataId": "Q12724981",
      "country_code": "RO",
      "state_code": "AG",
      "state_id": 4722,
      "country_id": 181
    },
    {
      "id": 92261,
      "name": "Comuna Merișani",
      "name_default": "Comuna Merișani",
      "native": "Comuna Merișani",
      "type": "adm2",
      "level": null,
      "parent_id": null,
      "population": 4390,
      "latitude": "44.96674000",
      "longitude": "24.74482000",
      "timezone": "Europe/Bucharest",
      "wikiDataId": "Q16425499",
      "country_code": "RO",
      "state_code": "AG",
      "state_id": 4722,
      "country_id": 181
    },
    {
      "id": 92264,
      "name": "Comuna Miceşti",
      "name_default": "Comuna Miceşti",
      "native": "Comuna Miceşti",
      "type": "city",
      "level": null,
      "parent_id": null,
      "population": null,
      "latitude": "44.97367000",
      "longitude": "24.85577000",
      "timezone": "Europe/Bucharest",
      "wikiDataId": "Q12724930",
      "country_code": "RO",
      "state_code": "AG",
      "state_id": 4722,
      "country_id": 181
    },
    {
      "id": 92281,
      "name": "Comuna Mihăeşti",
      "name_default": "Comuna Mihăeşti",
      "native": "Comuna Mihăeşti",
      "type": "adm2",
      "level": null,
      "parent_id": null,
      "population": null,
      "latitude": "45.11563000",
      "longitude": "25.01938000",
      "timezone": "Europe/Bucharest",
      "wikiDataId": "Q3407585",
      "country_code": "RO",
      "state_code": "AG",
      "state_id": 4722,
      "country_id": 181
    },
    {
      "id": 92294,
      "name": "Comuna Mioarele",
      "name_default": "Comuna Mioarele",
      "native": "Comuna Mioarele",
      "type": "city",
      "level": null,
      "parent_id": null,
      "population": null,
      "latitude": "45.23396000",
      "longitude": "25.10045000",
      "timezone": "Europe/Bucharest",
      "wikiDataId": "Q2348270",
      "country_code": "RO",
      "state_code": "AG",
      "state_id": 4722,
      "country_id": 181
    },
    {
      "id": 92302,
      "name": "Comuna Miroşi",
      "name_default": "Comuna Miroşi",
      "native": "Comuna Miroşi",
      "type": "adm2",
      "level": null,
      "parent_id": null,
      "population": null,
      "latitude": "44.40316000",
      "longitude": "24.95170000",
      "timezone": "Europe/Bucharest",
      "wikiDataId": "Q1896939",
      "country_code": "RO",
      "state_code": "AG",
      "state_id": 4722,
      "country_id": 181
    },
    {
      "id": 92335,
      "name": "Comuna Morărești",
      "name_default": "Comuna Morărești",
      "native": "Comuna Morărești",
      "type": "adm2",
      "level": null,
      "parent_id": null,
      "population": null,
      "latitude": "45.00760000",
      "longitude": "24.56079000",
      "timezone": "Europe/Bucharest",
      "wikiDataId": "Q1896993",
      "country_code": "RO",
      "state_code": "AG",
      "state_id": 4722,
      "country_id": 181
    },
    {
      "id": 92349,
      "name": "Comuna Moşoaia",
      "name_default": "Comuna Moşoaia",
      "native": "Comuna Moşoaia",
      "type": "city",
      "level": null,
      "parent_id": null,
      "population": null,
      "latitude": "44.83013000",
      "longitude": "24.79957000",
      "timezone": "Europe/Bucharest",
      "wikiDataId": "Q1884103",
      "country_code": "RO",
      "state_code": "AG",
      "state_id": 4722,
      "country_id": 181
    },
    {
      "id": 92345,
      "name": "Comuna Mozăceni",
      "name_default": "Comuna Mozăceni",
      "native": "Comuna Mozăceni",
      "type": "adm2",
      "level": null,
      "parent_id": null,
      "population": null,
      "latitude": "44.56366000",
      "longitude": "25.17492000",
      "timezone": "Europe/Bucharest",
      "wikiDataId": "Q12724953",
      "country_code": "RO",
      "state_code": "AG",
      "state_id": 4722,
      "country_id": 181
    },
    {
      "id": 92365,
      "name": "Comuna Mușătești",
      "name_default": "Comuna Mușătești",
      "native": "Comuna Mușătești",
      "type": "adm2",
      "level": null,
      "parent_id": null,
      "population": null,
      "latitude": "45.21667000",
      "longitude": "24.78333000",
      "timezone": "Europe/Bucharest",
      "wikiDataId": "Q1896335",
      "country_code": "RO",
      "state_code": "AG",
      "state_id": 4722,
      "country_id": 181
    },
    {
      "id": 92430,
      "name": "Comuna Negraşi",
      "name_default": "Comuna Negraşi",
      "native": "Comuna Negraşi",
      "type": "adm2",
      "level": null,
      "parent_id": null,
      "population": null,
      "latitude": "44.61441000",
      "longitude": "25.12404000",
      "timezone": "Europe/Bucharest",
      "wikiDataId": "Q1896314",
      "country_code": "RO",
      "state_code": "AG",
      "state_id": 4722,
      "country_id": 181
    },
    {
      "id": 92456,
      "name": "Comuna Nucşoara",
      "name_default": "Comuna Nucşoara",
      "native": "Comuna Nucşoara",
      "type": "adm2",
      "level": null,
      "parent_id": null,
      "population": null,
      "latitude": "45.33798000",
      "longitude": "24.78943000",
      "timezone": "Europe/Bucharest",
      "wikiDataId": "Q1465932",
      "country_code": "RO",
      "state_code": "AG",
      "state_id": 4722,
      "country_id": 181
    },
    {
      "id": 92468,
      "name": "Comuna Oarja",
      "name_default": "Comuna Oarja",
      "native": "Comuna Oarja",
      "type": "adm2",
      "level": null,
      "parent_id": null,
      "population": null,
      "latitude": "44.75730000",
      "longitude": "24.96935000",
      "timezone": "Europe/Bucharest",
      "wikiDataId": "Q16425518",
      "country_code": "RO",
      "state_code": "AG",
      "state_id": 4722,
      "country_id": 181
    },
    {
      "id": 92582,
      "name": "Comuna Pietroşani",
      "name_default": "Comuna Pietroşani",
      "native": "Comuna Pietroşani",
      "type": "city",
      "level": null,
      "parent_id": null,
      "population": null,
      "latitude": "45.15375000",
      "longitude": "24.84439000",
      "timezone": "Europe/Bucharest",
      "wikiDataId": "Q3396126",
      "country_code": "RO",
      "state_code": "AG",
      "state_id": 4722,
      "country_id": 181
    },
    {
      "id": 92628,
      "name": "Comuna Poiana Lacului",
      "name_default": "Comuna Poiana Lacului",
      "native": "Comuna Poiana Lacului",
      "type": "city",
      "level": null,
      "parent_id": null,
      "population": null,
      "latitude": "44.81199000",
      "longitude": "24.71296000",
      "timezone": "Europe/Bucharest",
      "wikiDataId": "Q16425522",
      "country_code": "RO",
      "state_code": "AG",
      "state_id": 4722,
      "country_id": 181
    },
    {
      "id": 92637,
      "name": "Comuna Poienarii de Argeş",
      "name_default": "Comuna Poienarii de Argeş",
      "native": "Comuna Poienarii de Argeş",
      "type": "adm2",
      "level": null,
      "parent_id": null,
      "population": null,
      "latitude": "45.06667000",
      "longitude": "24.53333000",
      "timezone": "Europe/Bucharest",
      "wikiDataId": "Q1896924",
      "country_code": "RO",
      "state_code": "AG",
      "state_id": 4722,
      "country_id": 181
    },
    {
      "id": 92652,
      "name": "Comuna Popeşti",
      "name_default": "Comuna Popeşti",
      "native": "Comuna Popeşti",
      "type": "adm2",
      "level": null,
      "parent_id": null,
      "population": null,
      "latitude": "44.44521000",
      "longitude": "25.09114000",
      "timezone": "Europe/Bucharest",
      "wikiDataId": "Q3407579",
      "country_code": "RO",
      "state_code": "AG",
      "state_id": 4722,
      "country_id": 181
    },
    {
      "id": 92673,
      "name": "Comuna Priboieni",
      "name_default": "Comuna Priboieni",
      "native": "Comuna Priboieni",
      "type": "city",
      "level": null,
      "parent_id": null,
      "population": 526,
      "latitude": "44.87728000",
      "longitude": "25.08680000",
      "timezone": "Europe/Bucharest",
      "wikiDataId": "Q12725060",
      "country_code": "RO",
      "state_code": "AG",
      "state_id": 4722,
      "country_id": 181
    },
    {
      "id": 92819,
      "name": "Comuna Râca",
      "name_default": "Comuna Râca",
      "native": "Comuna Râca",
      "type": "adm2",
      "level": null,
      "parent_id": null,
      "population": null,
      "latitude": "44.44216000",
      "longitude": "25.03671000",
      "timezone": "Europe/Bucharest",
      "wikiDataId": "Q12725103",
      "country_code": "RO",
      "state_code": "AG",
      "state_id": 4722,
      "country_id": 181
    },
    {
      "id": 92851,
      "name": "Comuna Răteşti",
      "name_default": "Comuna Răteşti",
      "native": "Comuna Răteşti",
      "type": "city",
      "level": null,
      "parent_id": null,
      "population": null,
      "latitude": "44.71690000",
      "longitude": "25.15858000",
      "timezone": "Europe/Bucharest",
      "wikiDataId": "Q16425526",
      "country_code": "RO",
      "state_code": "AG",
      "state_id": 4722,
      "country_id": 181
    },
    {
      "id": 92755,
      "name": "Comuna Recea",
      "name_default": "Comuna Recea",
      "native": "Comuna Recea",
      "type": "adm2",
      "level": null,
      "parent_id": null,
      "population": null,
      "latitude": "44.54264000",
      "longitude": "25.02738000",
      "timezone": "Europe/Bucharest",
      "wikiDataId": "Q12725084",
      "country_code": "RO",
      "state_code": "AG",
      "state_id": 4722,
      "country_id": 181
    },
    {
      "id": 92776,
      "name": "Comuna Rociu",
      "name_default": "Comuna Rociu",
      "native": "Comuna Rociu",
      "type": "adm2",
      "level": null,
      "parent_id": null,
      "population": null,
      "latitude": "44.66838000",
      "longitude": "25.02014000",
      "timezone": "Europe/Bucharest",
      "wikiDataId": "Q12725087",
      "country_code": "RO",
      "state_code": "AG",
      "state_id": 4722,
      "country_id": 181
    },
    {
      "id": 92806,
      "name": "Comuna Rucăr",
      "name_default": "Comuna Rucăr",
      "native": "Comuna Rucăr",
      "type": "adm2",
      "level": null,
      "parent_id": null,
      "population": null,
      "latitude": "45.41607000",
      "longitude": "25.17338000",
      "timezone": "Europe/Bucharest",
      "wikiDataId": "Q16425532",
      "country_code": "RO",
      "state_code": "AG",
      "state_id": 4722,
      "country_id": 181
    },
    {
      "id": 93100,
      "name": "Comuna Sălătrucu",
      "name_default": "Comuna Sălătrucu",
      "native": "Comuna Sălătrucu",
      "type": "adm2",
      "level": null,
      "parent_id": null,
      "population": null,
      "latitude": "45.29098000",
      "longitude": "24.52523000",
      "timezone": "Europe/Bucharest",
      "wikiDataId": "Q2486715",
      "country_code": "RO",
      "state_code": "AG",
      "state_id": 4722,
      "country_id": 181
    },
    {
      "id": 93104,
      "name": "Comuna Săpata",
      "name_default": "Comuna Săpata",
      "native": "Comuna Săpata",
      "type": "city",
      "level": null,
      "parent_id": null,
      "population": null,
      "latitude": "44.72789000",
      "longitude": "24.75280000",
      "timezone": "Europe/Bucharest",
      "wikiDataId": "Q2534347",
      "country_code": "RO",
      "state_code": "AG",
      "state_id": 4722,
      "country_id": 181
    },
    {
      "id": 92890,
      "name": "Comuna Schitu-Goleşti",
      "name_default": "Comuna Schitu-Goleşti",
      "native": "Comuna Schitu-Goleşti",
      "type": "adm2",
      "level": null,
      "parent_id": null,
      "population": null,
      "latitude": "45.18630000",
      "longitude": "25.00576000",
      "timezone": "Europe/Bucharest",
      "wikiDataId": "Q2542469",
      "country_code": "RO",
      "state_code": "AG",
      "state_id": 4722,
      "country_id": 181
    },
    {
      "id": 92954,
      "name": "Comuna Slobozia",
      "name_default": "Comuna Slobozia",
      "native": "Comuna Slobozia",
      "type": "adm2",
      "level": null,
      "parent_id": null,
      "population": 5045,
      "latitude": "44.52197000",
      "longitude": "25.24092000",
      "timezone": "Europe/Bucharest",
      "wikiDataId": "Q3407918",
      "country_code": "RO",
      "state_code": "AG",
      "state_id": 4722,
      "country_id": 181
    },
    {
      "id": 93012,
      "name": "Comuna Stâlpeni",
      "name_default": "Comuna Stâlpeni",
      "native": "Comuna Stâlpeni",
      "type": "city",
      "level": null,
      "parent_id": null,
      "population": null,
      "latitude": "45.05665000",
      "longitude": "24.99307000",
      "timezone": "Europe/Bucharest",
      "wikiDataId": "Q2486575",
      "country_code": "RO",
      "state_code": "AG",
      "state_id": 4722,
      "country_id": 181
    },
    {
      "id": 93550,
      "name": "Comuna Ştefan cel Mare",
      "name_default": "Comuna Ştefan cel Mare",
      "native": "Comuna Ştefan cel Mare",
      "type": "adm2",
      "level": null,
      "parent_id": null,
      "population": null,
      "latitude": "44.49197000",
      "longitude": "25.24710000",
      "timezone": "Europe/Bucharest",
      "wikiDataId": "Q3407066",
      "country_code": "RO",
      "state_code": "AG",
      "state_id": 4722,
      "country_id": 181
    },
    {
      "id": 92992,
      "name": "Comuna Stoeneşti",
      "name_default": "Comuna Stoeneşti",
      "native": "Comuna Stoeneşti",
      "type": "adm2",
      "level": null,
      "parent_id": null,
      "population": null,
      "latitude": "45.26432000",
      "longitude": "25.17674000",
      "timezone": "Europe/Bucharest",
      "wikiDataId": "Q16425539",
      "country_code": "RO",
      "state_code": "AG",
      "state_id": 4722,
      "country_id": 181
    },
    {
      "id": 92999,
      "name": "Comuna Stolnici",
      "name_default": "Comuna Stolnici",
      "native": "Comuna Stolnici",
      "type": "city",
      "level": null,
      "parent_id": null,
      "population": null,
      "latitude": "44.58075000",
      "longitude": "24.77335000",
      "timezone": "Europe/Bucharest",
      "wikiDataId": "Q12725158",
      "country_code": "RO",
      "state_code": "AG",
      "state_id": 4722,
      "country_id": 181
    },
    {
      "id": 93559,
      "name": "Comuna Şuici",
      "name_default": "Comuna Şuici",
      "native": "Comuna Şuici",
      "type": "adm2",
      "level": null,
      "parent_id": null,
      "population": null,
      "latitude": "45.24454000",
      "longitude": "24.53621000",
      "timezone": "Europe/Bucharest",
      "wikiDataId": "Q12725311",
      "country_code": "RO",
      "state_code": "AG",
      "state_id": 4722,
      "country_id": 181
    },
    {
      "id": 93041,
      "name": "Comuna Suseni",
      "name_default": "Comuna Suseni",
      "native": "Comuna Suseni",
      "type": "adm2",
      "level": null,
      "parent_id": null,
      "population": null,
      "latitude": "44.70861000",
      "longitude": "24.96437000",
      "timezone": "Europe/Bucharest",
      "wikiDataId": "Q16425543",
      "country_code": "RO",
      "state_code": "AG",
      "state_id": 4722,
      "country_id": 181
    },
    {
      "id": 93133,
      "name": "Comuna Teiu",
      "name_default": "Comuna Teiu",
      "native": "Comuna Teiu",
      "type": "city",
      "level": null,
      "parent_id": null,
      "population": null,
      "latitude": "44.64225000",
      "longitude": "25.14110000",
      "timezone": "Europe/Bucharest",
      "wikiDataId": "Q12725201",
      "country_code": "RO",
      "state_code": "AG",
      "state_id": 4722,
      "country_id": 181
    },
    {
      "id": 93151,
      "name": "Comuna Tigveni",
      "name_default": "Comuna Tigveni",
      "native": "Comuna Tigveni",
      "type": "city",
      "level": null,
      "parent_id": null,
      "population": 937,
      "latitude": "45.15588000",
      "longitude": "24.55094000",
      "timezone": "Europe/Bucharest",
      "wikiDataId": "Q12725206",
      "country_code": "RO",
      "state_code": "AG",
      "state_id": 4722,
      "country_id": 181
    },
    {
      "id": 93580,
      "name": "Comuna Țițești",
      "name_default": "Comuna Țițești",
      "native": "Comuna Țițești",
      "type": "city",
      "level": null,
      "parent_id": null,
      "population": null,
      "latitude": "45.01146000",
      "longitude": "24.97898000",
      "timezone": "Europe/Bucharest",
      "wikiDataId": "Q2626031",
      "country_code": "RO",
      "state_code": "AG",
      "state_id": 4722,
      "country_id": 181
    },
    {
      "id": 93252,
      "name": "Comuna Uda",
      "name_default": "Comuna Uda",
      "native": "Comuna Uda",
      "type": "adm2",
      "level": null,
      "parent_id": null,
      "population": null,
      "latitude": "44.87591000",
      "longitude": "24.58582000",
      "timezone": "Europe/Bucharest",
      "wikiDataId": "Q3407533",
      "country_code": "RO",
      "state_code": "AG",
      "state_id": 4722,
      "country_id": 181
    },
    {
      "id": 93267,
      "name": "Comuna Ungheni",
      "name_default": "Comuna Ungheni",
      "native": "Comuna Ungheni",
      "type": "adm2",
      "level": null,
      "parent_id": null,
      "population": 2975,
      "latitude": "44.51166000",
      "longitude": "24.95186000",
      "timezone": "Europe/Bucharest",
      "wikiDataId": "Q16425550",
      "country_code": "RO",
      "state_code": "AG",
      "state_id": 4722,
      "country_id": 181
    },
    {
      "id": 93303,
      "name": "Comuna Valea Danului",
      "name_default": "Comuna Valea Danului",
      "native": "Comuna Valea Danului",
      "type": "city",
      "level": null,
      "parent_id": null,
      "population": null,
      "latitude": "45.18962000",
      "longitude": "24.61959000",
      "timezone": "Europe/Bucharest",
      "wikiDataId": "Q12725248",
      "country_code": "RO",
      "state_code": "AG",
      "state_id": 4722,
      "country_id": 181
    },
    {
      "id": 93306,
      "name": "Comuna Valea Iaşului",
      "name_default": "Comuna Valea Iaşului",
      "native": "Comuna Valea Iaşului",
      "type": "adm2",
      "level": null,
      "parent_id": null,
      "population": null,
      "latitude": "45.19677000",
      "longitude": "24.70094000",
      "timezone": "Europe/Bucharest",
      "wikiDataId": "Q2535319",
      "country_code": "RO",
      "state_code": "AG",
      "state_id": 4722,
      "country_id": 181
    },
    {
      "id": 93315,
      "name": "Comuna Valea Mare-Pravăţ",
      "name_default": "Comuna Valea Mare-Pravăţ",
      "native": "Comuna Valea Mare-Pravăţ",
      "type": "adm2",
      "level": null,
      "parent_id": null,
      "population": null,
      "latitude": "45.28900000",
      "longitude": "25.10567000",
      "timezone": "Europe/Bucharest",
      "wikiDataId": "Q1583490",
      "country_code": "RO",
      "state_code": "AG",
      "state_id": 4722,
      "country_id": 181
    },
    {
      "id": 93338,
      "name": "Comuna Vedea",
      "name_default": "Comuna Vedea",
      "native": "Comuna Vedea",
      "type": "adm2",
      "level": null,
      "parent_id": null,
      "population": null,
      "latitude": "44.77735000",
      "longitude": "24.64677000",
      "timezone": "Europe/Bucharest",
      "wikiDataId": "Q3407888",
      "country_code": "RO",
      "state_code": "AG",
      "state_id": 4722,
      "country_id": 181
    },
    {
      "id": 93391,
      "name": "Comuna Vlădeşti",
      "name_default": "Comuna Vlădeşti",
      "native": "Comuna Vlădeşti",
      "type": "adm2",
      "level": null,
      "parent_id": null,
      "population": null,
      "latitude": "45.14344000",
      "longitude": "24.93634000",
      "timezone": "Europe/Bucharest",
      "wikiDataId": "Q3407060",
      "country_code": "RO",
      "state_code": "AG",
      "state_id": 4722,
      "country_id": 181
    },
    {
      "id": 93418,
      "name": "Comuna Vultureşti",
      "name_default": "Comuna Vultureşti",
      "native": "Comuna Vultureşti",
      "type": "adm2",
      "level": null,
      "parent_id": null,
      "population": null,
      "latitude": "45.05999000",
      "longitude": "25.07370000",
      "timezone": "Europe/Bucharest",
      "wikiDataId": "Q3407011",
      "country_code": "RO",
      "state_code": "AG",
      "state_id": 4722,
      "country_id": 181
    },
    {
      "id": 93598,
      "name": "Conțești",
      "name_default": "Conțești",
      "native": "Conțești",
      "type": "city",
      "level": null,
      "parent_id": null,
      "population": 1464,
      "latitude": "44.98494000",
      "longitude": "25.01032000",
      "timezone": "Europe/Bucharest",
      "wikiDataId": "Q12112601",
      "country_code": "RO",
      "state_code": "AG",
      "state_id": 4722,
      "country_id": 181
    },
    {
      "id": 93613,
      "name": "Corbeni",
      "name_default": "Corbeni",
      "native": "Corbeni",
      "type": "adm2",
      "level": null,
      "parent_id": null,
      "population": 5613,
      "latitude": "45.30000000",
      "longitude": "24.65000000",
      "timezone": "Europe/Bucharest",
      "wikiDataId": "Q12112749",
      "country_code": "RO",
      "state_code": "AG",
      "state_id": 4722,
      "country_id": 181
    },
    {
      "id": 93614,
      "name": "Corbeau",
      "name_default": "Corbi",
      "native": "Corbi",
      "type": "adm2",
      "level": null,
      "parent_id": null,
      "population": 4381,
      "latitude": "45.28333000",
      "longitude": "24.80000000",
      "timezone": "Europe/Bucharest",
      "wikiDataId": "Q1021784",
      "country_code": "RO",
      "state_code": "AG",
      "state_id": 4722,
      "country_id": 181
    },
    {
      "id": 93644,
      "name": "Cornățel",
      "name_default": "Cornățel",
      "native": "Cornățel",
      "type": "city",
      "level": null,
      "parent_id": null,
      "population": 1112,
      "latitude": "44.57972000",
      "longitude": "24.95487000",
      "timezone": "Europe/Bucharest",
      "wikiDataId": "Q12112994",
      "country_code": "RO",
      "state_code": "AG",
      "state_id": 4722,
      "country_id": 181
    },
    {
      "id": 93691,
      "name": "Coşeşti",
      "name_default": "Coşeşti",
      "native": "Coşeşti",
      "type": "adm2",
      "level": null,
      "parent_id": null,
      "population": 5046,
      "latitude": "45.06667000",
      "longitude": "24.86667000",
      "timezone": "Europe/Bucharest",
      "wikiDataId": "Q2348340",
      "country_code": "RO",
      "state_code": "AG",
      "state_id": 4722,
      "country_id": 181
    },
    {
      "id": 93661,
      "name": "Costeşti",
      "name_default": "Costeşti",
      "native": "Costeşti",
      "type": "adm2",
      "level": null,
      "parent_id": null,
      "population": 145,
      "latitude": "44.66202330",
      "longitude": "24.87701020",
      "timezone": "Europe/Bucharest",
      "wikiDataId": "Q16898099",
      "country_code": "RO",
      "state_code": "AG",
      "state_id": 4722,
      "country_id": 181
    },
    {
      "id": 93673,
      "name": "Cotenești",
      "name_default": "Cotenești",
      "native": "Cotenești",
      "type": "city",
      "level": null,
      "parent_id": null,
      "population": 1103,
      "latitude": "45.23462000",
      "longitude": "25.18617000",
      "timezone": "Europe/Bucharest",
      "wikiDataId": "Q12113737",
      "country_code": "RO",
      "state_code": "AG",
      "state_id": 4722,
      "country_id": 181
    },
    {
      "id": 93675,
      "name": "Cotmeana",
      "name_default": "Cotmeana",
      "native": "Cotmeana",
      "type": "adm2",
      "level": null,
      "parent_id": null,
      "population": 1849,
      "latitude": "44.96667000",
      "longitude": "24.61667000",
      "timezone": "Europe/Bucharest",
      "wikiDataId": "Q2296594",
      "country_code": "RO",
      "state_code": "AG",
      "state_id": 4722,
      "country_id": 181
    },
    {
      "id": 93757,
      "name": "Cuca",
      "name_default": "Cuca",
      "native": "Cuca",
      "type": "adm2",
      "level": null,
      "parent_id": null,
      "population": 2315,
      "latitude": "44.95000000",
      "longitude": "24.51667000",
      "timezone": "Europe/Bucharest",
      "wikiDataId": "Q2542336",
      "country_code": "RO",
      "state_code": "AG",
      "state_id": 4722,
      "country_id": 181
    },
    {
      "id": 93774,
      "name": "Curtea de Argeş",
      "name_default": "Curtea de Argeş",
      "native": "Curtea de Argeş",
      "type": "adm2",
      "level": null,
      "parent_id": null,
      "population": 25977,
      "latitude": "45.13422000",
      "longitude": "24.67409000",
      "timezone": "Europe/Bucharest",
      "wikiDataId": "Q1122300",
      "country_code": "RO",
      "state_code": "AG",
      "state_id": 4722,
      "country_id": 181
    },
    {
      "id": 94105,
      "name": "Dâmbovicioara",
      "name_default": "Dâmbovicioara",
      "native": "Dâmbovicioara",
      "type": "adm2",
      "level": null,
      "parent_id": null,
      "population": 1043,
      "latitude": "45.45000000",
      "longitude": "25.23333000",
      "timezone": "Europe/Bucharest",
      "wikiDataId": "Q2348441",
      "country_code": "RO",
      "state_code": "AG",
      "state_id": 4722,
      "country_id": 181
    },
    {
      "id": 94133,
      "name": "Dărmăneşti",
      "name_default": "Dărmăneşti",
      "native": "Dărmăneşti",
      "type": "adm2",
      "level": null,
      "parent_id": null,
      "population": 4433,
      "latitude": "45.01667000",
      "longitude": "24.90000000",
      "timezone": "Europe/Bucharest",
      "wikiDataId": "Q3394124",
      "country_code": "RO",
      "state_code": "AG",
      "state_id": 4722,
      "country_id": 181
    },
    {
      "id": 93898,
      "name": "Davidești",
      "name_default": "Davideşti",
      "native": "Davideşti",
      "type": "adm2",
      "level": null,
      "parent_id": null,
      "population": 2816,
      "latitude": "45.01667000",
      "longitude": "25.03333000",
      "timezone": "Europe/Bucharest",
      "wikiDataId": "Q520152",
      "country_code": "RO",
      "state_code": "AG",
      "state_id": 4722,
      "country_id": 181
    },
    {
      "id": 93955,
      "name": "Dobreşti",
      "name_default": "Dobreşti",
      "native": "Dobreşti",
      "type": "adm2",
      "level": null,
      "parent_id": null,
      "population": 1650,
      "latitude": "44.96667000",
      "longitude": "25.13333000",
      "timezone": "Europe/Bucharest",
      "wikiDataId": "Q2534740",
      "country_code": "RO",
      "state_code": "AG",
      "state_id": 4722,
      "country_id": 181
    },
    {
      "id": 93968,
      "name": "Dobrotu",
      "name_default": "Dobrotu",
      "native": "Bunătate",
      "type": "city",
      "level": null,
      "parent_id": null,
      "population": 828,
      "latitude": "45.20633000",
      "longitude": "24.65859000",
      "timezone": "Europe/Bucharest",
      "wikiDataId": "Q12101550",
      "country_code": "RO",
      "state_code": "AG",
      "state_id": 4722,
      "country_id": 181
    },
    {
      "id": 93989,
      "name": "Domneşti",
      "name_default": "Domneşti",
      "native": "Domneşti",
      "type": "adm2",
      "level": null,
      "parent_id": null,
      "population": 3142,
      "latitude": "45.20000000",
      "longitude": "24.83333000",
      "timezone": "Europe/Bucharest",
      "wikiDataId": "Q2348407",
      "country_code": "RO",
      "state_code": "AG",
      "state_id": 4722,
      "country_id": 181
    },
    {
      "id": 94036,
      "name": "Drăganu-Olteni",
      "name_default": "Drăganu-Olteni",
      "native": "Drăganu-Olteni",
      "type": "city",
      "level": null,
      "parent_id": null,
      "population": 1962,
      "latitude": "44.93333000",
      "longitude": "24.71667000",
      "timezone": "Europe/Bucharest",
      "wikiDataId": "Q12102354",
      "country_code": "RO",
      "state_code": "AG",
      "state_id": 4722,
      "country_id": 181
    },
    {
      "id": 94039,
      "name": "Drăghici",
      "name_default": "Drăghici",
      "native": "Drăghici",
      "type": "city",
      "level": null,
      "parent_id": null,
      "population": 1184,
      "latitude": "45.12865000",
      "longitude": "25.04508000",
      "timezone": "Europe/Bucharest",
      "wikiDataId": "Q12102394",
      "country_code": "RO",
      "state_code": "AG",
      "state_id": 4722,
      "country_id": 181
    },
    {
      "id": 94021,
      "name": "Dragoslavele",
      "name_default": "Dragoslavele",
      "native": "Dragoslavele",
      "type": "city",
      "level": null,
      "parent_id": null,
      "population": 2474,
      "latitude": "45.34801000",
      "longitude": "25.16925000",
      "timezone": "Europe/Bucharest",
      "wikiDataId": "Q2089614",
      "country_code": "RO",
      "state_code": "AG",
      "state_id": 4722,
      "country_id": 181
    },
    {
      "id": 94254,
      "name": "Făgetu",
      "name_default": "Făgetu",
      "native": "Făgetu",
      "type": "city",
      "level": null,
      "parent_id": null,
      "population": 926,
      "latitude": "44.90616000",
      "longitude": "24.91159000",
      "timezone": "Europe/Bucharest",
      "wikiDataId": "Q12165384",
      "country_code": "RO",
      "state_code": "AG",
      "state_id": 4722,
      "country_id": 181
    },
    {
      "id": 94508,
      "name": "Gălășești",
      "name_default": "Gălășești",
      "native": "Gălășești",
      "type": "city",
      "level": null,
      "parent_id": null,
      "population": 966,
      "latitude": "44.95593000",
      "longitude": "24.78602000",
      "timezone": "Europe/Bucharest",
      "wikiDataId": "Q12094585",
      "country_code": "RO",
      "state_code": "AG",
      "state_id": 4722,
      "country_id": 181
    },
    {
      "id": 94286,
      "name": "Geamăna",
      "name_default": "Geamăna",
      "native": "Geamăna",
      "type": "city",
      "level": null,
      "parent_id": null,
      "population": 1306,
      "latitude": "44.82005000",
      "longitude": "24.89109000",
      "timezone": "Europe/Bucharest",
      "wikiDataId": "Q1029287",
      "country_code": "RO",
      "state_code": "AG",
      "state_id": 4722,
      "country_id": 181
    },
    {
      "id": 94368,
      "name": "Godeni",
      "name_default": "Godeni",
      "native": "Godeni",
      "type": "adm2",
      "level": null,
      "parent_id": null,
      "population": 3333,
      "latitude": "45.23333000",
      "longitude": "24.98333000",
      "timezone": "Europe/Bucharest",
      "wikiDataId": "Q12096413",
      "country_code": "RO",
      "state_code": "AG",
      "state_id": 4722,
      "country_id": 181
    },
    {
      "id": 94378,
      "name": "Golești",
      "name_default": "Golești",
      "native": "Golești",
      "type": "city",
      "level": null,
      "parent_id": null,
      "population": 1073,
      "latitude": "44.83970000",
      "longitude": "24.96530000",
      "timezone": "Europe/Bucharest",
      "wikiDataId": "Q12096479",
      "country_code": "RO",
      "state_code": "AG",
      "state_id": 4722,
      "country_id": 181
    },
    {
      "id": 94384,
      "name": "Gorganu",
      "name_default": "Gorganu",
      "native": "Gorganu",
      "type": "city",
      "level": null,
      "parent_id": null,
      "population": 975,
      "latitude": "44.84241000",
      "longitude": "25.03838000",
      "timezone": "Europe/Bucharest",
      "wikiDataId": "Q12096907",
      "country_code": "RO",
      "state_code": "AG",
      "state_id": 4722,
      "country_id": 181
    },
    {
      "id": 94589,
      "name": "Hârseşti",
      "name_default": "Hârseşti",
      "native": "Hârseşti",
      "type": "adm2",
      "level": null,
      "parent_id": null,
      "population": 2841,
      "latitude": "44.53333000",
      "longitude": "24.78333000",
      "timezone": "Europe/Bucharest",
      "wikiDataId": "Q1035798",
      "country_code": "RO",
      "state_code": "AG",
      "state_id": 4722,
      "country_id": 181
    },
    {
      "id": 94590,
      "name": "Hârtieşti",
      "name_default": "Hârtieşti",
      "native": "Hârtieşti",
      "type": "adm2",
      "level": null,
      "parent_id": null,
      "population": 4913,
      "latitude": "45.11667000",
      "longitude": "25.10000000",
      "timezone": "Europe/Bucharest",
      "wikiDataId": "Q2486688",
      "country_code": "RO",
      "state_code": "AG",
      "state_id": 4722,
      "country_id": 181
    },
    {
      "id": 94575,
      "name": "Humele",
      "name_default": "Humele",
      "native": "Este rănit",
      "type": "city",
      "level": null,
      "parent_id": null,
      "population": 1077,
      "latitude": "44.52612000",
      "longitude": "24.97714000",
      "timezone": "Europe/Bucharest",
      "wikiDataId": "Q12168014",
      "country_code": "RO",
      "state_code": "AG",
      "state_id": 4722,
      "country_id": 181
    },
    {
      "id": 94715,
      "name": "Izvoru",
      "name_default": "Izvoru",
      "native": "Sursă",
      "type": "adm2",
      "level": null,
      "parent_id": null,
      "population": 2940,
      "latitude": "44.49413770",
      "longitude": "25.06470300",
      "timezone": "Europe/Bucharest",
      "wikiDataId": "Q2534649",
      "country_code": "RO",
      "state_code": "AG",
      "state_id": 4722,
      "country_id": 181
    },
    {
      "id": 94720,
      "name": "Izvoru de Sus",
      "name_default": "Izvoru de Sus",
      "native": "Izvoru de Sus",
      "type": "city",
      "level": null,
      "parent_id": null,
      "population": 2641,
      "latitude": "44.81667000",
      "longitude": "24.65000000",
      "timezone": "Europe/Bucharest",
      "wikiDataId": "Q12074045",
      "country_code": "RO",
      "state_code": "AG",
      "state_id": 4722,
      "country_id": 181
    },
    {
      "id": 94750,
      "name": "Jugur",
      "name_default": "Jugur",
      "native": "Jugur",
      "type": "city",
      "level": null,
      "parent_id": null,
      "population": 1345,
      "latitude": "45.19255000",
      "longitude": "25.08493000",
      "timezone": "Europe/Bucharest",
      "wikiDataId": "Q12104795",
      "country_code": "RO",
      "state_code": "AG",
      "state_id": 4722,
      "country_id": 181
    },
    {
      "id": 94754,
      "name": "Jupânești",
      "name_default": "Jupânești",
      "native": "Jupânești",
      "type": "city",
      "level": null,
      "parent_id": null,
      "population": 1123,
      "latitude": "45.06667000",
      "longitude": "24.85000000",
      "timezone": "Europe/Bucharest",
      "wikiDataId": "Q12104862",
      "country_code": "RO",
      "state_code": "AG",
      "state_id": 4722,
      "country_id": 181
    },
    {
      "id": 94902,
      "name": "Lăzărești",
      "name_default": "Lăzărești",
      "native": "Lăzărești",
      "type": "city",
      "level": null,
      "parent_id": null,
      "population": 2067,
      "latitude": "45.15659000",
      "longitude": "24.99540000",
      "timezone": "Europe/Bucharest",
      "wikiDataId": "Q12117500",
      "country_code": "RO",
      "state_code": "AG",
      "state_id": 4722,
      "country_id": 181
    },
    {
      "id": 94771,
      "name": "Leicester",
      "name_default": "Leicești",
      "native": "Leicești",
      "type": "city",
      "level": null,
      "parent_id": null,
      "population": 845,
      "latitude": "45.09586000",
      "longitude": "24.86108000",
      "timezone": "Europe/Bucharest",
      "wikiDataId": "Q12117525",
      "country_code": "RO",
      "state_code": "AG",
      "state_id": 4722,
      "country_id": 181
    },
    {
      "id": 94779,
      "name": "Léordeni",
      "name_default": "Leordeni",
      "native": "Leordeni",
      "type": "adm2",
      "level": null,
      "parent_id": null,
      "population": 5169,
      "latitude": "44.78333000",
      "longitude": "25.11667000",
      "timezone": "Europe/Bucharest",
      "wikiDataId": "Q2296585",
      "country_code": "RO",
      "state_code": "AG",
      "state_id": 4722,
      "country_id": 181
    },
    {
      "id": 94781,
      "name": "Lereşti",
      "name_default": "Lereşti",
      "native": "Lereşti",
      "type": "adm2",
      "level": null,
      "parent_id": null,
      "population": 4124,
      "latitude": "45.33333000",
      "longitude": "25.06667000",
      "timezone": "Europe/Bucharest",
      "wikiDataId": "Q2348314",
      "country_code": "RO",
      "state_code": "AG",
      "state_id": 4722,
      "country_id": 181
    },
    {
      "id": 94818,
      "name": "Livezeni",
      "name_default": "Livezeni",
      "native": "Livezeni",
      "type": "city",
      "level": null,
      "parent_id": null,
      "population": 1370,
      "latitude": "45.03838000",
      "longitude": "24.97676000",
      "timezone": "Europe/Bucharest",
      "wikiDataId": "Q12119555",
      "country_code": "RO",
      "state_code": "AG",
      "state_id": 4722,
      "country_id": 181
    },
    {
      "id": 94864,
      "name": "Lunca Corbului",
      "name_default": "Lunca Corbului",
      "native": "Lunca Corbului",
      "type": "adm2",
      "level": null,
      "parent_id": null,
      "population": 3350,
      "latitude": "44.68391000",
      "longitude": "24.75855000",
      "timezone": "Europe/Bucharest",
      "wikiDataId": "Q2348396",
      "country_code": "RO",
      "state_code": "AG",
      "state_id": 4722,
      "country_id": 181
    },
    {
      "id": 95254,
      "name": "Mălureni",
      "name_default": "Mălureni",
      "native": "Mălureni",
      "type": "adm2",
      "level": null,
      "parent_id": null,
      "population": 4469,
      "latitude": "45.10000000",
      "longitude": "24.80000000",
      "timezone": "Europe/Bucharest",
      "wikiDataId": "Q2348328",
      "country_code": "RO",
      "state_code": "AG",
      "state_id": 4722,
      "country_id": 181
    },
    {
      "id": 95284,
      "name": "Mărăcineni",
      "name_default": "Mărăcineni",
      "native": "Mărăcineni",
      "type": "adm2",
      "level": null,
      "parent_id": null,
      "population": 4468,
      "latitude": "44.90000000",
      "longitude": "24.88333000",
      "timezone": "Europe/Bucharest",
      "wikiDataId": "Q3396114",
      "country_code": "RO",
      "state_code": "AG",
      "state_id": 4722,
      "country_id": 181
    },
    {
      "id": 94926,
      "name": "Mareș",
      "name_default": "Mareș",
      "native": "Mareș",
      "type": "city",
      "level": null,
      "parent_id": null,
      "population": 911,
      "latitude": "44.77824000",
      "longitude": "24.79005000",
      "timezone": "Europe/Bucharest",
      "wikiDataId": "Q12121338",
      "country_code": "RO",
      "state_code": "AG",
      "state_id": 4722,
      "country_id": 181
    },
    {
      "id": 95224,
      "name": "Mârţeşti",
      "name_default": "Mârţeşti",
      "native": "Mârţeşti",
      "type": "adm2",
      "level": null,
      "parent_id": null,
      "population": 0,
      "latitude": "44.71667000",
      "longitude": "24.75000000",
      "timezone": "Europe/Bucharest",
      "wikiDataId": "Q12123562",
      "country_code": "RO",
      "state_code": "AG",
      "state_id": 4722,
      "country_id": 181
    },
    {
      "id": 95295,
      "name": "Mățău",
      "name_default": "Mățău",
      "native": "Mățău",
      "type": "city",
      "level": null,
      "parent_id": null,
      "population": 1105,
      "latitude": "45.23565000",
      "longitude": "25.08286000",
      "timezone": "Europe/Bucharest",
      "wikiDataId": "Q12123146",
      "country_code": "RO",
      "state_code": "AG",
      "state_id": 4722,
      "country_id": 181
    },
    {
      "id": 94959,
      "name": "Merişani",
      "name_default": "Merişani",
      "native": "Merişani",
      "type": "adm2",
      "level": null,
      "parent_id": null,
      "population": 4510,
      "latitude": "44.96820000",
      "longitude": "24.74327000",
      "timezone": "Europe/Bucharest",
      "wikiDataId": "Q1896266",
      "country_code": "RO",
      "state_code": "AG",
      "state_id": 4722,
      "country_id": 181
    },
    {
      "id": 94965,
      "name": "Miceşti",
      "name_default": "Miceşti",
      "native": "Miceşti",
      "type": "adm2",
      "level": null,
      "parent_id": null,
      "population": 4061,
      "latitude": "44.95000000",
      "longitude": "24.86667000",
      "timezone": "Europe/Bucharest",
      "wikiDataId": "Q1896287",
      "country_code": "RO",
      "state_code": "AG",
      "state_id": 4722,
      "country_id": 181
    },
    {
      "id": 94988,
      "name": "Mihăești",
      "name_default": "Mihăeşti",
      "native": "Mihăeşti",
      "type": "adm2",
      "level": null,
      "parent_id": null,
      "population": 5726,
      "latitude": "45.11667000",
      "longitude": "25.00000000",
      "timezone": "Europe/Bucharest",
      "wikiDataId": "Q2534239",
      "country_code": "RO",
      "state_code": "AG",
      "state_id": 4722,
      "country_id": 181
    },
    {
      "id": 95011,
      "name": "Mioveni",
      "name_default": "Mioveni",
      "native": "Mioveni",
      "type": "adm2",
      "level": null,
      "parent_id": null,
      "population": 29317,
      "latitude": "44.95905000",
      "longitude": "24.94198000",
      "timezone": "Europe/Bucharest",
      "wikiDataId": "Q12131535",
      "country_code": "RO",
      "state_code": "AG",
      "state_id": 4722,
      "country_id": 181
    },
    {
      "id": 95024,
      "name": "Miroşi",
      "name_default": "Miroşi",
      "native": "Miroşi",
      "type": "adm2",
      "level": null,
      "parent_id": null,
      "population": 2789,
      "latitude": "44.41667000",
      "longitude": "24.93333000",
      "timezone": "Europe/Bucharest",
      "wikiDataId": "Q2534621",
      "country_code": "RO",
      "state_code": "AG",
      "state_id": 4722,
      "country_id": 181
    },
    {
      "id": 95075,
      "name": "Morărești",
      "name_default": "Morăreşti",
      "native": "Morăreşti",
      "type": "adm2",
      "level": null,
      "parent_id": null,
      "population": 2201,
      "latitude": "45.01667000",
      "longitude": "24.56667000",
      "timezone": "Europe/Bucharest",
      "wikiDataId": "Q2534711",
      "country_code": "RO",
      "state_code": "AG",
      "state_id": 4722,
      "country_id": 181
    },
    {
      "id": 95091,
      "name": "Mosoaia",
      "name_default": "Moşoaia",
      "native": "Mo Moa",
      "type": "adm2",
      "level": null,
      "parent_id": null,
      "population": 4267,
      "latitude": "44.81667000",
      "longitude": "24.76667000",
      "timezone": "Europe/Bucharest",
      "wikiDataId": "Q2534770",
      "country_code": "RO",
      "state_code": "AG",
      "state_id": 4722,
      "country_id": 181
    },
    {
      "id": 95087,
      "name": "Mozăceni",
      "name_default": "Mozăceni",
      "native": "Mozăceni",
      "type": "adm2",
      "level": null,
      "parent_id": null,
      "population": 2684,
      "latitude": "44.56667000",
      "longitude": "25.16667000",
      "timezone": "Europe/Bucharest",
      "wikiDataId": "Q2348353",
      "country_code": "RO",
      "state_code": "AG",
      "state_id": 4722,
      "country_id": 181
    },
    {
      "id": 95132,
      "name": "Municipiul Câmpulung",
      "name_default": "Municipiul Câmpulung",
      "native": "Municipiul Câmpulung",
      "type": "adm2",
      "level": null,
      "parent_id": null,
      "population": null,
      "latitude": "45.26691000",
      "longitude": "25.04419000",
      "timezone": "Europe/Bucharest",
      "wikiDataId": "Q736296",
      "country_code": "RO",
      "state_code": "AG",
      "state_id": 4722,
      "country_id": 181
    },
    {
      "id": 95129,
      "name": "Municipiul Curtea de Argeș",
      "name_default": "Municipiul Curtea de Argeș",
      "native": "Municipiul Curtea de Argeș",
      "type": "adm2",
      "level": null,
      "parent_id": null,
      "population": 32178,
      "latitude": "45.13840000",
      "longitude": "24.67512000",
      "timezone": "Europe/Bucharest",
      "wikiDataId": "Q652838",
      "country_code": "RO",
      "state_code": "AG",
      "state_id": 4722,
      "country_id": 181
    },
    {
      "id": 95169,
      "name": "Municipalité de Piteşti",
      "name_default": "Municipiul Piteşti",
      "native": "Municipiul Piteşti",
      "type": "city",
      "level": null,
      "parent_id": null,
      "population": 1501,
      "latitude": "44.85782000",
      "longitude": "24.87133000",
      "timezone": "Europe/Bucharest",
      "wikiDataId": "Q187938",
      "country_code": "RO",
      "state_code": "AG",
      "state_id": 4722,
      "country_id": 181
    },
    {
      "id": 95211,
      "name": "Mușătești",
      "name_default": "Mușătești",
      "native": "Mușătești",
      "type": "adm2",
      "level": null,
      "parent_id": null,
      "population": 4176,
      "latitude": "45.21651000",
      "longitude": "24.77941000",
      "timezone": "Europe/Bucharest",
      "wikiDataId": "Q2534678",
      "country_code": "RO",
      "state_code": "AG",
      "state_id": 4722,
      "country_id": 181
    },
    {
      "id": 95313,
      "name": "Negraşi",
      "name_default": "Negraşi",
      "native": "Negraşi",
      "type": "adm2",
      "level": null,
      "parent_id": null,
      "population": 2811,
      "latitude": "44.60000000",
      "longitude": "25.11667000",
      "timezone": "Europe/Bucharest",
      "wikiDataId": "Q12133126",
      "country_code": "RO",
      "state_code": "AG",
      "state_id": 4722,
      "country_id": 181
    },
    {
      "id": 95362,
      "name": "Nucşoara",
      "name_default": "Nucşoara",
      "native": "Nucşoara",
      "type": "adm2",
      "level": null,
      "parent_id": null,
      "population": 1687,
      "latitude": "45.33333000",
      "longitude": "24.78333000",
      "timezone": "Europe/Bucharest",
      "wikiDataId": "Q12134488",
      "country_code": "RO",
      "state_code": "AG",
      "state_id": 4722,
      "country_id": 181
    },
    {
      "id": 95383,
      "name": "Oarja",
      "name_default": "Oarja",
      "native": "La bordul",
      "type": "adm2",
      "level": null,
      "parent_id": null,
      "population": 2692,
      "latitude": "44.76053000",
      "longitude": "24.97596000",
      "timezone": "Europe/Bucharest",
      "wikiDataId": "Q2348214",
      "country_code": "RO",
      "state_code": "AG",
      "state_id": 4722,
      "country_id": 181
    },
    {
      "id": 95384,
      "name": "Oarja Sat",
      "name_default": "Oarja Sat",
      "native": "Oar Sat",
      "type": "city",
      "level": null,
      "parent_id": null,
      "population": 2851,
      "latitude": "44.76429000",
      "longitude": "24.97141000",
      "timezone": "Europe/Bucharest",
      "wikiDataId": "Q2348214",
      "country_code": "RO",
      "state_code": "AG",
      "state_id": 4722,
      "country_id": 181
    },
    {
      "id": 95412,
      "name": "Oeștii Pământeni",
      "name_default": "Oeștii Pământeni",
      "native": "Oeștii Pământeni",
      "type": "city",
      "level": null,
      "parent_id": null,
      "population": 1498,
      "latitude": "45.25241000",
      "longitude": "24.65658000",
      "timezone": "Europe/Bucharest",
      "wikiDataId": "Q12137101",
      "country_code": "RO",
      "state_code": "AG",
      "state_id": 4722,
      "country_id": 181
    },
    {
      "id": 95642,
      "name": "Oraș Mioveni",
      "name_default": "Oraș Mioveni",
      "native": "Oraș Mioveni",
      "type": "city",
      "level": null,
      "parent_id": null,
      "population": null,
      "latitude": "44.95897000",
      "longitude": "24.94274000",
      "timezone": "Europe/Bucharest",
      "wikiDataId": "Q732851",
      "country_code": "RO",
      "state_code": "AG",
      "state_id": 4722,
      "country_id": 181
    },
    {
      "id": 95652,
      "name": "Oraș Ştefăneşti",
      "name_default": "Oraș Ştefăneşti",
      "native": "Oraș Ştefăneşti",
      "type": "city",
      "level": null,
      "parent_id": null,
      "population": null,
      "latitude": "44.86667000",
      "longitude": "24.93333000",
      "timezone": "Europe/Bucharest",
      "wikiDataId": "Q209977",
      "country_code": "RO",
      "state_code": "AG",
      "state_id": 4722,
      "country_id": 181
    },
    {
      "id": 96025,
      "name": "Pătuleni",
      "name_default": "Pătuleni",
      "native": "Pătuleni",
      "type": "city",
      "level": null,
      "parent_id": null,
      "population": 904,
      "latitude": "44.73247000",
      "longitude": "25.16495000",
      "timezone": "Europe/Bucharest",
      "wikiDataId": "Q12140342",
      "country_code": "RO",
      "state_code": "AG",
      "state_id": 4722,
      "country_id": 181
    },
    {
      "id": 95749,
      "name": "Petrești",
      "name_default": "Petrești",
      "native": "Petrești",
      "type": "city",
      "level": null,
      "parent_id": null,
      "population": 1014,
      "latitude": "45.04364000",
      "longitude": "24.88989000",
      "timezone": "Europe/Bucharest",
      "wikiDataId": "Q12140150",
      "country_code": "RO",
      "state_code": "AG",
      "state_id": 4722,
      "country_id": 181
    },
    {
      "id": 95788,
      "name": "Pietroşani",
      "name_default": "Pietroşani",
      "native": "Pietroşani",
      "type": "adm2",
      "level": null,
      "parent_id": null,
      "population": 5320,
      "latitude": "45.18333000",
      "longitude": "24.85000000",
      "timezone": "Europe/Bucharest",
      "wikiDataId": "Q2534807",
      "country_code": "RO",
      "state_code": "AG",
      "state_id": 4722,
      "country_id": 181
    },
    {
      "id": 95803,
      "name": "Piteşti",
      "name_default": "Piteşti",
      "native": "Piteşti",
      "type": "adm1",
      "level": null,
      "parent_id": null,
      "population": 141275,
      "latitude": "44.85000000",
      "longitude": "24.86667000",
      "timezone": "Europe/Bucharest",
      "wikiDataId": "Q12146394",
      "country_code": "RO",
      "state_code": "AG",
      "state_id": 4722,
      "country_id": 181
    },
    {
      "id": 95875,
      "name": "Poiana Lacului",
      "name_default": "Poiana Lacului",
      "native": "Poiana Lacului",
      "type": "adm2",
      "level": null,
      "parent_id": null,
      "population": 6136,
      "latitude": "44.81667000",
      "longitude": "24.73333000",
      "timezone": "Europe/Bucharest",
      "wikiDataId": "Q2348418",
      "country_code": "RO",
      "state_code": "AG",
      "state_id": 4722,
      "country_id": 181
    },
    {
      "id": 95886,
      "name": "Poienari",
      "name_default": "Poienari",
      "native": "Poienari",
      "type": "city",
      "level": null,
      "parent_id": null,
      "population": 679,
      "latitude": "45.31443180",
      "longitude": "24.65625320",
      "timezone": "Europe/Bucharest",
      "wikiDataId": "Q12143163",
      "country_code": "RO",
      "state_code": "AG",
      "state_id": 4722,
      "country_id": 181
    },
    {
      "id": 95908,
      "name": "Popeşti",
      "name_default": "Popeşti",
      "native": "Popeşti",
      "type": "adm2",
      "level": null,
      "parent_id": null,
      "population": 0,
      "latitude": "44.44181000",
      "longitude": "25.10007000",
      "timezone": "Europe/Bucharest",
      "wikiDataId": "Q2534759",
      "country_code": "RO",
      "state_code": "AG",
      "state_id": 4722,
      "country_id": 181
    },
    {
      "id": 95948,
      "name": "Priboieni",
      "name_default": "Priboieni",
      "native": "Priboieni",
      "type": "city",
      "level": null,
      "parent_id": null,
      "population": 544,
      "latitude": "44.88333000",
      "longitude": "25.08333000",
      "timezone": "Europe/Bucharest",
      "wikiDataId": "Q1921758",
      "country_code": "RO",
      "state_code": "AG",
      "state_id": 4722,
      "country_id": 181
    },
    {
      "id": 95985,
      "name": "Purcăreni",
      "name_default": "Purcăreni",
      "native": "Purcăreni",
      "type": "city",
      "level": null,
      "parent_id": null,
      "population": 1341,
      "latitude": "44.96847000",
      "longitude": "24.88736000",
      "timezone": "Europe/Bucharest",
      "wikiDataId": "Q740551",
      "country_code": "RO",
      "state_code": "AG",
      "state_id": 4722,
      "country_id": 181
    },
    {
      "id": 96164,
      "name": "Râca",
      "name_default": "Râca",
      "native": "Râca",
      "type": "adm2",
      "level": null,
      "parent_id": null,
      "population": 951,
      "latitude": "44.43426000",
      "longitude": "25.04333000",
      "timezone": "Europe/Bucharest",
      "wikiDataId": "Q2625987",
      "country_code": "RO",
      "state_code": "AG",
      "state_id": 4722,
      "country_id": 181
    },
    {
      "id": 96046,
      "name": "Racoviţa",
      "name_default": "Racovița",
      "native": "Racovița",
      "type": "city",
      "level": null,
      "parent_id": null,
      "population": 1596,
      "latitude": "44.97081000",
      "longitude": "24.97582000",
      "timezone": "Europe/Bucharest",
      "wikiDataId": "Q12146910",
      "country_code": "RO",
      "state_code": "AG",
      "state_id": 4722,
      "country_id": 181
    },
    {
      "id": 96197,
      "name": "Rădești",
      "name_default": "Rădești",
      "native": "Rădești",
      "type": "city",
      "level": null,
      "parent_id": null,
      "population": 1400,
      "latitude": "45.07184000",
      "longitude": "25.00207000",
      "timezone": "Europe/Bucharest",
      "wikiDataId": "Q12147301",
      "country_code": "RO",
      "state_code": "AG",
      "state_id": 4722,
      "country_id": 181
    },
    {
      "id": 96210,
      "name": "Răteşti",
      "name_default": "Răteşti",
      "native": "Răteşti",
      "type": "adm2",
      "level": null,
      "parent_id": null,
      "population": 2779,
      "latitude": "44.73333000",
      "longitude": "25.13333000",
      "timezone": "Europe/Bucharest",
      "wikiDataId": "Q2534722",
      "country_code": "RO",
      "state_code": "AG",
      "state_id": 4722,
      "country_id": 181
    },
    {
      "id": 96071,
      "name": "Récéa",
      "name_default": "Recea",
      "native": "Recea",
      "type": "adm2",
      "level": null,
      "parent_id": null,
      "population": 3229,
      "latitude": "44.53333000",
      "longitude": "25.01667000",
      "timezone": "Europe/Bucharest",
      "wikiDataId": "Q2486652",
      "country_code": "RO",
      "state_code": "AG",
      "state_id": 4722,
      "country_id": 181
    },
    {
      "id": 96089,
      "name": "Retevoiești",
      "name_default": "Retevoiești",
      "native": "Retevoiești",
      "type": "city",
      "level": null,
      "parent_id": null,
      "population": 1521,
      "latitude": "45.14016000",
      "longitude": "24.83797000",
      "timezone": "Europe/Bucharest",
      "wikiDataId": "Q12147719",
      "country_code": "RO",
      "state_code": "AG",
      "state_id": 4722,
      "country_id": 181
    },
    {
      "id": 96098,
      "name": "Rociu",
      "name_default": "Rociu",
      "native": "Rociu",
      "type": "adm2",
      "level": null,
      "parent_id": null,
      "population": 2980,
      "latitude": "44.66667000",
      "longitude": "25.03333000",
      "timezone": "Europe/Bucharest",
      "wikiDataId": "Q2486677",
      "country_code": "RO",
      "state_code": "AG",
      "state_id": 4722,
      "country_id": 181
    },