{
  "locale": "ja",
  "country": {
    "id": 219,
    "code": "TH",
    "iso3": "THA",
    "numeric_code": "764",
    "name": "タイ",
    "name_default": "Thailand",
    "native": "ประเทศไทย",
    "capital": "Bangkok",
    "phonecode": "66",
    "currency": "THB",
    "currency_name": "Thai baht",
    "currency_symbol": "฿",
    "tld": ".th",
    "population": 65859640,
    "gdp": 546224,
    "region": "Asia",
    "region_id": 3,
    "subregion": "South-Eastern Asia",
    "subregion_id": 13,
    "nationality": "Thai",
    "timezones": [
      {
        "zoneName": "Asia/Bangkok",
        "gmtOffset": 25200,
        "gmtOffsetName": "UTC+07:00",
        "abbreviation": "ICT",
        "tzName": "Indochina Time"
      }
    ],
    "latitude": "15.00000000",
    "longitude": "100.00000000",
    "emoji": "🇹🇭",
    "emojiU": "U+1F1F9 U+1F1ED"
  },
  "state": {
    "id": 3537,
    "code": "91",
    "iso2": "91",
    "iso3166_2": "TH-91",
    "fips_code": "67",
    "name": "サトゥン",
    "name_default": "Satun",
    "native": "สตูล",
    "type": "province",
    "level": null,
    "parent_id": null,
    "population": 21498,
    "latitude": "6.62381580",
    "longitude": "100.06737440",
    "timezone": "Asia/Bangkok",
    "wikiDataId": "Q236263",
    "country_code": "TH"
  },
  "cities": [
    {
      "id": 105426,
      "name": "クアン・ドン地区",
      "name_default": "Khuan Don",
      "native": "อำเภอควนโดน",
      "type": "district",
      "level": null,
      "parent_id": null,
      "population": null,
      "latitude": "6.76978000",
      "longitude": "100.12216000",
      "timezone": "Asia/Bangkok",
      "wikiDataId": "Q32350",
      "country_code": "TH",
      "state_code": "91",
      "state_id": 3537,
      "country_id": 219
    },
    {
      "id": 105427,
      "name": "クアン・カロン地区",
      "name_default": "Khuan Kalong",
      "native": "อำเภอควนกาหลง",
      "type": "district",
      "level": null,
      "parent_id": null,
      "population": null,
      "latitude": "6.90593000",
      "longitude": "100.04178000",
      "timezone": "Asia/Bangkok",
      "wikiDataId": "Q32343",
      "country_code": "TH",
      "state_code": "91",
      "state_id": 3537,
      "country_id": 219
    },
    {
      "id": 154915,
      "name": "リペ島",
      "name_default": "Koh Lipe",
      "native": "เกาะหลีเป๊ะ",
      "type": "city",
      "level": null,
      "parent_id": null,
      "population": null,
      "latitude": "6.48770430",
      "longitude": "99.27685140",
      "timezone": "Asia/Bangkok",
      "wikiDataId": "Q49296148",
      "country_code": "TH",
      "state_code": "91",
      "state_id": 3537,
      "country_id": 219
    },
    {
      "id": 105468,
      "name": "ラ・ング地区",
      "name_default": "La-Ngu",
      "native": "อำเภอละงู",
      "type": "district",
      "level": null,
      "parent_id": null,
      "population": 0,
      "latitude": "6.90392000",
      "longitude": "99.79836000",
      "timezone": "Asia/Bangkok",
      "wikiDataId": "Q32351",
      "country_code": "TH",
      "state_code": "91",
      "state_id": 3537,
      "country_id": 219
    },
    {
      "id": 105524,
      "name": "マナン郡",
      "name_default": "Manang",
      "native": "อำเภอมะนัง",
      "type": "district",
      "level": null,
      "parent_id": null,
      "population": null,
      "latitude": "7.01822000",
      "longitude": "99.95399000",
      "timezone": "Asia/Bangkok",
      "wikiDataId": "Q32346",
      "country_code": "TH",
      "state_code": "91",
      "state_id": 3537,
      "country_id": 219
    },
    {
      "id": 105588,
      "name": "ムアンサトゥーン郡",
      "name_default": "Mueang Satun",
      "native": "อำเภอเมืองสตูล",
      "type": "district",
      "level": null,
      "parent_id": null,
      "population": 34544,
      "latitude": "6.62314000",
      "longitude": "100.06681000",
      "timezone": "Asia/Bangkok",
      "wikiDataId": "Q476085",
      "country_code": "TH",
      "state_code": "91",
      "state_id": 3537,
      "country_id": 219
    },
    {
      "id": 106692,
      "name": "サトゥン",
      "name_default": "Satun",
      "native": "สตูล",
      "type": "adm1",
      "level": null,
      "parent_id": null,
      "population": 34544,
      "latitude": "6.62314000",
      "longitude": "100.06676000",
      "timezone": "Asia/Bangkok",
      "wikiDataId": "Q1365666",
      "country_code": "TH",
      "state_code": "91",
      "state_id": 3537,
      "country_id": 219
    },
    {
      "id": 106280,
      "name": "ターペー地区",
      "name_default": "Tha Phae",
      "native": "อำเภอท่าแพ",
      "type": "district",
      "level": null,
      "parent_id": null,
      "population": null,
      "latitude": "6.79542000",
      "longitude": "99.91985000",
      "timezone": "Asia/Bangkok",
      "wikiDataId": "Q32345",
      "country_code": "TH",
      "state_code": "91",
      "state_id": 3537,
      "country_id": 219
    },
    {
      "id": 106319,
      "name": "トゥンワ郡",
      "name_default": "Thung Wa",
      "native": "อำเภอทุ่งหว้า",
      "type": "district",
      "level": null,
      "parent_id": null,
      "population": 0,
      "latitude": "7.04915000",
      "longitude": "99.76587000",
      "timezone": "Asia/Bangkok",
      "wikiDataId": "Q24424",
      "country_code": "TH",
      "state_code": "91",
      "state_id": 3537,
      "country_id": 219
    }
  ]
}
