{
  "locale": "ko",
  "country": {
    "id": 232,
    "code": "GB",
    "iso3": "GBR",
    "numeric_code": "826",
    "name": "영국",
    "name_default": "United Kingdom",
    "native": "United Kingdom",
    "capital": "London",
    "phonecode": "44",
    "currency": "GBP",
    "currency_name": "British pound",
    "currency_symbol": "£",
    "tld": ".uk",
    "population": 68265209,
    "gdp": 3839180,
    "region": "Europe",
    "region_id": 4,
    "subregion": "Northern Europe",
    "subregion_id": 18,
    "nationality": "British, UK",
    "timezones": [
      {
        "zoneName": "Europe/London",
        "gmtOffset": 0,
        "gmtOffsetName": "UTC±00",
        "abbreviation": "GMT",
        "tzName": "Greenwich Mean Time"
      }
    ],
    "latitude": "54.00000000",
    "longitude": "-2.00000000",
    "emoji": "🇬🇧",
    "emojiU": "U+1F1EC U+1F1E7"
  },
  "state": {
    "id": 2316,
    "code": "CCG",
    "iso2": "CCG",
    "iso3166_2": "GB-CCG",
    "fips_code": "R2",
    "name": "코즈웨이 해안과 글렌스",
    "name_default": "Causeway Coast and Glens",
    "native": "Causeway Coast and Glens",
    "type": "district",
    "level": "2",
    "parent_id": "2337",
    "population": 141954,
    "latitude": "55.03612980",
    "longitude": "-6.59094490",
    "timezone": "Europe/London",
    "wikiDataId": "Q5054638",
    "country_code": "GB"
  },
  "cities": [
    {
      "id": 48349,
      "name": "발린토이 항구",
      "name_default": "Ballintoy Harbour",
      "native": "Ballintoy Harbour",
      "type": "city",
      "level": null,
      "parent_id": null,
      "population": 2103,
      "latitude": "55.24422000",
      "longitude": "-6.36919000",
      "timezone": "Europe/London",
      "wikiDataId": "Q1012304",
      "country_code": "GB",
      "state_code": "CCG",
      "state_id": 2316,
      "country_id": 232
    },
    {
      "id": 48351,
      "name": "밸리캐슬",
      "name_default": "Ballycastle",
      "native": "Ballycastle",
      "type": "city",
      "level": null,
      "parent_id": null,
      "population": 5566,
      "latitude": "55.20444000",
      "longitude": "-6.24298000",
      "timezone": "Europe/London",
      "wikiDataId": "Q805405",
      "country_code": "GB",
      "state_code": "CCG",
      "state_id": 2316,
      "country_id": 232
    },
    {
      "id": 48356,
      "name": "밸리머니",
      "name_default": "Ballymoney",
      "native": "Ballymoney",
      "type": "city",
      "level": null,
      "parent_id": null,
      "population": 9625,
      "latitude": "55.07080000",
      "longitude": "-6.51009000",
      "timezone": "Europe/London",
      "wikiDataId": "Q805450",
      "country_code": "GB",
      "state_code": "CCG",
      "state_id": 2316,
      "country_id": 232
    },
    {
      "id": 48358,
      "name": "밸리패트릭",
      "name_default": "Ballypatrick",
      "native": "Ballypatrick",
      "type": "city",
      "level": null,
      "parent_id": null,
      "population": 2310,
      "latitude": "55.18112000",
      "longitude": "-6.15020000",
      "timezone": "Europe/London",
      "wikiDataId": "Q58125",
      "country_code": "GB",
      "state_code": "CCG",
      "state_id": 2316,
      "country_id": 232
    },
    {
      "id": 48802,
      "name": "부시밀스",
      "name_default": "Bushmills",
      "native": "Bushmills",
      "type": "city",
      "level": null,
      "parent_id": null,
      "population": 1309,
      "latitude": "55.20493000",
      "longitude": "-6.51918000",
      "timezone": "Europe/London",
      "wikiDataId": "Q611570",
      "country_code": "GB",
      "state_code": "CCG",
      "state_id": 2316,
      "country_id": 232
    },
    {
      "id": 48885,
      "name": "캐슬록",
      "name_default": "Castlerock",
      "native": "Castlerock",
      "type": "city",
      "level": null,
      "parent_id": null,
      "population": 1477,
      "latitude": "55.15000000",
      "longitude": "-6.78333000",
      "timezone": "Europe/London",
      "wikiDataId": "Q619264",
      "country_code": "GB",
      "state_code": "CCG",
      "state_id": 2316,
      "country_id": 232
    },
    {
      "id": 48896,
      "name": "코즈웨이 해안과 글렌스",
      "name_default": "Causeway Coast and Glens",
      "native": "Causeway Coast and Glens",
      "type": "city",
      "level": null,
      "parent_id": null,
      "population": 144246,
      "latitude": "55.06014000",
      "longitude": "-6.59081000",
      "timezone": "Europe/London",
      "wikiDataId": "Q386087",
      "country_code": "GB",
      "state_code": "CCG",
      "state_id": 2316,
      "country_id": 232
    },
    {
      "id": 49067,
      "name": "콜레인",
      "name_default": "Coleraine",
      "native": "Coleraine",
      "type": "adm2",
      "level": null,
      "parent_id": null,
      "population": 25681,
      "latitude": "55.13333000",
      "longitude": "-6.66667000",
      "timezone": "Europe/London",
      "wikiDataId": "Q1108185",
      "country_code": "GB",
      "state_code": "CCG",
      "state_id": 2316,
      "country_id": 232
    },
    {
      "id": 49354,
      "name": "던지븐",
      "name_default": "Dungiven",
      "native": "Downy",
      "type": "city",
      "level": null,
      "parent_id": null,
      "population": 3346,
      "latitude": "54.93333000",
      "longitude": "-6.91667000",
      "timezone": "Europe/London",
      "wikiDataId": "Q1265794",
      "country_code": "GB",
      "state_code": "CCG",
      "state_id": 2316,
      "country_id": 232
    },
    {
      "id": 49359,
      "name": "던로이",
      "name_default": "Dunloy",
      "native": "Dunloy",
      "type": "city",
      "level": null,
      "parent_id": null,
      "population": 1091,
      "latitude": "55.01100000",
      "longitude": "-6.41087000",
      "timezone": "Europe/London",
      "wikiDataId": "Q1752141",
      "country_code": "GB",
      "state_code": "CCG",
      "state_id": 2316,
      "country_id": 232
    },
    {
      "id": 49632,
      "name": "가르바그",
      "name_default": "Garvagh",
      "native": "Garvagh",
      "type": "city",
      "level": null,
      "parent_id": null,
      "population": 1372,
      "latitude": "54.98333000",
      "longitude": "-6.66667000",
      "timezone": "Europe/London",
      "wikiDataId": "Q3270941",
      "country_code": "GB",
      "state_code": "CCG",
      "state_id": 2316,
      "country_id": 232
    },
    {
      "id": 50152,
      "name": "킬레아",
      "name_default": "Kilrea",
      "native": "Kilrea",
      "type": "city",
      "level": null,
      "parent_id": null,
      "population": 1616,
      "latitude": "54.95091000",
      "longitude": "-6.55695000",
      "timezone": "Europe/London",
      "wikiDataId": "Q950125",
      "country_code": "GB",
      "state_code": "CCG",
      "state_id": 2316,
      "country_id": 232
    },
    {
      "id": 50303,
      "name": "리마바디",
      "name_default": "Limavady",
      "native": "Limavady",
      "type": "city",
      "level": null,
      "parent_id": null,
      "population": 12970,
      "latitude": "55.05045000",
      "longitude": "-6.95074000",
      "timezone": "Europe/London",
      "wikiDataId": "Q1002115",
      "country_code": "GB",
      "state_code": "CCG",
      "state_id": 2316,
      "country_id": 232
    },
    {
      "id": 50466,
      "name": "마게라",
      "name_default": "Maghera",
      "native": "Maghera",
      "type": "city",
      "level": null,
      "parent_id": null,
      "population": 4085,
      "latitude": "54.84390000",
      "longitude": "-6.67145000",
      "timezone": "Europe/London",
      "wikiDataId": "Q1025604",
      "country_code": "GB",
      "state_code": "CCG",
      "state_id": 2316,
      "country_id": 232
    },
    {
      "id": 50959,
      "name": "포트글레논",
      "name_default": "Portglenone",
      "native": "Portglenone",
      "type": "city",
      "level": null,
      "parent_id": null,
      "population": 1230,
      "latitude": "54.87147000",
      "longitude": "-6.47146000",
      "timezone": "Europe/London",
      "wikiDataId": "Q2150770",
      "country_code": "GB",
      "state_code": "CCG",
      "state_id": 2316,
      "country_id": 232
    },
    {
      "id": 50968,
      "name": "포트러시",
      "name_default": "Portrush",
      "native": "Portrush",
      "type": "city",
      "level": null,
      "parent_id": null,
      "population": 6684,
      "latitude": "55.19592000",
      "longitude": "-6.64930000",
      "timezone": "Europe/London",
      "wikiDataId": "Q1027679",
      "country_code": "GB",
      "state_code": "CCG",
      "state_id": 2316,
      "country_id": 232
    },
    {
      "id": 50973,
      "name": "포트스튜어트",
      "name_default": "Portstewart",
      "native": "Portstewart",
      "type": "city",
      "level": null,
      "parent_id": null,
      "population": 8394,
      "latitude": "55.18132000",
      "longitude": "-6.71402000",
      "timezone": "Europe/London",
      "wikiDataId": "Q2239914",
      "country_code": "GB",
      "state_code": "CCG",
      "state_id": 2316,
      "country_id": 232
    }
  ]
}
