{
  "locale": "ar",
  "country": {
    "id": 103,
    "code": "IR",
    "iso3": "IRN",
    "numeric_code": "364",
    "name": "إيران",
    "name_default": "Iran",
    "native": "ایران",
    "capital": "Tehran",
    "phonecode": "98",
    "currency": "IRR",
    "currency_name": "Iranian rial",
    "currency_symbol": "﷼",
    "tld": ".ir",
    "population": 85961000,
    "gdp": 341013,
    "region": "Asia",
    "region_id": 3,
    "subregion": "Southern Asia",
    "subregion_id": 14,
    "nationality": "Iranian, Persian",
    "timezones": [
      {
        "zoneName": "Asia/Tehran",
        "gmtOffset": 12600,
        "gmtOffsetName": "UTC+03:30",
        "abbreviation": "IRDT",
        "tzName": "Iran Daylight Time"
      }
    ],
    "latitude": "32.00000000",
    "longitude": "53.00000000",
    "emoji": "🇮🇷",
    "emojiU": "U+1F1EE U+1F1F7"
  },
  "state": {
    "id": 3923,
    "code": "10",
    "iso2": "10",
    "iso3166_2": "IR-10",
    "fips_code": "28",
    "name": "أصفهان",
    "name_default": "Isfahan",
    "native": "اصفهان",
    "type": "province",
    "level": null,
    "parent_id": null,
    "population": null,
    "latitude": "33.18813860",
    "longitude": "52.49816350",
    "timezone": "Asia/Tehran",
    "wikiDataId": "Q1367759",
    "country_code": "IR"
  },
  "cities": [
    {
      "id": 150201,
      "name": "أبوزيد آباد",
      "name_default": "Abouzeidabad",
      "native": "ابوژید آباد",
      "type": "city",
      "level": null,
      "parent_id": null,
      "population": null,
      "latitude": "33.90165760",
      "longitude": "51.74337370",
      "timezone": "Asia/Tehran",
      "wikiDataId": null,
      "country_code": "IR",
      "state_code": "10",
      "state_id": 3923,
      "country_id": 103
    },
    {
      "id": 134557,
      "name": "أبريشام",
      "name_default": "Abrisham",
      "native": "ابیشام",
      "type": "city",
      "level": null,
      "parent_id": null,
      "population": 22429,
      "latitude": "32.55613000",
      "longitude": "51.57325000",
      "timezone": "Asia/Tehran",
      "wikiDataId": "Q2614216",
      "country_code": "IR",
      "state_code": "10",
      "state_id": 3923,
      "country_id": 103
    },
    {
      "id": 150226,
      "name": "أفوس",
      "name_default": "Afus",
      "native": "عیاشی",
      "type": "city",
      "level": null,
      "parent_id": null,
      "population": null,
      "latitude": "33.02495550",
      "longitude": "50.08812900",
      "timezone": "Asia/Tehran",
      "wikiDataId": "Q4365366",
      "country_code": "IR",
      "state_code": "10",
      "state_id": 3923,
      "country_id": 103
    },
    {
      "id": 150282,
      "name": "علوية",
      "name_default": "Alavijeh",
      "native": "الویه",
      "type": "city",
      "level": null,
      "parent_id": null,
      "population": 15550,
      "latitude": "33.05169010",
      "longitude": "51.05992540",
      "timezone": "Asia/Tehran",
      "wikiDataId": "Q2613921",
      "country_code": "IR",
      "state_code": "10",
      "state_id": 3923,
      "country_id": 103
    },
    {
      "id": 150277,
      "name": "أناراك",
      "name_default": "Anarak",
      "native": "بزرگداشت",
      "type": "city",
      "level": null,
      "parent_id": null,
      "population": 1903,
      "latitude": "33.30702060",
      "longitude": "53.68767500",
      "timezone": "Asia/Tehran",
      "wikiDataId": "Q2664768",
      "country_code": "IR",
      "state_code": "10",
      "state_id": 3923,
      "country_id": 103
    },
    {
      "id": 135084,
      "name": "أران وبيدجول",
      "name_default": "Aran va Bidgol",
      "native": "آران و بیدگل",
      "type": "city",
      "level": null,
      "parent_id": null,
      "population": 65404,
      "latitude": "34.10000000",
      "longitude": "51.90000000",
      "timezone": "Asia/Tehran",
      "wikiDataId": "Q1286247",
      "country_code": "IR",
      "state_code": "10",
      "state_id": 3923,
      "country_id": 103
    },
    {
      "id": 134570,
      "name": "أردستان",
      "name_default": "Ardestan",
      "native": "آنها می رسند",
      "type": "adm2",
      "level": null,
      "parent_id": null,
      "population": 15744,
      "latitude": "33.37610000",
      "longitude": "52.36940000",
      "timezone": "Asia/Tehran",
      "wikiDataId": "Q639119",
      "country_code": "IR",
      "state_code": "10",
      "state_id": 3923,
      "country_id": 103
    },
    {
      "id": 150230,
      "name": "أصغر آباد",
      "name_default": "Asghar Abad",
      "native": "اصظار آباد",
      "type": "city",
      "level": null,
      "parent_id": null,
      "population": null,
      "latitude": "32.65260910",
      "longitude": "51.47119400",
      "timezone": "Asia/Tehran",
      "wikiDataId": null,
      "country_code": "IR",
      "state_code": "10",
      "state_id": 3923,
      "country_id": 103
    },
    {
      "id": 150228,
      "name": "عسكران",
      "name_default": "Askaran",
      "native": "گاو نر",
      "type": "city",
      "level": null,
      "parent_id": null,
      "population": null,
      "latitude": "32.86623280",
      "longitude": "50.84719420",
      "timezone": "Asia/Tehran",
      "wikiDataId": "Q74069762",
      "country_code": "IR",
      "state_code": "10",
      "state_id": 3923,
      "country_id": 103
    },
    {
      "id": 150285,
      "name": "بدرود",
      "name_default": "Badroud",
      "native": "لقب",
      "type": "city",
      "level": null,
      "parent_id": null,
      "population": null,
      "latitude": "33.68939670",
      "longitude": "51.99780820",
      "timezone": "Asia/Tehran",
      "wikiDataId": "Q80818",
      "country_code": "IR",
      "state_code": "10",
      "state_id": 3923,
      "country_id": 103
    },
    {
      "id": 150278,
      "name": "بافران",
      "name_default": "Bafrān",
      "native": "بافران",
      "type": "city",
      "level": null,
      "parent_id": null,
      "population": null,
      "latitude": "32.83938320",
      "longitude": "53.13662050",
      "timezone": "Asia/Tehran",
      "wikiDataId": null,
      "country_code": "IR",
      "state_code": "10",
      "state_id": 3923,
      "country_id": 103
    },
    {
      "id": 150263,
      "name": "باغباهادوران",
      "name_default": "Baghbahadoran",
      "native": "مرغان",
      "type": "city",
      "level": null,
      "parent_id": null,
      "population": null,
      "latitude": "32.37872850",
      "longitude": "51.18191240",
      "timezone": "Asia/Tehran",
      "wikiDataId": "Q76939",
      "country_code": "IR",
      "state_code": "10",
      "state_id": 3923,
      "country_id": 103
    },
    {
      "id": 150264,
      "name": "بغداد",
      "name_default": "Baghshad",
      "native": "مرغ",
      "type": "city",
      "level": null,
      "parent_id": null,
      "population": null,
      "latitude": "32.38226100",
      "longitude": "51.22944130",
      "timezone": "Asia/Tehran",
      "wikiDataId": "Q29417899",
      "country_code": "IR",
      "state_code": "10",
      "state_id": 3923,
      "country_id": 103
    },
    {
      "id": 150250,
      "name": "بهاران شهر",
      "name_default": "Baharan Shahr",
      "native": "بهاران شاه",
      "type": "city",
      "level": null,
      "parent_id": null,
      "population": null,
      "latitude": "32.65097430",
      "longitude": "51.72070930",
      "timezone": "Asia/Tehran",
      "wikiDataId": "Q2614238",
      "country_code": "IR",
      "state_code": "10",
      "state_id": 3923,
      "country_id": 103
    },
    {
      "id": 150207,
      "name": "بهارستان",
      "name_default": "Baharestan",
      "native": "بهارستان",
      "type": "city",
      "level": null,
      "parent_id": null,
      "population": 79023,
      "latitude": "32.48391000",
      "longitude": "51.73393190",
      "timezone": "Asia/Tehran",
      "wikiDataId": "Q5885748",
      "country_code": "IR",
      "state_code": "10",
      "state_id": 3923,
      "country_id": 103
    },
    {
      "id": 150247,
      "name": "برف عنبر",
      "name_default": "Barf Anbar",
      "native": "بانوری",
      "type": "city",
      "level": null,
      "parent_id": null,
      "population": null,
      "latitude": "32.99523650",
      "longitude": "50.17576210",
      "timezone": "Asia/Tehran",
      "wikiDataId": "Q2407865",
      "country_code": "IR",
      "state_code": "10",
      "state_id": 3923,
      "country_id": 103
    },
    {
      "id": 150255,
      "name": "بارزوك",
      "name_default": "Barzok",
      "native": "میله",
      "type": "city",
      "level": null,
      "parent_id": null,
      "population": 4588,
      "latitude": "33.77699410",
      "longitude": "51.19740420",
      "timezone": "Asia/Tehran",
      "wikiDataId": "Q4358742",
      "country_code": "IR",
      "state_code": "10",
      "state_id": 3923,
      "country_id": 103
    },
    {
      "id": 134812,
      "name": "بورخفار",
      "name_default": "Borkhvar",
      "native": "بورکوار",
      "type": "city",
      "level": null,
      "parent_id": null,
      "population": null,
      "latitude": "32.98333000",
      "longitude": "51.76667000",
      "timezone": "Asia/Tehran",
      "wikiDataId": "Q498106",
      "country_code": "IR",
      "state_code": "10",
      "state_id": 3923,
      "country_id": 103
    },
    {
      "id": 134593,
      "name": "Buin va Miandasht",
      "name_default": "Buin va Miandasht",
      "native": "بوئین و میاندشت",
      "type": "adm2",
      "level": null,
      "parent_id": null,
      "population": 9933,
      "latitude": "33.07241000",
      "longitude": "50.14641000",
      "timezone": "Asia/Tehran",
      "wikiDataId": "Q605454",
      "country_code": "IR",
      "state_code": "10",
      "state_id": 3923,
      "country_id": 103
    },
    {
      "id": 134609,
      "name": "تشادجان",
      "name_default": "Chadegan",
      "native": "قدیس",
      "type": "adm2",
      "level": null,
      "parent_id": null,
      "population": 0,
      "latitude": "32.76825000",
      "longitude": "50.62873000",
      "timezone": "Asia/Tehran",
      "wikiDataId": "Q2717325",
      "country_code": "IR",
      "state_code": "10",
      "state_id": 3923,
      "country_id": 103
    },
    {
      "id": 150266,
      "name": "تشامغوردان",
      "name_default": "Chamgordan",
      "native": "وابسته به جبهه",
      "type": "city",
      "level": null,
      "parent_id": null,
      "population": null,
      "latitude": "32.39291670",
      "longitude": "51.33082860",
      "timezone": "Asia/Tehran",
      "wikiDataId": "Q81019",
      "country_code": "IR",
      "state_code": "10",
      "state_id": 3923,
      "country_id": 103
    },
    {
      "id": 150265,
      "name": "تشيرماهين",
      "name_default": "Chermahin",
      "native": "چرماهین",
      "type": "adm2",
      "level": null,
      "parent_id": null,
      "population": 13732,
      "latitude": "32.32433430",
      "longitude": "51.14324500",
      "timezone": "Asia/Tehran",
      "wikiDataId": "Q81021",
      "country_code": "IR",
      "state_code": "10",
      "state_id": 3923,
      "country_id": 103
    },
    {
      "id": 150246,
      "name": "دامانه",
      "name_default": "Damaneh",
      "native": "زن زن",
      "type": "city",
      "level": null,
      "parent_id": null,
      "population": 4366,
      "latitude": "33.01758740",
      "longitude": "50.47904490",
      "timezone": "Asia/Tehran",
      "wikiDataId": "Q4364180",
      "country_code": "IR",
      "state_code": "10",
      "state_id": 3923,
      "country_id": 103
    },
    {
      "id": 134627,
      "name": "داران",
      "name_default": "Daran",
      "native": "به آن",
      "type": "adm2",
      "level": null,
      "parent_id": null,
      "population": 0,
      "latitude": "32.98871000",
      "longitude": "50.41267000",
      "timezone": "Asia/Tehran",
      "wikiDataId": "Q2407798",
      "country_code": "IR",
      "state_code": "10",
      "state_id": 3923,
      "country_id": 103
    },
    {
      "id": 150221,
      "name": "داستجرد",
      "name_default": "Dastgerd",
      "native": "دلهره",
      "type": "adm1",
      "level": null,
      "parent_id": null,
      "population": 17775,
      "latitude": "32.80222710",
      "longitude": "51.65711400",
      "timezone": "Asia/Tehran",
      "wikiDataId": "Q2613871",
      "country_code": "IR",
      "state_code": "10",
      "state_id": 3923,
      "country_id": 103
    },
    {
      "id": 150281,
      "name": "دهاغ",
      "name_default": "Dehagh",
      "native": "دهق",
      "type": "city",
      "level": null,
      "parent_id": null,
      "population": null,
      "latitude": "33.10728330",
      "longitude": "50.93896840",
      "timezone": "Asia/Tehran",
      "wikiDataId": "Q2614267",
      "country_code": "IR",
      "state_code": "10",
      "state_id": 3923,
      "country_id": 103
    },
    {
      "id": 150236,
      "name": "دهقان",
      "name_default": "Dehaghan",
      "native": "دهقان",
      "type": "adm2",
      "level": null,
      "parent_id": null,
      "population": 0,
      "latitude": "31.93724900",
      "longitude": "51.64522640",
      "timezone": "Asia/Tehran",
      "wikiDataId": "Q2630618",
      "country_code": "IR",
      "state_code": "10",
      "state_id": 3923,
      "country_id": 103
    },
    {
      "id": 134618,
      "name": "دهقان",
      "name_default": "Dehaqan",
      "native": "دیهخان",
      "type": "adm2",
      "level": null,
      "parent_id": null,
      "population": 0,
      "latitude": "31.94004000",
      "longitude": "51.64786000",
      "timezone": "Asia/Tehran",
      "wikiDataId": "Q2630618",
      "country_code": "IR",
      "state_code": "10",
      "state_id": 3923,
      "country_id": 103
    },
    {
      "id": 150272,
      "name": "ديزيش",
      "name_default": "Diziche",
      "native": "دیزایه",
      "type": "adm2",
      "level": null,
      "parent_id": null,
      "population": null,
      "latitude": "32.40433490",
      "longitude": "51.48476550",
      "timezone": "Asia/Tehran",
      "wikiDataId": "Q81029",
      "country_code": "IR",
      "state_code": "10",
      "state_id": 3923,
      "country_id": 103
    },
    {
      "id": 150222,
      "name": "دولت آباد",
      "name_default": "Dolatabad",
      "native": "دالء آباد",
      "type": "city",
      "level": null,
      "parent_id": null,
      "population": null,
      "latitude": "32.80826470",
      "longitude": "51.67975170",
      "timezone": "Asia/Tehran",
      "wikiDataId": "Q2616779",
      "country_code": "IR",
      "state_code": "10",
      "state_id": 3923,
      "country_id": 103
    },
    {
      "id": 150231,
      "name": "دورشيه",
      "name_default": "Dorcheh",
      "native": "دورچ",
      "type": "city",
      "level": null,
      "parent_id": null,
      "population": 0,
      "latitude": "32.61500960",
      "longitude": "51.53461450",
      "timezone": "Asia/Tehran",
      "wikiDataId": "Q5297580",
      "country_code": "IR",
      "state_code": "10",
      "state_id": 3923,
      "country_id": 103
    },
    {
      "id": 134623,
      "name": "دورتشيه بياز",
      "name_default": "Dorcheh Piaz",
      "native": "دورچه پیاز",
      "type": "city",
      "level": null,
      "parent_id": null,
      "population": 43183,
      "latitude": "32.61528000",
      "longitude": "51.55556000",
      "timezone": "Asia/Tehran",
      "wikiDataId": "Q2614242",
      "country_code": "IR",
      "state_code": "10",
      "state_id": 3923,
      "country_id": 103
    },
    {
      "id": 134624,
      "name": "دولت آباد",
      "name_default": "Dowlatabad",
      "native": "داولات آباد",
      "type": "adm2",
      "level": null,
      "parent_id": null,
      "population": 40945,
      "latitude": "32.79978000",
      "longitude": "51.69553000",
      "timezone": "Asia/Tehran",
      "wikiDataId": "Q2616779",
      "country_code": "IR",
      "state_code": "10",
      "state_id": 3923,
      "country_id": 103
    },
    {
      "id": 134863,
      "name": "أصفهان",
      "name_default": "Esfahan",
      "native": "اسان",
      "type": "city",
      "level": null,
      "parent_id": null,
      "population": null,
      "latitude": "32.26667000",
      "longitude": "52.45000000",
      "timezone": "Asia/Tehran",
      "wikiDataId": "Q498106",
      "country_code": "IR",
      "state_code": "10",
      "state_id": 3923,
      "country_id": 103
    },
    {
      "id": 150206,
      "name": "إيزهيه",
      "name_default": "Ezhieh",
      "native": "حزب",
      "type": "city",
      "level": null,
      "parent_id": null,
      "population": null,
      "latitude": "32.44236700",
      "longitude": "52.37182610",
      "timezone": "Asia/Tehran",
      "wikiDataId": null,
      "country_code": "IR",
      "state_code": "10",
      "state_id": 3923,
      "country_id": 103
    },
    {
      "id": 134632,
      "name": "فلافارجان",
      "name_default": "Falavarjan",
      "native": "فالواوراژان",
      "type": "adm2",
      "level": null,
      "parent_id": null,
      "population": 49843,
      "latitude": "32.55530000",
      "longitude": "51.50973000",
      "timezone": "Asia/Tehran",
      "wikiDataId": "Q2421737",
      "country_code": "IR",
      "state_code": "10",
      "state_id": 3923,
      "country_id": 103
    },
    {
      "id": 134636,
      "name": "فريدونشهر",
      "name_default": "Fareydunshahr",
      "native": "فرییدونشاهر",
      "type": "adm2",
      "level": null,
      "parent_id": null,
      "population": 11562,
      "latitude": "32.94098000",
      "longitude": "50.12100000",
      "timezone": "Asia/Tehran",
      "wikiDataId": "Q2321858",
      "country_code": "IR",
      "state_code": "10",
      "state_id": 3923,
      "country_id": 103
    },
    {
      "id": 150235,
      "name": "فاروقي",
      "name_default": "Farrokhi",
      "native": "فرگوی",
      "type": "city",
      "level": null,
      "parent_id": null,
      "population": null,
      "latitude": "33.84195750",
      "longitude": "54.94378560",
      "timezone": "Asia/Tehran",
      "wikiDataId": "Q5434783",
      "country_code": "IR",
      "state_code": "10",
      "state_id": 3923,
      "country_id": 103
    },
    {
      "id": 134639,
      "name": "فريدان",
      "name_default": "Fereydan",
      "native": "فرییدان",
      "type": "adm2",
      "level": null,
      "parent_id": null,
      "population": null,
      "latitude": "33.10000000",
      "longitude": "50.26667000",
      "timezone": "Asia/Tehran",
      "wikiDataId": "Q2614253",
      "country_code": "IR",
      "state_code": "10",
      "state_id": 3923,
      "country_id": 103
    },
    {
      "id": 150248,
      "name": "فريدون شهر",
      "name_default": "Fereydun Shahr",
      "native": "فرییدون شاه",
      "type": "adm2",
      "level": null,
      "parent_id": null,
      "population": 11562,
      "latitude": "32.93718600",
      "longitude": "50.12029390",
      "timezone": "Asia/Tehran",
      "wikiDataId": null,
      "country_code": "IR",
      "state_code": "10",
      "state_id": 3923,
      "country_id": 103
    },
    {
      "id": 150270,
      "name": "فولادشهر",
      "name_default": "Fooladshahr",
      "native": "احمق",
      "type": "city",
      "level": null,
      "parent_id": null,
      "population": null,
      "latitude": "32.52549510",
      "longitude": "51.29630090",
      "timezone": "Asia/Tehran",
      "wikiDataId": "Q80816",
      "country_code": "IR",
      "state_code": "10",
      "state_id": 3923,
      "country_id": 103
    },
    {
      "id": 150242,
      "name": "غازبورخار",
      "name_default": "Gazborkhar",
      "native": "غزبورکار",
      "type": "city",
      "level": null,
      "parent_id": null,
      "population": null,
      "latitude": "32.80222200",
      "longitude": "51.62111100",
      "timezone": "Asia/Tehran",
      "wikiDataId": null,
      "country_code": "IR",
      "state_code": "10",
      "state_id": 3923,
      "country_id": 103
    },
    {
      "id": 150253,
      "name": "غاهدريجان",
      "name_default": "Ghahderijan",
      "native": "قاهدیان",
      "type": "city",
      "level": null,
      "parent_id": null,
      "population": null,
      "latitude": "32.56889540",
      "longitude": "51.40953480",
      "timezone": "Asia/Tehran",
      "wikiDataId": "Q2614246",
      "country_code": "IR",
      "state_code": "10",
      "state_id": 3923,
      "country_id": 103
    },
    {
      "id": 150257,
      "name": "غمر",
      "name_default": "Ghamsar",
      "native": "قمار",
      "type": "city",
      "level": null,
      "parent_id": null,
      "population": null,
      "latitude": "33.74066420",
      "longitude": "51.41000730",
      "timezone": "Asia/Tehran",
      "wikiDataId": "Q765512",
      "country_code": "IR",
      "state_code": "10",
      "state_id": 3923,
      "country_id": 103
    },
    {
      "id": 150284,
      "name": "جولدشت",
      "name_default": "Goldasht",
      "native": "گلینش",
      "type": "city",
      "level": null,
      "parent_id": null,
      "population": 0,
      "latitude": "32.62173270",
      "longitude": "51.42737730",
      "timezone": "Asia/Tehran",
      "wikiDataId": "Q80824",
      "country_code": "IR",
      "state_code": "10",
      "state_id": 3923,
      "country_id": 103
    },
    {
      "id": 134645,
      "name": "جولبايجان",
      "name_default": "Golpayegan",
      "native": "گودال",
      "type": "adm2",
      "level": null,
      "parent_id": null,
      "population": 44916,
      "latitude": "33.45370000",
      "longitude": "50.28836000",
      "timezone": "Asia/Tehran",
      "wikiDataId": "Q720421",
      "country_code": "IR",
      "state_code": "10",
      "state_id": 3923,
      "country_id": 103
    },
    {
      "id": 150261,
      "name": "جولشهر",
      "name_default": "Golshahr",
      "native": "گولشهر",
      "type": "city",
      "level": null,
      "parent_id": null,
      "population": null,
      "latitude": "33.50595700",
      "longitude": "50.45278070",
      "timezone": "Asia/Tehran",
      "wikiDataId": "Q2687381",
      "country_code": "IR",
      "state_code": "10",
      "state_id": 3923,
      "country_id": 103
    },
    {
      "id": 150237,
      "name": "جولشان",
      "name_default": "Golshan",
      "native": "گولشان",
      "type": "city",
      "level": null,
      "parent_id": null,
      "population": null,
      "latitude": "31.92651440",
      "longitude": "51.72279540",
      "timezone": "Asia/Tehran",
      "wikiDataId": "Q16276071",
      "country_code": "IR",
      "state_code": "10",
      "state_id": 3923,
      "country_id": 103
    },
    {
      "id": 150262,
      "name": "جوجاد",
      "name_default": "Googad",
      "native": "گوگاد",
      "type": "city",
      "level": null,
      "parent_id": null,
      "population": null,
      "latitude": "33.47637670",
      "longitude": "50.34423700",
      "timezone": "Asia/Tehran",
      "wikiDataId": "Q2687385",
      "country_code": "IR",
      "state_code": "10",
      "state_id": 3923,
      "country_id": 103
    },
    {
      "id": 150241,
      "name": "غورجاب",
      "name_default": "Gorgab",
      "native": "لگد زدن",
      "type": "city",
      "level": null,
      "parent_id": null,
      "population": 9690,
      "latitude": "32.86625040",
      "longitude": "51.58879270",
      "timezone": "Asia/Tehran",
      "wikiDataId": null,
      "country_code": "IR",
      "state_code": "10",
      "state_id": 3923,
      "country_id": 103
    },
    {
      "id": 150219,
      "name": "حبيب آباد",
      "name_default": "Habibabad",
      "native": "حسی",
      "type": "city",
      "level": null,
      "parent_id": null,
      "population": 9491,
      "latitude": "32.83124240",
      "longitude": "51.76599030",
      "timezone": "Asia/Tehran",
      "wikiDataId": "Q5636814",
      "country_code": "IR",
      "state_code": "10",
      "state_id": 3923,
      "country_id": 103
    },
    {
      "id": 150238,
      "name": "هانا",
      "name_default": "Hanna",
      "native": "هانا",
      "type": "city",
      "level": null,
      "parent_id": null,
      "population": null,
      "latitude": "31.19744850",
      "longitude": "51.71396600",
      "timezone": "Asia/Tehran",
      "wikiDataId": "Q1196204",
      "country_code": "IR",
      "state_code": "10",
      "state_id": 3923,
      "country_id": 103
    },
    {
      "id": 150218,
      "name": "هاراند",
      "name_default": "Harand",
      "native": "هانند",
      "type": "city",
      "level": null,
      "parent_id": null,
      "population": 7829,
      "latitude": "32.57486500",
      "longitude": "52.39937730",
      "timezone": "Asia/Tehran",
      "wikiDataId": "Q1528643",
      "country_code": "IR",
      "state_code": "10",
      "state_id": 3923,
      "country_id": 103
    },
    {
      "id": 150209,
      "name": "حسن آباد",
      "name_default": "Hassan Abad",
      "native": "قرن حسن",
      "type": "city",
      "level": null,
      "parent_id": null,
      "population": null,
      "latitude": "32.13927970",
      "longitude": "52.62129300",
      "timezone": "Asia/Tehran",
      "wikiDataId": "Q1166594",
      "country_code": "IR",
      "state_code": "10",
      "state_id": 3923,
      "country_id": 103
    },
    {
      "id": 150249,
      "name": "إيمانشهر",
      "name_default": "Imanshahr",
      "native": "امنشهر",
      "type": "city",
      "level": null,
      "parent_id": null,
      "population": 14633,
      "latitude": "32.48392420",
      "longitude": "51.43493040",
      "timezone": "Asia/Tehran",
      "wikiDataId": "Q2613888",
      "country_code": "IR",
      "state_code": "10",
      "state_id": 3923,
      "country_id": 103
    },
    {
      "id": 134656,
      "name": "أصفهان",
      "name_default": "Isfahan",
      "native": "اشفاهان",
      "type": "adm1",
      "level": null,
      "parent_id": null,
      "population": 1547164,
      "latitude": "32.65246000",
      "longitude": "51.67462000",
      "timezone": "Asia/Tehran",
      "wikiDataId": "Q42053",
      "country_code": "IR",
      "state_code": "10",
      "state_id": 3923,
      "country_id": 103
    },
    {
      "id": 150234,
      "name": "جندق",
      "name_default": "Jandaq",
      "native": "جندا",
      "type": "city",
      "level": null,
      "parent_id": null,
      "population": 4665,
      "latitude": "34.04261310",
      "longitude": "54.40511230",
      "timezone": "Asia/Tehran",
      "wikiDataId": "Q4372887",
      "country_code": "IR",
      "state_code": "10",
      "state_id": 3923,
      "country_id": 103
    },
    {
      "id": 150256,
      "name": "جوشيكانيكالي",
      "name_default": "Josheqaneqali",
      "native": "جاشانقالی",
      "type": "city",
      "level": null,
      "parent_id": null,
      "population": null,
      "latitude": "33.55601380",
      "longitude": "51.13534680",
      "timezone": "Asia/Tehran",
      "wikiDataId": null,
      "country_code": "IR",
      "state_code": "10",
      "state_id": 3923,
      "country_id": 103
    },
    {
      "id": 150258,
      "name": "Jowsheqan va Kamu",
      "name_default": "Jowsheqan va Kamu",
      "native": "جوشقان و کامو",
      "type": "city",
      "level": null,
      "parent_id": null,
      "population": null,
      "latitude": "33.60000000",
      "longitude": "51.23333300",
      "timezone": "Asia/Tehran",
      "wikiDataId": "Q2613901",
      "country_code": "IR",
      "state_code": "10",
      "state_id": 3923,
      "country_id": 103
    },
    {
      "id": 150280,
      "name": "جوزدان",
      "name_default": "Jowzdan",
      "native": "از جواهرات",
      "type": "city",
      "level": null,
      "parent_id": null,
      "population": 6998,
      "latitude": "32.55601720",
      "longitude": "51.35696400",
      "timezone": "Asia/Tehran",
      "wikiDataId": "Q81027",
      "country_code": "IR",
      "state_code": "10",
      "state_id": 3923,
      "country_id": 103
    },
    {
      "id": 150283,
      "name": "كهريزسانغ",
      "name_default": "Kahrizsang",
      "native": "قاهره",
      "type": "city",
      "level": null,
      "parent_id": null,
      "population": null,
      "latitude": "32.63252520",
      "longitude": "51.46807190",
      "timezone": "Asia/Tehran",
      "wikiDataId": "Q81020",
      "country_code": "IR",
      "state_code": "10",
      "state_id": 3923,
      "country_id": 103
    },
    {
      "id": 150275,
      "name": "كركيفاند",
      "name_default": "Karkevand",
      "native": "کارکواند",
      "type": "city",
      "level": null,
      "parent_id": null,
      "population": 7058,
      "latitude": "32.34227880",
      "longitude": "51.43751610",
      "timezone": "Asia/Tehran",
      "wikiDataId": "Q81234",
      "country_code": "IR",
      "state_code": "10",
      "state_id": 3923,
      "country_id": 103
    },
    {
      "id": 134935,
      "name": "كاشان",
      "name_default": "Kashan",
      "native": "است",
      "type": "city",
      "level": null,
      "parent_id": null,
      "population": 304487,
      "latitude": "33.88333000",
      "longitude": "51.28333000",
      "timezone": "Asia/Tehran",
      "wikiDataId": "Q1264551",
      "country_code": "IR",
      "state_code": "10",
      "state_id": 3923,
      "country_id": 103
    },
    {
      "id": 150254,
      "name": "كيليشاد وسودرجان",
      "name_default": "Kelishad and Soderjaan",
      "native": "کلیشاد و سودرجان",
      "type": "city",
      "level": null,
      "parent_id": null,
      "population": null,
      "latitude": "32.55185850",
      "longitude": "51.52158730",
      "timezone": "Asia/Tehran",
      "wikiDataId": null,
      "country_code": "IR",
      "state_code": "10",
      "state_id": 3923,
      "country_id": 103
    },
    {
      "id": 134666,
      "name": "Kelishad va Sudarjan",
      "name_default": "Kelishad va Sudarjan",
      "native": "قابل مذاکره و سیلو",
      "type": "city",
      "level": null,
      "parent_id": null,
      "population": 33630,
      "latitude": "32.55118000",
      "longitude": "51.52758000",
      "timezone": "Asia/Tehran",
      "wikiDataId": "Q2614223",
      "country_code": "IR",
      "state_code": "10",
      "state_id": 3923,
      "country_id": 103
    },
    {
      "id": 150286,
      "name": "خالد آباد",
      "name_default": "Khaled Abad",
      "native": "خالد آباد",
      "type": "city",
      "level": null,
      "parent_id": null,
      "population": null,
      "latitude": "33.70071610",
      "longitude": "51.98288430",
      "timezone": "Asia/Tehran",
      "wikiDataId": null,
      "country_code": "IR",
      "state_code": "10",
      "state_id": 3923,
      "country_id": 103
    },
    {
      "id": 150233,
      "name": "خنصار",
      "name_default": "Khansar",
      "native": "خانکار",
      "type": "city",
      "level": null,
      "parent_id": null,
      "population": null,
      "latitude": "33.26748190",
      "longitude": "50.24871590",
      "timezone": "Asia/Tehran",
      "wikiDataId": "Q6400402",
      "country_code": "IR",
      "state_code": "10",
      "state_id": 3923,
      "country_id": 103
    },
    {
      "id": 134672,
      "name": "شهر الخميني",
      "name_default": "Khomeyni Shahr",
      "native": "خمیینی شاه",
      "type": "adm2",
      "level": null,
      "parent_id": null,
      "population": 247128,
      "latitude": "32.68560000",
      "longitude": "51.53609000",
      "timezone": "Asia/Tehran",
      "wikiDataId": "Q720001",
      "country_code": "IR",
      "state_code": "10",
      "state_id": 3923,
      "country_id": 103
    },
    {
      "id": 150220,
      "name": "خورزو",
      "name_default": "Khorzugh",
      "native": "خاردار",
      "type": "city",
      "level": null,
      "parent_id": null,
      "population": null,
      "latitude": "32.78003800",
      "longitude": "51.62544240",
      "timezone": "Asia/Tehran",
      "wikiDataId": null,
      "country_code": "IR",
      "state_code": "10",
      "state_id": 3923,
      "country_id": 103
    },
    {
      "id": 134680,
      "name": "خور",
      "name_default": "Khur",
      "native": "کز کردن",
      "type": "adm2",
      "level": null,
      "parent_id": null,
      "population": 0,
      "latitude": "33.77512000",
      "longitude": "55.08329000",
      "timezone": "Asia/Tehran",
      "wikiDataId": "Q2409254",
      "country_code": "IR",
      "state_code": "10",
      "state_id": 3923,
      "country_id": 103
    },
    {
      "id": 134677,
      "name": "خوانسار",
      "name_default": "Khvansar",
      "native": "وابسته به کلیسا",
      "type": "adm2",
      "level": null,
      "parent_id": null,
      "population": 21883,
      "latitude": "33.22052000",
      "longitude": "50.31497000",
      "timezone": "Asia/Tehran",
      "wikiDataId": "Q2718227",
      "country_code": "IR",
      "state_code": "10",
      "state_id": 3923,
      "country_id": 103
    },
    {
      "id": 150239,
      "name": "كوميه",
      "name_default": "Komeh",
      "native": "کومه",
      "type": "city",
      "level": null,
      "parent_id": null,
      "population": 2184,
      "latitude": "31.06320870",
      "longitude": "51.58456560",
      "timezone": "Asia/Tehran",
      "wikiDataId": "Q81015",
      "country_code": "IR",
      "state_code": "10",
      "state_id": 3923,
      "country_id": 103
    },
    {
      "id": 150225,
      "name": "كومشيشة",
      "name_default": "Komshecheh",
      "native": "محفوظ",
      "type": "city",
      "level": null,
      "parent_id": null,
      "population": null,
      "latitude": "32.90664920",
      "longitude": "51.80178170",
      "timezone": "Asia/Tehran",
      "wikiDataId": "Q4358642",
      "country_code": "IR",
      "state_code": "10",
      "state_id": 3923,
      "country_id": 103
    },
    {
      "id": 150232,
      "name": "كوشك",
      "name_default": "Kooshk",
      "native": "بازو",
      "type": "city",
      "level": null,
      "parent_id": null,
      "population": null,
      "latitude": "32.63866920",
      "longitude": "51.49090280",
      "timezone": "Asia/Tehran",
      "wikiDataId": "Q5667286",
      "country_code": "IR",
      "state_code": "10",
      "state_id": 3923,
      "country_id": 103
    },
    {
      "id": 150213,
      "name": "كوهبايه",
      "name_default": "Kuhpayeh",
      "native": "کوهپای",
      "type": "city",
      "level": null,
      "parent_id": null,
      "population": 5518,
      "latitude": "32.70287470",
      "longitude": "52.42220820",
      "timezone": "Asia/Tehran",
      "wikiDataId": "Q4357648",
      "country_code": "IR",
      "state_code": "10",
      "state_id": 3923,
      "country_id": 103
    },
    {
      "id": 150243,
      "name": "لايبيد",
      "name_default": "Laybid",
      "native": "بی نظیر",
      "type": "city",
      "level": null,
      "parent_id": null,
      "population": null,
      "latitude": "33.45682060",
      "longitude": "50.68666930",
      "timezone": "Asia/Tehran",
      "wikiDataId": "Q5812633",
      "country_code": "IR",
      "state_code": "10",
      "state_id": 3923,
      "country_id": 103
    },
    {
      "id": 134942,
      "name": "لينجان",
      "name_default": "Lenjan",
      "native": "بخش",
      "type": "city",
      "level": null,
      "parent_id": null,
      "population": 262912,
      "latitude": "32.36667000",
      "longitude": "51.20000000",
      "timezone": "Asia/Tehran",
      "wikiDataId": "Q1264551",
      "country_code": "IR",
      "state_code": "10",
      "state_id": 3923,
      "country_id": 103
    },
    {
      "id": 150205,
      "name": "مهاباد",
      "name_default": "Mahabad",
      "native": "ماه آباد",
      "type": "city",
      "level": null,
      "parent_id": null,
      "population": 236849,
      "latitude": "33.52890960",
      "longitude": "52.21336130",
      "timezone": "Asia/Tehran",
      "wikiDataId": "Q335518",
      "country_code": "IR",
      "state_code": "10",
      "state_id": 3923,
      "country_id": 103
    },
    {
      "id": 150276,
      "name": "مجلسي",
      "name_default": "Majlesi",
      "native": "سعادت",
      "type": "city",
      "level": null,
      "parent_id": null,
      "population": null,
      "latitude": "32.19536780",
      "longitude": "51.48369300",
      "timezone": "Asia/Tehran",
      "wikiDataId": "Q6737939",
      "country_code": "IR",
      "state_code": "10",
      "state_id": 3923,
      "country_id": 103
    },
    {
      "id": 150245,
      "name": "منظرية",
      "name_default": "Manzariyeh",
      "native": "چشم انداز",
      "type": "city",
      "level": null,
      "parent_id": null,
      "population": 7164,
      "latitude": "31.94638130",
      "longitude": "51.87130450",
      "timezone": "Asia/Tehran",
      "wikiDataId": "Q80822",
      "country_code": "IR",
      "state_code": "10",
      "state_id": 3923,
      "country_id": 103
    },
    {
      "id": 150259,
      "name": "مشكاة",
      "name_default": "Mashkat",
      "native": "مشعل",
      "type": "city",
      "level": null,
      "parent_id": null,
      "population": null,
      "latitude": "34.18385200",
      "longitude": "51.25709940",
      "timezone": "Asia/Tehran",
      "wikiDataId": null,
      "country_code": "IR",
      "state_code": "10",
      "state_id": 3923,
      "country_id": 103
    },
    {
      "id": 135043,
      "name": "ميميه",
      "name_default": "Meymeh",
      "native": "میم",
      "type": "city",
      "level": null,
      "parent_id": null,
      "population": 5651,
      "latitude": "33.44504910",
      "longitude": "51.16345880",
      "timezone": "Asia/Tehran",
      "wikiDataId": "Q1286233",
      "country_code": "IR",
      "state_code": "10",
      "state_id": 3923,
      "country_id": 103
    },
    {
      "id": 134703,
      "name": "مباركة",
      "name_default": "Mobarakeh",
      "native": "مباحث",
      "type": "adm2",
      "level": null,
      "parent_id": null,
      "population": 0,
      "latitude": "32.34651000",
      "longitude": "51.50449000",
      "timezone": "Asia/Tehran",
      "wikiDataId": "Q81440",
      "country_code": "IR",
      "state_code": "10",
      "state_id": 3923,
      "country_id": 103
    },
    {
      "id": 150214,
      "name": "محمد آباد",
      "name_default": "Mohammad Abad",
      "native": "قرن محمد",
      "type": "city",
      "level": null,
      "parent_id": null,
      "population": null,
      "latitude": "32.31742670",
      "longitude": "52.09172950",
      "timezone": "Asia/Tehran",
      "wikiDataId": "Q428697",
      "country_code": "IR",
      "state_code": "10",
      "state_id": 3923,
      "country_id": 103
    },
    {
      "id": 150279,
      "name": "نائين",
      "name_default": "Naein",
      "native": "نایین",
      "type": "adm2",
      "level": null,
      "parent_id": null,
      "population": null,
      "latitude": "32.86148940",
      "longitude": "53.07443600",
      "timezone": "Asia/Tehran",
      "wikiDataId": null,
      "country_code": "IR",
      "state_code": "10",
      "state_id": 3923,
      "country_id": 103
    },
    {
      "id": 134718,
      "name": "نين",
      "name_default": "Nain",
      "native": "ناله کردن",
      "type": "adm2",
      "level": null,
      "parent_id": null,
      "population": 0,
      "latitude": "32.86006000",
      "longitude": "53.08749000",
      "timezone": "Asia/Tehran",
      "wikiDataId": "Q720388",
      "country_code": "IR",
      "state_code": "10",
      "state_id": 3923,
      "country_id": 103
    },
    {
      "id": 134707,
      "name": "نجف آباد",
      "name_default": "Najafabad",
      "native": "ناجایف آباد",
      "type": "adm2",
      "level": null,
      "parent_id": null,
      "population": 235281,
      "latitude": "32.63440000",
      "longitude": "51.36680000",
      "timezone": "Asia/Tehran",
      "wikiDataId": "Q721198",
      "country_code": "IR",
      "state_code": "10",
      "state_id": 3923,
      "country_id": 103
    },
    {
      "id": 150215,
      "name": "نصر آباد",
      "name_default": "Nasr Abad",
      "native": "نصر آباد",
      "type": "city",
      "level": null,
      "parent_id": null,
      "population": null,
      "latitude": "32.28016610",
      "longitude": "52.05294370",
      "timezone": "Asia/Tehran",
      "wikiDataId": "Q3870506",
      "country_code": "IR",
      "state_code": "10",
      "state_id": 3923,
      "country_id": 103
    },
    {
      "id": 134711,
      "name": "نطنز",
      "name_default": "Natanz",
      "native": "ناتانز",
      "type": "adm2",
      "level": null,
      "parent_id": null,
      "population": 43977,
      "latitude": "33.51118000",
      "longitude": "51.91808000",
      "timezone": "Asia/Tehran",
      "wikiDataId": "Q124669",
      "country_code": "IR",
      "state_code": "10",
      "state_id": 3923,
      "country_id": 103
    },
    {
      "id": 150260,
      "name": "نياسار",
      "name_default": "Niasar",
      "native": "ناار",
      "type": "city",
      "level": null,
      "parent_id": null,
      "population": 2319,
      "latitude": "33.97745700",
      "longitude": "51.14122850",
      "timezone": "Asia/Tehran",
      "wikiDataId": "Q4359629",
      "country_code": "IR",
      "state_code": "10",
      "state_id": 3923,
      "country_id": 103
    },
    {
      "id": 150216,
      "name": "نيك آباد",
      "name_default": "Nik Abad",
      "native": "قرن نیک",
      "type": "city",
      "level": null,
      "parent_id": null,
      "population": null,
      "latitude": "32.30380070",
      "longitude": "52.18973630",
      "timezone": "Asia/Tehran",
      "wikiDataId": null,
      "country_code": "IR",
      "state_code": "10",
      "state_id": 3923,
      "country_id": 103
    },
    {
      "id": 150203,
      "name": "نوش آباد",
      "name_default": "Nushabad",
      "native": "نوش آباد",
      "type": "city",
      "level": null,
      "parent_id": null,
      "population": 11838,
      "latitude": "34.07957060",
      "longitude": "51.42786020",
      "timezone": "Asia/Tehran",
      "wikiDataId": "Q1764166",
      "country_code": "IR",
      "state_code": "10",
      "state_id": 3923,
      "country_id": 103
    },
    {
      "id": 150251,
      "name": "بير باكران",
      "name_default": "Pir Bakran",
      "native": "پیر باکران",
      "type": "city",
      "level": null,
      "parent_id": null,
      "population": 13469,
      "latitude": "32.46747760",
      "longitude": "51.53905380",
      "timezone": "Asia/Tehran",
      "wikiDataId": "Q2614187",
      "country_code": "IR",
      "state_code": "10",
      "state_id": 3923,
      "country_id": 103
    },
    {
      "id": 134735,
      "name": "قهدريجان",
      "name_default": "Qahderijan",
      "native": "قاهرهجان",
      "type": "city",
      "level": null,
      "parent_id": null,
      "population": 34226,
      "latitude": "32.57670000",
      "longitude": "51.45500000",
      "timezone": "Asia/Tehran",
      "wikiDataId": "Q2614246",
      "country_code": "IR",
      "state_code": "10",
      "state_id": 3923,
      "country_id": 103
    },
    {
      "id": 150212,
      "name": "قهجافارستان",
      "name_default": "Qahjavarestan",
      "native": "قهجاورستان",
      "type": "city",
      "level": null,
      "parent_id": null,
      "population": null,
      "latitude": "32.70272036",
      "longitude": "51.82802440",
      "timezone": "Asia/Tehran",
      "wikiDataId": "Q3926338",
      "country_code": "IR",
      "state_code": "10",
      "state_id": 3923,
      "country_id": 103
    },
    {
      "id": 134751,
      "name": "رينان",
      "name_default": "Rehnan",
      "native": "مجدداً",
      "type": "city",
      "level": null,
      "parent_id": null,
      "population": 49143,
      "latitude": "32.68325000",
      "longitude": "51.60158000",
      "timezone": "Asia/Tehran",
      "wikiDataId": "Q178373",
      "country_code": "IR",
      "state_code": "10",
      "state_id": 3923,
      "country_id": 103
    },
    {
      "id": 150227,
      "name": "رضوانشهر",
      "name_default": "Rezvanshahr",
      "native": "رضانشاهر",
      "type": "city",
      "level": null,
      "parent_id": null,
      "population": 19519,
      "latitude": "32.66581050",
      "longitude": "51.02359710",
      "timezone": "Asia/Tehran",
      "wikiDataId": "Q14474772",
      "country_code": "IR",
      "state_code": "10",
      "state_id": 3923,
      "country_id": 103
    },
    {
      "id": 150229,
      "name": "رزفه",
      "name_default": "Rezveh",
      "native": "گرای",
      "type": "city",
      "level": null,
      "parent_id": null,
      "population": null,
      "latitude": "32.83687710",
      "longitude": "50.56521890",
      "timezone": "Asia/Tehran",
      "wikiDataId": "Q2407813",
      "country_code": "IR",
      "state_code": "10",
      "state_id": 3923,
      "country_id": 103
    },
    {
      "id": 150269,
      "name": "سيده لنجان",
      "name_default": "Sedeh Lenjan",
      "native": "ناهار",
      "type": "city",
      "level": null,
      "parent_id": null,
      "population": 19101,
      "latitude": "32.37447790",
      "longitude": "51.30912400",
      "timezone": "Asia/Tehran",
      "wikiDataId": "Q81028",
      "country_code": "IR",
      "state_code": "10",
      "state_id": 3923,
      "country_id": 103
    },
    {
      "id": 150202,
      "name": "سفيد شهر",
      "name_default": "Sefid Shahr",
      "native": "سفر شاهر",
      "type": "city",
      "level": null,
      "parent_id": null,
      "population": null,
      "latitude": "34.12406120",
      "longitude": "51.34705070",
      "timezone": "Asia/Tehran",
      "wikiDataId": null,
      "country_code": "IR",
      "state_code": "10",
      "state_id": 3923,
      "country_id": 103
    },
    {
      "id": 150211,
      "name": "سيجزي",
      "name_default": "Sejzi",
      "native": "سمی",
      "type": "city",
      "level": null,
      "parent_id": null,
      "population": 0,
      "latitude": "32.69866640",
      "longitude": "52.06674040",
      "timezone": "Asia/Tehran",
      "wikiDataId": "Q368625",
      "country_code": "IR",
      "state_code": "10",
      "state_id": 3923,
      "country_id": 103
    },
    {
      "id": 135034,
      "name": "سيميروم",
      "name_default": "Semirom",
      "native": "نیم رو",
      "type": "city",
      "level": null,
      "parent_id": null,
      "population": 74109,
      "latitude": "31.30000000",
      "longitude": "51.53333000",
      "timezone": "Asia/Tehran",
      "wikiDataId": "Q2718234",
      "country_code": "IR",
      "state_code": "10",
      "state_id": 3923,
      "country_id": 103
    },
    {
      "id": 135111,
      "name": "شاهين شهر",
      "name_default": "Shahin Shahr",
      "native": "شاهین شاه",
      "type": "adm2",
      "level": null,
      "parent_id": null,
      "population": 173329,
      "latitude": "32.85788000",
      "longitude": "51.55290000",
      "timezone": "Asia/Tehran",
      "wikiDataId": "Q862105",
      "country_code": "IR",
      "state_code": "10",
      "state_id": 3923,
      "country_id": 103
    },
    {
      "id": 135104,
      "name": "شهرزة",
      "name_default": "Shahreza",
      "native": "شاهرزا",
      "type": "adm2",
      "level": null,
      "parent_id": null,
      "population": 134952,
      "latitude": "32.00890000",
      "longitude": "51.86680000",
      "timezone": "Asia/Tehran",
      "wikiDataId": "Q765571",
      "country_code": "IR",
      "state_code": "10",
      "state_id": 3923,
      "country_id": 103
    },
    {
      "id": 150224,
      "name": "شابور آباد",
      "name_default": "Shapur Abad",
      "native": "شاپور آباد",
      "type": "city",
      "level": null,
      "parent_id": null,
      "population": null,
      "latitude": "32.84337640",
      "longitude": "51.73918970",
      "timezone": "Asia/Tehran",
      "wikiDataId": null,
      "country_code": "IR",
      "state_code": "10",
      "state_id": 3923,
      "country_id": 103
    },
    {
      "id": 150223,
      "name": "الخطيئة",
      "name_default": "Sin",
      "native": "گناه",
      "type": "adm1",
      "level": null,
      "parent_id": null,
      "population": null,
      "latitude": "32.85028040",
      "longitude": "51.64761890",
      "timezone": "Asia/Tehran",
      "wikiDataId": "Q60227",
      "country_code": "IR",
      "state_code": "10",
      "state_id": 3923,
      "country_id": 103
    },
    {
      "id": 150274,
      "name": "تالكونتشيه",
      "name_default": "Talkhooncheh",
      "native": "طالخونچه",
      "type": "adm2",
      "level": null,
      "parent_id": null,
      "population": null,
      "latitude": "32.24999310",
      "longitude": "51.51884030",
      "timezone": "Asia/Tehran",
      "wikiDataId": null,
      "country_code": "IR",
      "state_code": "10",
      "state_id": 3923,
      "country_id": 103
    },
    {
      "id": 150287,
      "name": "طريق الطرد",
      "name_default": "Tarq Rud",
      "native": "طرق رود",
      "type": "city",
      "level": null,
      "parent_id": null,
      "population": null,
      "latitude": "33.34682690",
      "longitude": "51.79114390",
      "timezone": "Asia/Tehran",
      "wikiDataId": "Q5950599",
      "country_code": "IR",
      "state_code": "10",
      "state_id": 3923,
      "country_id": 103
    },
    {
      "id": 135136,
      "name": "تيران",
      "name_default": "Tiran",
      "native": "اژدها",
      "type": "adm2",
      "level": null,
      "parent_id": null,
      "population": 21703,
      "latitude": "32.70260000",
      "longitude": "51.15370000",
      "timezone": "Asia/Tehran",
      "wikiDataId": "Q2633350",
      "country_code": "IR",
      "state_code": "10",
      "state_id": 3923,
      "country_id": 103
    },
    {
      "id": 150208,
      "name": "توديشك",
      "name_default": "Toodeshk",
      "native": "ابله",
      "type": "city",
      "level": null,
      "parent_id": null,
      "population": null,
      "latitude": "32.72089190",
      "longitude": "52.65622610",
      "timezone": "Asia/Tehran",
      "wikiDataId": "Q4362517",
      "country_code": "IR",
      "state_code": "10",
      "state_id": 3923,
      "country_id": 103
    },
    {
      "id": 150240,
      "name": "فاناك",
      "name_default": "Vanak",
      "native": "وقن",
      "type": "city",
      "level": null,
      "parent_id": null,
      "population": 0,
      "latitude": "31.52755750",
      "longitude": "51.32147620",
      "timezone": "Asia/Tehran",
      "wikiDataId": "Q1001820",
      "country_code": "IR",
      "state_code": "10",
      "state_id": 3923,
      "country_id": 103
    },
    {
      "id": 150271,
      "name": "فارنامخاست",
      "name_default": "Varnamkhast",
      "native": "لاکره",
      "type": "adm2",
      "level": null,
      "parent_id": null,
      "population": 18700,
      "latitude": "32.35522120",
      "longitude": "51.37205960",
      "timezone": "Asia/Tehran",
      "wikiDataId": "Q80812",
      "country_code": "IR",
      "state_code": "10",
      "state_id": 3923,
      "country_id": 103
    },
    {
      "id": 150217,
      "name": "فارزانه",
      "name_default": "Varzaneh",
      "native": "جوش",
      "type": "city",
      "level": null,
      "parent_id": null,
      "population": 12714,
      "latitude": "32.41767450",
      "longitude": "52.63817870",
      "timezone": "Asia/Tehran",
      "wikiDataId": "Q2613914",
      "country_code": "IR",
      "state_code": "10",
      "state_id": 3923,
      "country_id": 103
    },
    {
      "id": 150244,
      "name": "فازفان",
      "name_default": "Vazvan",
      "native": "وازوان",
      "type": "city",
      "level": null,
      "parent_id": null,
      "population": 5952,
      "latitude": "33.41799110",
      "longitude": "51.17397300",
      "timezone": "Asia/Tehran",
      "wikiDataId": "Q80820",
      "country_code": "IR",
      "state_code": "10",
      "state_id": 3923,
      "country_id": 103
    },
    {
      "id": 150268,
      "name": "زارينشهر",
      "name_default": "Zarinshahr",
      "native": "زرینشدر",
      "type": "adm2",
      "level": null,
      "parent_id": null,
      "population": null,
      "latitude": "32.41176360",
      "longitude": "51.36318620",
      "timezone": "Asia/Tehran",
      "wikiDataId": null,
      "country_code": "IR",
      "state_code": "10",
      "state_id": 3923,
      "country_id": 103
    },
    {
      "id": 135144,
      "name": "زرين شهر",
      "name_default": "Zarrin Shahr",
      "native": "شهر جری",
      "type": "adm2",
      "level": null,
      "parent_id": null,
      "population": 0,
      "latitude": "32.38970000",
      "longitude": "51.37660000",
      "timezone": "Asia/Tehran",
      "wikiDataId": "Q765759",
      "country_code": "IR",
      "state_code": "10",
      "state_id": 3923,
      "country_id": 103
    },
    {
      "id": 150204,
      "name": "زواره",
      "name_default": "Zavareh",
      "native": "جوش",
      "type": "city",
      "level": null,
      "parent_id": null,
      "population": 8320,
      "latitude": "33.44411680",
      "longitude": "52.46542430",
      "timezone": "Asia/Tehran",
      "wikiDataId": "Q2614183",
      "country_code": "IR",
      "state_code": "10",
      "state_id": 3923,
      "country_id": 103
    },
    {
      "id": 150267,
      "name": "زايندهرود",
      "name_default": "Zayandehrod",
      "native": "زائنده",
      "type": "city",
      "level": null,
      "parent_id": null,
      "population": null,
      "latitude": "32.38257720",
      "longitude": "51.25747000",
      "timezone": "Asia/Tehran",
      "wikiDataId": "Q16904383",
      "country_code": "IR",
      "state_code": "10",
      "state_id": 3923,
      "country_id": 103
    },
    {
      "id": 150252,
      "name": "زازران",
      "name_default": "Zazeran",
      "native": "در زازا",
      "type": "adm2",
      "level": null,
      "parent_id": null,
      "population": 7962,
      "latitude": "32.59599600",
      "longitude": "51.48399340",
      "timezone": "Asia/Tehran",
      "wikiDataId": "Q2351813",
      "country_code": "IR",
      "state_code": "10",
      "state_id": 3923,
      "country_id": 103
    },
    {
      "id": 150210,
      "name": "زيار",
      "name_default": "Ziar",
      "native": "روزنامه",
      "type": "city",
      "level": null,
      "parent_id": null,
      "population": null,
      "latitude": "32.51124460",
      "longitude": "51.92680470",
      "timezone": "Asia/Tehran",
      "wikiDataId": "Q8071345",
      "country_code": "IR",
      "state_code": "10",
      "state_id": 3923,
      "country_id": 103
    },
    {
      "id": 150273,
      "name": "زيباشهر",
      "name_default": "Zibashahr",
      "native": "زیباشهر",
      "type": "adm2",
      "level": null,
      "parent_id": null,
      "population": null,
      "latitude": "32.38680810",
      "longitude": "51.54482590",
      "timezone": "Asia/Tehran",
      "wikiDataId": "Q80830",
      "country_code": "IR",
      "state_code": "10",
      "state_id": 3923,
      "country_id": 103
    }
  ]
}
