{
  "locale": "nl",
  "country": {
    "id": 156,
    "code": "NL",
    "iso3": "NLD",
    "numeric_code": "528",
    "name": "Nederland",
    "name_default": "Netherlands",
    "native": "Nederland",
    "capital": "Amsterdam",
    "phonecode": "31",
    "currency": "EUR",
    "currency_name": "Euro",
    "currency_symbol": "€",
    "tld": ".nl",
    "population": 18080943,
    "gdp": 1272011,
    "region": "Europe",
    "region_id": 4,
    "subregion": "Western Europe",
    "subregion_id": 17,
    "nationality": "Dutch, Netherlandic",
    "timezones": [
      {
        "zoneName": "Europe/Amsterdam",
        "gmtOffset": 3600,
        "gmtOffsetName": "UTC+01:00",
        "abbreviation": "CET",
        "tzName": "Central European Time"
      }
    ],
    "latitude": "52.50000000",
    "longitude": "5.75000000",
    "emoji": "🇳🇱",
    "emojiU": "U+1F1F3 U+1F1F1"
  },
  "state": {
    "id": 2618,
    "code": "OV",
    "iso2": "OV",
    "iso3166_2": "NL-OV",
    "fips_code": "15",
    "name": "Overijssel",
    "name_default": "Overijssel",
    "native": "Overijssel",
    "type": "province",
    "level": "1",
    "parent_id": null,
    "population": 1184333,
    "latitude": "52.42541430",
    "longitude": "6.46106110",
    "timezone": "Europe/Amsterdam",
    "wikiDataId": "Q773",
    "country_code": "NL"
  },
  "cities": [
    {
      "id": 77326,
      "name": "Almelo",
      "name_default": "Almelo",
      "native": "Almelo",
      "type": "city",
      "level": null,
      "parent_id": null,
      "population": 73132,
      "latitude": "52.35667000",
      "longitude": "6.66250000",
      "timezone": "Europe/Amsterdam",
      "wikiDataId": "Q33421017",
      "country_code": "NL",
      "state_code": "OV",
      "state_id": 2618,
      "country_id": 156
    },
    {
      "id": 77363,
      "name": "Baalder",
      "name_default": "Baalder",
      "native": "Baalder",
      "type": "city",
      "level": null,
      "parent_id": null,
      "population": 3470,
      "latitude": "52.58579000",
      "longitude": "6.65299000",
      "timezone": "Europe/Amsterdam",
      "wikiDataId": "Q1616240",
      "country_code": "NL",
      "state_code": "OV",
      "state_id": 2618,
      "country_id": 156
    },
    {
      "id": 77418,
      "name": "Berkum",
      "name_default": "Berkum",
      "native": "Berkum",
      "type": "section",
      "level": null,
      "parent_id": null,
      "population": 3720,
      "latitude": "52.52395000",
      "longitude": "6.13655000",
      "timezone": "Europe/Amsterdam",
      "wikiDataId": "Q2272260",
      "country_code": "NL",
      "state_code": "OV",
      "state_id": 2618,
      "country_id": 156
    },
    {
      "id": 77446,
      "name": "Blokzijl",
      "name_default": "Blokzijl",
      "native": "Blokzijl",
      "type": "city",
      "level": null,
      "parent_id": null,
      "population": 1110,
      "latitude": "52.72667000",
      "longitude": "5.96111000",
      "timezone": "Europe/Amsterdam",
      "wikiDataId": "Q59605",
      "country_code": "NL",
      "state_code": "OV",
      "state_id": 2618,
      "country_id": 156
    },
    {
      "id": 77455,
      "name": "Borgele",
      "name_default": "Borgele",
      "native": "Burkee",
      "type": "section",
      "level": null,
      "parent_id": null,
      "population": 3580,
      "latitude": "52.27630000",
      "longitude": "6.14926000",
      "timezone": "Europe/Amsterdam",
      "wikiDataId": "Q1025685",
      "country_code": "NL",
      "state_code": "OV",
      "state_id": 2618,
      "country_id": 156
    },
    {
      "id": 77459,
      "name": "Geboren",
      "name_default": "Borne",
      "native": "Gedragen",
      "type": "adm2",
      "level": null,
      "parent_id": null,
      "population": 23668,
      "latitude": "52.30136000",
      "longitude": "6.74820000",
      "timezone": "Europe/Amsterdam",
      "wikiDataId": "Q502343",
      "country_code": "NL",
      "state_code": "OV",
      "state_id": 2618,
      "country_id": 156
    },
    {
      "id": 77462,
      "name": "Boskamp",
      "name_default": "Boskamp",
      "native": "Boskamp",
      "type": "city",
      "level": null,
      "parent_id": null,
      "population": 1150,
      "latitude": "52.33083000",
      "longitude": "6.12778000",
      "timezone": "Europe/Amsterdam",
      "wikiDataId": "Q508326",
      "country_code": "NL",
      "state_code": "OV",
      "state_id": 2618,
      "country_id": 156
    },
    {
      "id": 77494,
      "name": "Brunnepe",
      "name_default": "Brunnepe",
      "native": "Brunnepe",
      "type": "section",
      "level": null,
      "parent_id": null,
      "population": 3780,
      "latitude": "52.56185000",
      "longitude": "5.90343000",
      "timezone": "Europe/Amsterdam",
      "wikiDataId": "Q16069702",
      "country_code": "NL",
      "state_code": "OV",
      "state_id": 2618,
      "country_id": 156
    },
    {
      "id": 77529,
      "name": "Dalfsen",
      "name_default": "Dalfsen",
      "native": "Dalfsen",
      "type": "city",
      "level": null,
      "parent_id": null,
      "population": 28901,
      "latitude": "52.51167000",
      "longitude": "6.25694000",
      "timezone": "Europe/Amsterdam",
      "wikiDataId": "Q15644904",
      "country_code": "NL",
      "state_code": "OV",
      "state_id": 2618,
      "country_id": 156
    },
    {
      "id": 77546,
      "name": "De Hoven",
      "name_default": "De Hoven",
      "native": "De Hoven",
      "type": "section",
      "level": null,
      "parent_id": null,
      "population": 2365,
      "latitude": "52.24901000",
      "longitude": "6.14367000",
      "timezone": "Europe/Amsterdam",
      "wikiDataId": "Q2993272",
      "country_code": "NL",
      "state_code": "OV",
      "state_id": 2618,
      "country_id": 156
    },
    {
      "id": 77566,
      "name": "Delden",
      "name_default": "Delden",
      "native": "Delden",
      "type": "city",
      "level": null,
      "parent_id": null,
      "population": 6920,
      "latitude": "52.26000000",
      "longitude": "6.71111000",
      "timezone": "Europe/Amsterdam",
      "wikiDataId": "Q1007172",
      "country_code": "NL",
      "state_code": "OV",
      "state_id": 2618,
      "country_id": 156
    },
    {
      "id": 77572,
      "name": "Den Ham",
      "name_default": "Den Ham",
      "native": "Het is hem",
      "type": "city",
      "level": null,
      "parent_id": null,
      "population": 1830,
      "latitude": "52.46583000",
      "longitude": "6.49583000",
      "timezone": "Europe/Amsterdam",
      "wikiDataId": "Q2594212",
      "country_code": "NL",
      "state_code": "OV",
      "state_id": 2618,
      "country_id": 156
    },
    {
      "id": 77576,
      "name": "Deventer",
      "name_default": "Deventer",
      "native": "Deventer",
      "type": "city",
      "level": null,
      "parent_id": null,
      "population": 101236,
      "latitude": "52.25500000",
      "longitude": "6.16389000",
      "timezone": "Europe/Amsterdam",
      "wikiDataId": "Q26296883",
      "country_code": "NL",
      "state_code": "OV",
      "state_id": 2618,
      "country_id": 156
    },
    {
      "id": 77578,
      "name": "Diepenheim",
      "name_default": "Diepenheim",
      "native": "Diepenheim",
      "type": "city",
      "level": null,
      "parent_id": null,
      "population": 1900,
      "latitude": "52.20000000",
      "longitude": "6.55556000",
      "timezone": "Europe/Amsterdam",
      "wikiDataId": "Q2243026",
      "country_code": "NL",
      "state_code": "OV",
      "state_id": 2618,
      "country_id": 156
    },
    {
      "id": 77662,
      "name": "Enschede",
      "name_default": "Enschede",
      "native": "Enschede",
      "type": "city",
      "level": null,
      "parent_id": null,
      "population": 159732,
      "latitude": "52.21833000",
      "longitude": "6.89583000",
      "timezone": "Europe/Amsterdam",
      "wikiDataId": "Q33435365",
      "country_code": "NL",
      "state_code": "OV",
      "state_id": 2618,
      "country_id": 156
    },
    {
      "id": 77677,
      "name": "Flevowijk",
      "name_default": "Flevowijk",
      "native": "Flevowijk",
      "type": "section",
      "level": null,
      "parent_id": null,
      "population": 3675,
      "latitude": "52.54583000",
      "longitude": "5.91338000",
      "timezone": "Europe/Amsterdam",
      "wikiDataId": "Q2483396",
      "country_code": "NL",
      "state_code": "OV",
      "state_id": 2618,
      "country_id": 156
    },
    {
      "id": 77679,
      "name": "Frankhuis",
      "name_default": "Frankhuis",
      "native": "Frankhouse",
      "type": "section",
      "level": null,
      "parent_id": null,
      "population": 6145,
      "latitude": "52.52500000",
      "longitude": "6.06806000",
      "timezone": "Europe/Amsterdam",
      "wikiDataId": "Q41974",
      "country_code": "NL",
      "state_code": "OV",
      "state_id": 2618,
      "country_id": 156
    },
    {
      "id": 78032,
      "name": "Giethoorn",
      "name_default": "Giethoorn",
      "native": "Giethoorn",
      "type": "city",
      "level": null,
      "parent_id": null,
      "population": 2130,
      "latitude": "52.74000000",
      "longitude": "6.07917000",
      "timezone": "Europe/Amsterdam",
      "wikiDataId": "Q1025664",
      "country_code": "NL",
      "state_code": "OV",
      "state_id": 2618,
      "country_id": 156
    },
    {
      "id": 78040,
      "name": "Goor",
      "name_default": "Goor",
      "native": "Weken",
      "type": "city",
      "level": null,
      "parent_id": null,
      "population": 12349,
      "latitude": "52.23333000",
      "longitude": "6.58611000",
      "timezone": "Europe/Amsterdam",
      "wikiDataId": "Q2054185",
      "country_code": "NL",
      "state_code": "OV",
      "state_id": 2618,
      "country_id": 156
    },
    {
      "id": 78050,
      "name": "Grafhorst",
      "name_default": "Grafhorst",
      "native": "Grafhorst",
      "type": "city",
      "level": null,
      "parent_id": null,
      "population": 1015,
      "latitude": "52.58250000",
      "longitude": "5.93333000",
      "timezone": "Europe/Amsterdam",
      "wikiDataId": "Q2793903",
      "country_code": "NL",
      "state_code": "OV",
      "state_id": 2618,
      "country_id": 156
    },
    {
      "id": 78075,
      "name": "Haaksbergen",
      "name_default": "Haaksbergen",
      "native": "Haaksbergen",
      "type": "city",
      "level": null,
      "parent_id": null,
      "population": 24229,
      "latitude": "52.15667000",
      "longitude": "6.73889000",
      "timezone": "Europe/Amsterdam",
      "wikiDataId": "Q18152317",
      "country_code": "NL",
      "state_code": "OV",
      "state_id": 2618,
      "country_id": 156
    },
    {
      "id": 78080,
      "name": "Haarle",
      "name_default": "Haarle",
      "native": "Haarle",
      "type": "city",
      "level": null,
      "parent_id": null,
      "population": 1045,
      "latitude": "52.35917000",
      "longitude": "6.38056000",
      "timezone": "Europe/Amsterdam",
      "wikiDataId": "Q2309125",
      "country_code": "NL",
      "state_code": "OV",
      "state_id": 2618,
      "country_id": 156
    },
    {
      "id": 78091,
      "name": "Hardenberg",
      "name_default": "Hardenberg",
      "native": "Hardenberg",
      "type": "city",
      "level": null,
      "parent_id": null,
      "population": 59689,
      "latitude": "52.57583000",
      "longitude": "6.61944000",
      "timezone": "Europe/Amsterdam",
      "wikiDataId": "Q10013",
      "country_code": "NL",
      "state_code": "OV",
      "state_id": 2618,
      "country_id": 156
    },
    {
      "id": 78099,
      "name": "Hasselt",
      "name_default": "Hasselt",
      "native": "Hasselt",
      "type": "city",
      "level": null,
      "parent_id": null,
      "population": 7170,
      "latitude": "52.59267000",
      "longitude": "6.09527000",
      "timezone": "Europe/Amsterdam",
      "wikiDataId": "Q81159",
      "country_code": "NL",
      "state_code": "OV",
      "state_id": 2618,
      "country_id": 156
    },
    {
      "id": 78131,
      "name": "Heino",
      "name_default": "Heino",
      "native": "Hei",
      "type": "city",
      "level": null,
      "parent_id": null,
      "population": 7930,
      "latitude": "52.43661000",
      "longitude": "6.23282000",
      "timezone": "Europe/Amsterdam",
      "wikiDataId": "Q1025670",
      "country_code": "NL",
      "state_code": "OV",
      "state_id": 2618,
      "country_id": 156
    },
    {
      "id": 78140,
      "name": "Hengelo",
      "name_default": "Hengelo",
      "native": "Hengelo",
      "type": "adm2",
      "level": null,
      "parent_id": null,
      "population": 82311,
      "latitude": "52.26583000",
      "longitude": "6.79306000",
      "timezone": "Europe/Amsterdam",
      "wikiDataId": "Q33444630",
      "country_code": "NL",
      "state_code": "OV",
      "state_id": 2618,
      "country_id": 156
    },
    {
      "id": 78142,
      "name": "Hengevelde",
      "name_default": "Hengevelde",
      "native": "Hengevelde",
      "type": "city",
      "level": null,
      "parent_id": null,
      "population": 1510,
      "latitude": "52.19917000",
      "longitude": "6.63611000",
      "timezone": "Europe/Amsterdam",
      "wikiDataId": "Q2419092",
      "country_code": "NL",
      "state_code": "OV",
      "state_id": 2618,
      "country_id": 156
    },
    {
      "id": 78150,
      "name": "Het Oostrik",
      "name_default": "Het Oostrik",
      "native": "Het Oostrik",
      "type": "city",
      "level": null,
      "parent_id": null,
      "population": 2380,
      "latitude": "52.25000000",
      "longitude": "6.21667000",
      "timezone": "Europe/Amsterdam",
      "wikiDataId": "Q2347830",
      "country_code": "NL",
      "state_code": "OV",
      "state_id": 2618,
      "country_id": 156
    },
    {
      "id": 78213,
      "name": "Kampen",
      "name_default": "Kampen",
      "native": "Overeenkomst",
      "type": "city",
      "level": null,
      "parent_id": null,
      "population": 48980,
      "latitude": "52.55500000",
      "longitude": "5.91111000",
      "timezone": "Europe/Amsterdam",
      "wikiDataId": "Q10014",
      "country_code": "NL",
      "state_code": "OV",
      "state_id": 2618,
      "country_id": 156
    },
    {
      "id": 78236,
      "name": "Klein Driene",
      "name_default": "Klein Driene",
      "native": "Klein Driene",
      "type": "section",
      "level": null,
      "parent_id": null,
      "population": 1470,
      "latitude": "52.26935000",
      "longitude": "6.81613000",
      "timezone": "Europe/Amsterdam",
      "wikiDataId": "Q2738719",
      "country_code": "NL",
      "state_code": "OV",
      "state_id": 2618,
      "country_id": 156
    },
    {
      "id": 78323,
      "name": "Losser",
      "name_default": "Losser",
      "native": "Losser",
      "type": "city",
      "level": null,
      "parent_id": null,
      "population": 22888,
      "latitude": "52.26083000",
      "longitude": "7.00417000",
      "timezone": "Europe/Amsterdam",
      "wikiDataId": "Q2184767",
      "country_code": "NL",
      "state_code": "OV",
      "state_id": 2618,
      "country_id": 156
    },
    {
      "id": 78342,
      "name": "Magele",
      "name_default": "Magele",
      "native": "Magel",
      "type": "city",
      "level": null,
      "parent_id": null,
      "population": 1020,
      "latitude": "52.46917000",
      "longitude": "6.52083000",
      "timezone": "Europe/Amsterdam",
      "wikiDataId": "Q1892693",
      "country_code": "NL",
      "state_code": "OV",
      "state_id": 2618,
      "country_id": 156
    },
    {
      "id": 78351,
      "name": "Markelo",
      "name_default": "Markelo",
      "native": "Markelo",
      "type": "city",
      "level": null,
      "parent_id": null,
      "population": 3785,
      "latitude": "52.23500000",
      "longitude": "6.49861000",
      "timezone": "Europe/Amsterdam",
      "wikiDataId": "Q852674",
      "country_code": "NL",
      "state_code": "OV",
      "state_id": 2618,
      "country_id": 156
    },
    {
      "id": 78375,
      "name": "Mekkelholt",
      "name_default": "Mekkelholt",
      "native": "Meccelholt",
      "type": "section",
      "level": null,
      "parent_id": null,
      "population": 2585,
      "latitude": "52.23645000",
      "longitude": "6.89058000",
      "timezone": "Europe/Amsterdam",
      "wikiDataId": "Q1007185",
      "country_code": "NL",
      "state_code": "OV",
      "state_id": 2618,
      "country_id": 156
    },
    {
      "id": 78448,
      "name": "Nieuwoord",
      "name_default": "Nieuwoord",
      "native": "Nieuwoord",
      "type": "locality",
      "level": null,
      "parent_id": null,
      "population": 1265,
      "latitude": "52.46667000",
      "longitude": "6.55000000",
      "timezone": "Europe/Amsterdam",
      "wikiDataId": "Q2483664",
      "country_code": "NL",
      "state_code": "OV",
      "state_id": 2618,
      "country_id": 156
    },
    {
      "id": 78456,
      "name": "Nijrees",
      "name_default": "Nijrees",
      "native": "Nijrees",
      "type": "section",
      "level": null,
      "parent_id": null,
      "population": 2235,
      "latitude": "52.33500000",
      "longitude": "6.66389000",
      "timezone": "Europe/Amsterdam",
      "wikiDataId": "Q2999962",
      "country_code": "NL",
      "state_code": "OV",
      "state_id": 2618,
      "country_id": 156
    },
    {
      "id": 78496,
      "name": "Oudemarkt",
      "name_default": "Oldemarkt",
      "native": "Oldemarkt",
      "type": "city",
      "level": null,
      "parent_id": null,
      "population": 2435,
      "latitude": "52.82083000",
      "longitude": "5.97500000",
      "timezone": "Europe/Amsterdam",
      "wikiDataId": "Q3117018",
      "country_code": "NL",
      "state_code": "OV",
      "state_id": 2618,
      "country_id": 156
    },
    {
      "id": 78497,
      "name": "Oldenzaal",
      "name_default": "Oldenzaal",
      "native": "Oldenzaal",
      "type": "city",
      "level": null,
      "parent_id": null,
      "population": 31701,
      "latitude": "52.31333000",
      "longitude": "6.92917000",
      "timezone": "Europe/Amsterdam",
      "wikiDataId": "Q33469242",
      "country_code": "NL",
      "state_code": "OV",
      "state_id": 2618,
      "country_id": 156
    },
    {
      "id": 78498,
      "name": "Olst",
      "name_default": "Olst",
      "native": "Olst",
      "type": "city",
      "level": null,
      "parent_id": null,
      "population": 4780,
      "latitude": "52.33750000",
      "longitude": "6.10972000",
      "timezone": "Europe/Amsterdam",
      "wikiDataId": "Q3032495",
      "country_code": "NL",
      "state_code": "OV",
      "state_id": 2618,
      "country_id": 156
    },
    {
      "id": 78500,
      "name": "Ommen",
      "name_default": "Ommen",
      "native": "Ommen",
      "type": "city",
      "level": null,
      "parent_id": null,
      "population": 11820,
      "latitude": "52.52083000",
      "longitude": "6.42083000",
      "timezone": "Europe/Amsterdam",
      "wikiDataId": "Q3032495",
      "country_code": "NL",
      "state_code": "OV",
      "state_id": 2618,
      "country_id": 156
    },
    {
      "id": 78517,
      "name": "Oosterholt",
      "name_default": "Oosterholt",
      "native": "Oosterholt",
      "type": "city",
      "level": null,
      "parent_id": null,
      "population": 1175,
      "latitude": "52.55917000",
      "longitude": "5.95556000",
      "timezone": "Europe/Amsterdam",
      "wikiDataId": "Q523812",
      "country_code": "NL",
      "state_code": "OV",
      "state_id": 2618,
      "country_id": 156
    },
    {
      "id": 78522,
      "name": "Oostermeenthe",
      "name_default": "Oostermeenthe",
      "native": "Oostermeenthe",
      "type": "section",
      "level": null,
      "parent_id": null,
      "population": 3075,
      "latitude": "52.79319000",
      "longitude": "6.13138000",
      "timezone": "Europe/Amsterdam",
      "wikiDataId": "Q2299625",
      "country_code": "NL",
      "state_code": "OV",
      "state_id": 2618,
      "country_id": 156
    },
    {
      "id": 78530,
      "name": "Ootmarsum",
      "name_default": "Ootmarsum",
      "native": "Ootmarsum",
      "type": "city",
      "level": null,
      "parent_id": null,
      "population": 4530,
      "latitude": "52.40833000",
      "longitude": "6.90139000",
      "timezone": "Europe/Amsterdam",
      "wikiDataId": "Q1615365",
      "country_code": "NL",
      "state_code": "OV",
      "state_id": 2618,
      "country_id": 156
    },
    {
      "id": 78582,
      "name": "Pathmos",
      "name_default": "Pathmos",
      "native": "Pathmos",
      "type": "section",
      "level": null,
      "parent_id": null,
      "population": 2065,
      "latitude": "52.21397000",
      "longitude": "6.87555000",
      "timezone": "Europe/Amsterdam",
      "wikiDataId": "Q939394",
      "country_code": "NL",
      "state_code": "OV",
      "state_id": 2618,
      "country_id": 156
    },
    {
      "id": 78589,
      "name": "Pierik",
      "name_default": "Pierik",
      "native": "Pierik",
      "type": "section",
      "level": null,
      "parent_id": null,
      "population": 2180,
      "latitude": "52.50141000",
      "longitude": "6.11170000",
      "timezone": "Europe/Amsterdam",
      "wikiDataId": "Q446232",
      "country_code": "NL",
      "state_code": "OV",
      "state_id": 2618,
      "country_id": 156
    },
    {
      "id": 78604,
      "name": "Raalte",
      "name_default": "Raalte",
      "native": "Raalte",
      "type": "city",
      "level": null,
      "parent_id": null,
      "population": 20015,
      "latitude": "52.38583000",
      "longitude": "6.27500000",
      "timezone": "Europe/Amsterdam",
      "wikiDataId": "Q18012068",
      "country_code": "NL",
      "state_code": "OV",
      "state_id": 2618,
      "country_id": 156
    },
    {
      "id": 78640,
      "name": "Rossum",
      "name_default": "Rossum",
      "native": "Rossum",
      "type": "city",
      "level": null,
      "parent_id": null,
      "population": 1355,
      "latitude": "52.35167000",
      "longitude": "6.92222000",
      "timezone": "Europe/Amsterdam",
      "wikiDataId": "Q765030",
      "country_code": "NL",
      "state_code": "OV",
      "state_id": 2618,
      "country_id": 156
    },
    {
      "id": 78658,
      "name": "Schalkhaar",
      "name_default": "Schalkhaar",
      "native": "Schalkhaar",
      "type": "city",
      "level": null,
      "parent_id": null,
      "population": 4610,
      "latitude": "52.26833000",
      "longitude": "6.19444000",
      "timezone": "Europe/Amsterdam",
      "wikiDataId": "Q2454474",
      "country_code": "NL",
      "state_code": "OV",
      "state_id": 2618,
      "country_id": 156
    },
    {
      "id": 78697,
      "name": "Sint Jansklooster",
      "name_default": "Sint Jansklooster",
      "native": "Sint Jansklooster",
      "type": "city",
      "level": null,
      "parent_id": null,
      "population": 1190,
      "latitude": "52.67750000",
      "longitude": "6.00556000",
      "timezone": "Europe/Amsterdam",
      "wikiDataId": "Q1979634",
      "country_code": "NL",
      "state_code": "OV",
      "state_id": 2618,
      "country_id": 156
    },
    {
      "id": 78745,
      "name": "Staphorst",
      "name_default": "Staphorst",
      "native": "Staphorst",
      "type": "city",
      "level": null,
      "parent_id": null,
      "population": 17261,
      "latitude": "52.64500000",
      "longitude": "6.21111000",
      "timezone": "Europe/Amsterdam",
      "wikiDataId": "Q2314541",
      "country_code": "NL",
      "state_code": "OV",
      "state_id": 2618,
      "country_id": 156
    },
    {
      "id": 78751,
      "name": "Steenwijk",
      "name_default": "Steenwijk",
      "native": "Steenwijk",
      "type": "city",
      "level": null,
      "parent_id": null,
      "population": 17138,
      "latitude": "52.78750000",
      "longitude": "6.12083000",
      "timezone": "Europe/Amsterdam",
      "wikiDataId": "Q81175",
      "country_code": "NL",
      "state_code": "OV",
      "state_id": 2618,
      "country_id": 156
    },
    {
      "id": 78752,
      "name": "Steenwijkerwold",
      "name_default": "Steenwijkerwold",
      "native": "Steenwijkerwold",
      "type": "city",
      "level": null,
      "parent_id": null,
      "population": 1720,
      "latitude": "52.80417000",
      "longitude": "6.06389000",
      "timezone": "Europe/Amsterdam",
      "wikiDataId": "Q3116953",
      "country_code": "NL",
      "state_code": "OV",
      "state_id": 2618,
      "country_id": 156
    },
    {
      "id": 78792,
      "name": "Tubbergen",
      "name_default": "Tubbergen",
      "native": "Tubbergen",
      "type": "city",
      "level": null,
      "parent_id": null,
      "population": 21315,
      "latitude": "52.40750000",
      "longitude": "6.78472000",
      "timezone": "Europe/Amsterdam",
      "wikiDataId": "Q27825709",
      "country_code": "NL",
      "state_code": "OV",
      "state_id": 2618,
      "country_id": 156
    },
    {
      "id": 78795,
      "name": "Tuk",
      "name_default": "Tuk",
      "native": "Tuk",
      "type": "city",
      "level": null,
      "parent_id": null,
      "population": 1615,
      "latitude": "52.79667000",
      "longitude": "6.09444000",
      "timezone": "Europe/Amsterdam",
      "wikiDataId": "Q2428342",
      "country_code": "NL",
      "state_code": "OV",
      "state_id": 2618,
      "country_id": 156
    },
    {
      "id": 78797,
      "name": "Twekkelerveld",
      "name_default": "Twekkelerveld",
      "native": "Twekkelerveld",
      "type": "section",
      "level": null,
      "parent_id": null,
      "population": 4395,
      "latitude": "52.23064000",
      "longitude": "6.86004000",
      "timezone": "Europe/Amsterdam",
      "wikiDataId": "Q585186",
      "country_code": "NL",
      "state_code": "OV",
      "state_id": 2618,
      "country_id": 156
    },
    {
      "id": 78872,
      "name": "Vollenhove",
      "name_default": "Vollenhove",
      "native": "Vollenhove",
      "type": "city",
      "level": null,
      "parent_id": null,
      "population": 3955,
      "latitude": "52.68083000",
      "longitude": "5.95417000",
      "timezone": "Europe/Amsterdam",
      "wikiDataId": "Q81132",
      "country_code": "NL",
      "state_code": "OV",
      "state_id": 2618,
      "country_id": 156
    },
    {
      "id": 78886,
      "name": "Vriezenveen",
      "name_default": "Vriezenveen",
      "native": "Vriezenveen",
      "type": "city",
      "level": null,
      "parent_id": null,
      "population": 12310,
      "latitude": "52.40833000",
      "longitude": "6.62222000",
      "timezone": "Europe/Amsterdam",
      "wikiDataId": "Q3120872",
      "country_code": "NL",
      "state_code": "OV",
      "state_id": 2618,
      "country_id": 156
    },
    {
      "id": 78887,
      "name": "Vroomshoop",
      "name_default": "Vroomshoop",
      "native": "Vroomshoop",
      "type": "city",
      "level": null,
      "parent_id": null,
      "population": 8480,
      "latitude": "52.46083000",
      "longitude": "6.56528000",
      "timezone": "Europe/Amsterdam",
      "wikiDataId": "Q2544104",
      "country_code": "NL",
      "state_code": "OV",
      "state_id": 2618,
      "country_id": 156
    },
    {
      "id": 78936,
      "name": "Westerhaar-Vriezenveensewijk",
      "name_default": "Westerhaar-Vriezenveensewijk",
      "native": "Westerhaar-Vriezenveensewijk",
      "type": "city",
      "level": null,
      "parent_id": null,
      "population": 4470,
      "latitude": "52.45583000",
      "longitude": "6.62361000",
      "timezone": "Europe/Amsterdam",
      "wikiDataId": "Q2914959",
      "country_code": "NL",
      "state_code": "OV",
      "state_id": 2618,
      "country_id": 156
    },
    {
      "id": 78946,
      "name": "Wierden",
      "name_default": "Wierden",
      "native": "Wierden",
      "type": "city",
      "level": null,
      "parent_id": null,
      "population": 24538,
      "latitude": "52.35917000",
      "longitude": "6.59306000",
      "timezone": "Europe/Amsterdam",
      "wikiDataId": "Q3276324",
      "country_code": "NL",
      "state_code": "OV",
      "state_id": 2618,
      "country_id": 156
    },
    {
      "id": 78952,
      "name": "Wijhe",
      "name_default": "Wijhe",
      "native": "Wijhe",
      "type": "city",
      "level": null,
      "parent_id": null,
      "population": 5640,
      "latitude": "52.38667000",
      "longitude": "6.13472000",
      "timezone": "Europe/Amsterdam",
      "wikiDataId": "Q3164650",
      "country_code": "NL",
      "state_code": "OV",
      "state_id": 2618,
      "country_id": 156
    },
    {
      "id": 78980,
      "name": "Woolde",
      "name_default": "Woolde",
      "native": "Woolde",
      "type": "city",
      "level": null,
      "parent_id": null,
      "population": 1670,
      "latitude": "52.27210000",
      "longitude": "6.75891000",
      "timezone": "Europe/Amsterdam",
      "wikiDataId": "Q3112153",
      "country_code": "NL",
      "state_code": "OV",
      "state_id": 2618,
      "country_id": 156
    },
    {
      "id": 78981,
      "name": "Wooldrik",
      "name_default": "Wooldrik",
      "native": "Woololde",
      "type": "section",
      "level": null,
      "parent_id": null,
      "population": 1225,
      "latitude": "52.21667000",
      "longitude": "6.91667000",
      "timezone": "Europe/Amsterdam",
      "wikiDataId": "Q3112153",
      "country_code": "NL",
      "state_code": "OV",
      "state_id": 2618,
      "country_id": 156
    },
    {
      "id": 79023,
      "name": "Zuid-Berghuizen",
      "name_default": "Zuid-Berghuizen",
      "native": "Zuid-Berghuizen",
      "type": "city",
      "level": null,
      "parent_id": null,
      "population": 3680,
      "latitude": "52.30083000",
      "longitude": "6.93333000",
      "timezone": "Europe/Amsterdam",
      "wikiDataId": "Q227064",
      "country_code": "NL",
      "state_code": "OV",
      "state_id": 2618,
      "country_id": 156
    },
    {
      "id": 79036,
      "name": "Zwolle",
      "name_default": "Zwolle",
      "native": "Zwolle",
      "type": "adm1",
      "level": null,
      "parent_id": null,
      "population": 129840,
      "latitude": "52.51250000",
      "longitude": "6.09444000",
      "timezone": "Europe/Amsterdam",
      "wikiDataId": "Q13189044",
      "country_code": "NL",
      "state_code": "OV",
      "state_id": 2618,
      "country_id": 156
    }
  ]
}
