{
  "locale": "it",
  "country": {
    "id": 97,
    "code": "HN",
    "iso3": "HND",
    "numeric_code": "340",
    "name": "Honduras",
    "name_default": "Honduras",
    "native": "Honduras",
    "capital": "Tegucigalpa",
    "phonecode": "504",
    "currency": "HNL",
    "currency_name": "Honduran lempira",
    "currency_symbol": "L",
    "tld": ".hn",
    "population": 9892632,
    "gdp": 38172,
    "region": "Americas",
    "region_id": 2,
    "subregion": "Central America",
    "subregion_id": 9,
    "nationality": "Honduran",
    "timezones": [
      {
        "zoneName": "America/Tegucigalpa",
        "gmtOffset": -21600,
        "gmtOffsetName": "UTC-06:00",
        "abbreviation": "CST",
        "tzName": "Central Standard Time (North America"
      }
    ],
    "latitude": "15.00000000",
    "longitude": "-86.50000000",
    "emoji": "🇭🇳",
    "emojiU": "U+1F1ED U+1F1F3"
  },
  "state": {
    "id": 4058,
    "code": "LP",
    "iso2": "LP",
    "iso3166_2": "HN-LP",
    "fips_code": "12",
    "name": "La Pace",
    "name_default": "La Paz",
    "native": "La Paz",
    "type": "department",
    "level": null,
    "parent_id": null,
    "population": null,
    "latitude": "14.12840890",
    "longitude": "-87.96152760",
    "timezone": "America/Tegucigalpa",
    "wikiDataId": "Q866886",
    "country_code": "HN"
  },
  "cities": [
    {
      "id": 53842,
      "name": "Aguanqueterique",
      "name_default": "Aguanqueterique",
      "native": "Aguanqueterique",
      "type": "city",
      "level": null,
      "parent_id": null,
      "population": 4738,
      "latitude": "13.98606000",
      "longitude": "-87.64622000",
      "timezone": "America/Tegucigalpa",
      "wikiDataId": "Q1018877",
      "country_code": "HN",
      "state_code": "LP",
      "state_id": 4058,
      "country_id": 97
    },
    {
      "id": 53879,
      "name": "Cabañas",
      "name_default": "Cabañas",
      "native": "Cabañas",
      "type": "city",
      "level": null,
      "parent_id": null,
      "population": 3253,
      "latitude": "13.99419000",
      "longitude": "-88.02864000",
      "timezone": "America/Tegucigalpa",
      "wikiDataId": "Q2102693",
      "country_code": "HN",
      "state_code": "LP",
      "state_id": 4058,
      "country_id": 97
    },
    {
      "id": 53885,
      "name": "Canna",
      "name_default": "Cane",
      "native": "Caña",
      "type": "city",
      "level": null,
      "parent_id": null,
      "population": 3592,
      "latitude": "14.28333000",
      "longitude": "-87.66667000",
      "timezone": "America/Tegucigalpa",
      "wikiDataId": "Q773081",
      "country_code": "HN",
      "state_code": "LP",
      "state_id": 4058,
      "country_id": 97
    },
    {
      "id": 53897,
      "name": "Chinacla",
      "name_default": "Chinacla",
      "native": "Chino",
      "type": "city",
      "level": null,
      "parent_id": null,
      "population": 7836,
      "latitude": "14.18289000",
      "longitude": "-87.95395000",
      "timezone": "America/Tegucigalpa",
      "wikiDataId": "Q2394615",
      "country_code": "HN",
      "state_code": "LP",
      "state_id": 4058,
      "country_id": 97
    },
    {
      "id": 54014,
      "name": "Guajiquiro",
      "name_default": "Guajiquiro",
      "native": "Guajiquiro",
      "type": "city",
      "level": null,
      "parent_id": null,
      "population": 14616,
      "latitude": "14.06982000",
      "longitude": "-87.77451000",
      "timezone": "America/Tegucigalpa",
      "wikiDataId": "Q1928232",
      "country_code": "HN",
      "state_code": "LP",
      "state_id": 4058,
      "country_id": 97
    },
    {
      "id": 54073,
      "name": "La Pace",
      "name_default": "La Paz",
      "native": "La Paz",
      "type": "adm1",
      "level": null,
      "parent_id": null,
      "population": 17555,
      "latitude": "14.31944000",
      "longitude": "-87.67917000",
      "timezone": "America/Tegucigalpa",
      "wikiDataId": "Q2283725",
      "country_code": "HN",
      "state_code": "LP",
      "state_id": 4058,
      "country_id": 97
    },
    {
      "id": 54099,
      "name": "Lauterique",
      "name_default": "Lauterique",
      "native": "Lauterique",
      "type": "city",
      "level": null,
      "parent_id": null,
      "population": 2986,
      "latitude": "13.86425000",
      "longitude": "-87.65792000",
      "timezone": "America/Tegucigalpa",
      "wikiDataId": "Q2604935",
      "country_code": "HN",
      "state_code": "LP",
      "state_id": 4058,
      "country_id": 97
    },
    {
      "id": 54110,
      "name": "Los Planes",
      "name_default": "Los Planes",
      "native": "Los Planes",
      "type": "city",
      "level": null,
      "parent_id": null,
      "population": 1320,
      "latitude": "14.05000000",
      "longitude": "-88.01667000",
      "timezone": "America/Tegucigalpa",
      "wikiDataId": "Q1948279",
      "country_code": "HN",
      "state_code": "LP",
      "state_id": 4058,
      "country_id": 97
    },
    {
      "id": 54120,
      "name": "Marcala",
      "name_default": "Marcala",
      "native": "marca",
      "type": "city",
      "level": null,
      "parent_id": null,
      "population": 28614,
      "latitude": "14.14845000",
      "longitude": "-88.02405000",
      "timezone": "America/Tegucigalpa",
      "wikiDataId": "Q1876297",
      "country_code": "HN",
      "state_code": "LP",
      "state_id": 4058,
      "country_id": 97
    },
    {
      "id": 54126,
      "name": "Mercedes d'Oriente",
      "name_default": "Mercedes de Oriente",
      "native": "Mercedes de Oriente",
      "type": "city",
      "level": null,
      "parent_id": null,
      "population": 1087,
      "latitude": "13.90937000",
      "longitude": "-87.77795000",
      "timezone": "America/Tegucigalpa",
      "wikiDataId": "Q547593",
      "country_code": "HN",
      "state_code": "LP",
      "state_id": 4058,
      "country_id": 97
    },
    {
      "id": 54160,
      "name": "Opatoro",
      "name_default": "Opatoro",
      "native": "Oo",
      "type": "city",
      "level": null,
      "parent_id": null,
      "population": 7408,
      "latitude": "14.02451000",
      "longitude": "-87.87982000",
      "timezone": "America/Tegucigalpa",
      "wikiDataId": "Q544482",
      "country_code": "HN",
      "state_code": "LP",
      "state_id": 4058,
      "country_id": 97
    },
    {
      "id": 54220,
      "name": "San Antonio del Norte",
      "name_default": "San Antonio del Norte",
      "native": "San Antonio del Norte",
      "type": "city",
      "level": null,
      "parent_id": null,
      "population": 2725,
      "latitude": "13.88000000",
      "longitude": "-87.72000000",
      "timezone": "America/Tegucigalpa",
      "wikiDataId": "Q967937",
      "country_code": "HN",
      "state_code": "LP",
      "state_id": 4058,
      "country_id": 97
    },
    {
      "id": 54246,
      "name": "San José",
      "name_default": "San José",
      "native": "San José",
      "type": "city",
      "level": null,
      "parent_id": null,
      "population": 1463,
      "latitude": "14.22642000",
      "longitude": "-87.96238000",
      "timezone": "America/Tegucigalpa",
      "wikiDataId": "Q925890",
      "country_code": "HN",
      "state_code": "LP",
      "state_id": 4058,
      "country_id": 97
    },
    {
      "id": 54257,
      "name": "San Juan",
      "name_default": "San Juan",
      "native": "San Juan",
      "type": "city",
      "level": null,
      "parent_id": null,
      "population": 2447,
      "latitude": "13.95428000",
      "longitude": "-87.72948000",
      "timezone": "America/Tegucigalpa",
      "wikiDataId": "Q979141",
      "country_code": "HN",
      "state_code": "LP",
      "state_id": 4058,
      "country_id": 97
    },
    {
      "id": 54284,
      "name": "San Pedro de Tutule",
      "name_default": "San Pedro de Tutule",
      "native": "San Pedro de Tutule",
      "type": "city",
      "level": null,
      "parent_id": null,
      "population": 1876,
      "latitude": "14.25000000",
      "longitude": "-87.85000000",
      "timezone": "America/Tegucigalpa",
      "wikiDataId": "Q2201661",
      "country_code": "HN",
      "state_code": "LP",
      "state_id": 4058,
      "country_id": 97
    },
    {
      "id": 54292,
      "name": "Santa Ana",
      "name_default": "Santa Ana",
      "native": "Santa Ana",
      "type": "city",
      "level": null,
      "parent_id": null,
      "population": 11777,
      "latitude": "14.00011000",
      "longitude": "-87.94107000",
      "timezone": "America/Tegucigalpa",
      "wikiDataId": "Q955784",
      "country_code": "HN",
      "state_code": "LP",
      "state_id": 4058,
      "country_id": 97
    },
    {
      "id": 54300,
      "name": "Santa Elena",
      "name_default": "Santa Elena",
      "native": "Santa Elena",
      "type": "adm1",
      "level": null,
      "parent_id": null,
      "population": 12162,
      "latitude": "14.07149000",
      "longitude": "-88.15445000",
      "timezone": "America/Tegucigalpa",
      "wikiDataId": "Q2180652",
      "country_code": "HN",
      "state_code": "LP",
      "state_id": 4058,
      "country_id": 97
    },
    {
      "id": 54306,
      "name": "Santa Maria",
      "name_default": "Santa María",
      "native": "Santa María",
      "type": "city",
      "level": null,
      "parent_id": null,
      "population": 10812,
      "latitude": "14.26904000",
      "longitude": "-87.91164000",
      "timezone": "America/Tegucigalpa",
      "wikiDataId": "Q1958069",
      "country_code": "HN",
      "state_code": "LP",
      "state_id": 4058,
      "country_id": 97
    },
    {
      "id": 54314,
      "name": "Santiago Puringla",
      "name_default": "Santiago Puringla",
      "native": "Santiago Puringla",
      "type": "city",
      "level": null,
      "parent_id": null,
      "population": 2433,
      "latitude": "14.35000000",
      "longitude": "-87.90000000",
      "timezone": "America/Tegucigalpa",
      "wikiDataId": "Q1930019",
      "country_code": "HN",
      "state_code": "LP",
      "state_id": 4058,
      "country_id": 97
    },
    {
      "id": 54335,
      "name": "Tepanguare",
      "name_default": "Tepanguare",
      "native": "Tepangua",
      "type": "city",
      "level": null,
      "parent_id": null,
      "population": 1099,
      "latitude": "14.33333000",
      "longitude": "-87.75000000",
      "timezone": "America/Tegucigalpa",
      "wikiDataId": "Q1027018",
      "country_code": "HN",
      "state_code": "LP",
      "state_id": 4058,
      "country_id": 97
    },
    {
      "id": 54370,
      "name": "Yarula",
      "name_default": "Yarula",
      "native": "Decano",
      "type": "city",
      "level": null,
      "parent_id": null,
      "population": 8844,
      "latitude": "14.10000000",
      "longitude": "-88.08000000",
      "timezone": "America/Tegucigalpa",
      "wikiDataId": "Q2542686",
      "country_code": "HN",
      "state_code": "LP",
      "state_id": 4058,
      "country_id": 97
    },
    {
      "id": 54371,
      "name": "Yarumela",
      "name_default": "Yarumela",
      "native": "Yarumela",
      "type": "city",
      "level": null,
      "parent_id": null,
      "population": null,
      "latitude": "14.33333000",
      "longitude": "-87.63333000",
      "timezone": "America/Tegucigalpa",
      "wikiDataId": "Q2542686",
      "country_code": "HN",
      "state_code": "LP",
      "state_id": 4058,
      "country_id": 97
    }
  ]
}
