{
  "locale": "hr",
  "country": {
    "id": 214,
    "code": "CH",
    "iso3": "CHE",
    "numeric_code": "756",
    "name": "Švicarska",
    "name_default": "Switzerland",
    "native": "Schweiz",
    "capital": "Bern",
    "phonecode": "41",
    "currency": "CHF",
    "currency_name": "Swiss franc",
    "currency_symbol": "CHf",
    "tld": ".ch",
    "population": 9082848,
    "gdp": 947125,
    "region": "Europe",
    "region_id": 4,
    "subregion": "Western Europe",
    "subregion_id": 17,
    "nationality": "Swiss",
    "timezones": [
      {
        "zoneName": "Europe/Zurich",
        "gmtOffset": 3600,
        "gmtOffsetName": "UTC+01:00",
        "abbreviation": "CET",
        "tzName": "Central European Time"
      }
    ],
    "latitude": "47.00000000",
    "longitude": "8.00000000",
    "emoji": "🇨🇭",
    "emojiU": "U+1F1E8 U+1F1ED"
  },
  "state": {
    "id": 1658,
    "code": "JU",
    "iso2": "JU",
    "iso3166_2": "CH-JU",
    "fips_code": "26",
    "name": "Jura",
    "name_default": "Jura",
    "native": "Jura",
    "type": "canton",
    "level": null,
    "parent_id": null,
    "population": null,
    "latitude": "47.35666990",
    "longitude": "7.15988930",
    "timezone": "Europe/Zurich",
    "wikiDataId": "Q12755",
    "country_code": "CH"
  },
  "cities": [
    {
      "id": 17385,
      "name": "Svi",
      "name_default": "Alle",
      "native": "Alle",
      "type": "city",
      "level": null,
      "parent_id": null,
      "population": 1849,
      "latitude": "47.42542000",
      "longitude": "7.13018000",
      "timezone": "Europe/Zurich",
      "wikiDataId": "Q22391068",
      "country_code": "CH",
      "state_code": "JU",
      "state_id": 1658,
      "country_id": 214
    },
    {
      "id": 17442,
      "name": "Bassecourt",
      "name_default": "Bassecourt",
      "native": "Bascourt",
      "type": "city",
      "level": null,
      "parent_id": null,
      "population": 3305,
      "latitude": "47.33808000",
      "longitude": "7.24373000",
      "timezone": "Europe/Zurich",
      "wikiDataId": "Q66705",
      "country_code": "CH",
      "state_code": "JU",
      "state_id": 1658,
      "country_id": 214
    },
    {
      "id": 17548,
      "name": "Boncourt",
      "name_default": "Boncourt",
      "native": "Boncourt",
      "type": "city",
      "level": null,
      "parent_id": null,
      "population": 1225,
      "latitude": "47.49493000",
      "longitude": "7.01297000",
      "timezone": "Europe/Zurich",
      "wikiDataId": "Q22580171",
      "country_code": "CH",
      "state_code": "JU",
      "state_id": 1658,
      "country_id": 214
    },
    {
      "id": 17659,
      "name": "Courfaivre",
      "name_default": "Courfaivre",
      "native": "Oberaivre",
      "type": "city",
      "level": null,
      "parent_id": null,
      "population": 1508,
      "latitude": "47.33461000",
      "longitude": "7.28186000",
      "timezone": "Europe/Zurich",
      "wikiDataId": "Q69921",
      "country_code": "CH",
      "state_code": "JU",
      "state_id": 1658,
      "country_id": 214
    },
    {
      "id": 17660,
      "name": "Courgenay",
      "name_default": "Courgenay",
      "native": "Courgenay",
      "type": "city",
      "level": null,
      "parent_id": null,
      "population": 2329,
      "latitude": "47.40483000",
      "longitude": "7.12522000",
      "timezone": "Europe/Zurich",
      "wikiDataId": "Q67414",
      "country_code": "CH",
      "state_code": "JU",
      "state_id": 1658,
      "country_id": 214
    },
    {
      "id": 17662,
      "name": "Courrendlin",
      "name_default": "Courrendlin",
      "native": "Correndlin",
      "type": "city",
      "level": null,
      "parent_id": null,
      "population": 2314,
      "latitude": "47.33853000",
      "longitude": "7.37243000",
      "timezone": "Europe/Zurich",
      "wikiDataId": "Q22361849",
      "country_code": "CH",
      "state_code": "JU",
      "state_id": 1658,
      "country_id": 214
    },
    {
      "id": 17663,
      "name": "Courroux",
      "name_default": "Courroux",
      "native": "Zorn",
      "type": "city",
      "level": null,
      "parent_id": null,
      "population": 3314,
      "latitude": "47.36069000",
      "longitude": "7.37371000",
      "timezone": "Europe/Zurich",
      "wikiDataId": "Q22361890",
      "country_code": "CH",
      "state_code": "JU",
      "state_id": 1658,
      "country_id": 214
    },
    {
      "id": 17666,
      "name": "Dvorica",
      "name_default": "Courtételle",
      "native": "Hof",
      "type": "city",
      "level": null,
      "parent_id": null,
      "population": 2610,
      "latitude": "47.34074000",
      "longitude": "7.31827000",
      "timezone": "Europe/Zurich",
      "wikiDataId": "Q22401758",
      "country_code": "CH",
      "state_code": "JU",
      "state_id": 1658,
      "country_id": 214
    },
    {
      "id": 17680,
      "name": "Delémont",
      "name_default": "Delémont",
      "native": "Delémont",
      "type": "adm1",
      "level": null,
      "parent_id": null,
      "population": 12682,
      "latitude": "47.36493000",
      "longitude": "7.34453000",
      "timezone": "Europe/Zurich",
      "wikiDataId": "Q63896",
      "country_code": "CH",
      "state_code": "JU",
      "state_id": 1658,
      "country_id": 214
    },
    {
      "id": 17681,
      "name": "Okrug Delémont",
      "name_default": "Delémont District",
      "native": "Delémont District",
      "type": "district",
      "level": null,
      "parent_id": null,
      "population": 38954,
      "latitude": "47.35434000",
      "longitude": "7.33053000",
      "timezone": "Europe/Zurich",
      "wikiDataId": "Q659702",
      "country_code": "CH",
      "state_code": "JU",
      "state_id": 1658,
      "country_id": 214
    },
    {
      "id": 17799,
      "name": "Fontenais",
      "name_default": "Fontenais",
      "native": "Fontenais",
      "type": "city",
      "level": null,
      "parent_id": null,
      "population": 1289,
      "latitude": "47.40292000",
      "longitude": "7.08108000",
      "timezone": "Europe/Zurich",
      "wikiDataId": "Q68780",
      "country_code": "CH",
      "state_code": "JU",
      "state_id": 1658,
      "country_id": 214
    },
    {
      "id": 17801,
      "name": "Okrug Franches-Montagnes",
      "name_default": "Franches-Montagnes",
      "native": "Franien-Montagnes-Distrikt",
      "type": "district",
      "level": null,
      "parent_id": null,
      "population": 10479,
      "latitude": "47.24935000",
      "longitude": "7.04562000",
      "timezone": "Europe/Zurich",
      "wikiDataId": "Q167627",
      "country_code": "CH",
      "state_code": "JU",
      "state_id": 1658,
      "country_id": 214
    },
    {
      "id": 17844,
      "name": "Glovelier",
      "name_default": "Glovelier",
      "native": "Handschugel",
      "type": "city",
      "level": null,
      "parent_id": null,
      "population": 1199,
      "latitude": "47.33534000",
      "longitude": "7.20556000",
      "timezone": "Europe/Zurich",
      "wikiDataId": "Q68494",
      "country_code": "CH",
      "state_code": "JU",
      "state_id": 1658,
      "country_id": 214
    },
    {
      "id": 18060,
      "name": "Le Noirmont",
      "name_default": "Le Noirmont",
      "native": "Der Noirmont",
      "type": "city",
      "level": null,
      "parent_id": null,
      "population": 1847,
      "latitude": "47.22464000",
      "longitude": "6.95784000",
      "timezone": "Europe/Zurich",
      "wikiDataId": "Q22386493",
      "country_code": "CH",
      "state_code": "JU",
      "state_id": 1658,
      "country_id": 214
    },
    {
      "id": 18069,
      "name": "Les Bois",
      "name_default": "Les Bois",
      "native": "Wald",
      "type": "city",
      "level": null,
      "parent_id": null,
      "population": 1241,
      "latitude": "47.17715000",
      "longitude": "6.90498000",
      "timezone": "Europe/Zurich",
      "wikiDataId": "Q22412191",
      "country_code": "CH",
      "state_code": "JU",
      "state_id": 1658,
      "country_id": 214
    },
    {
      "id": 18071,
      "name": "Les Breuleux",
      "name_default": "Les Breuleux",
      "native": "Die Breous",
      "type": "city",
      "level": null,
      "parent_id": null,
      "population": 1526,
      "latitude": "47.21099000",
      "longitude": "7.00792000",
      "timezone": "Europe/Zurich",
      "wikiDataId": "Q22412337",
      "country_code": "CH",
      "state_code": "JU",
      "state_id": 1658,
      "country_id": 214
    },
    {
      "id": 18319,
      "name": "Porrentruy",
      "name_default": "Porrentruy",
      "native": "Porrentruy",
      "type": "adm2",
      "level": null,
      "parent_id": null,
      "population": 6675,
      "latitude": "47.41728000",
      "longitude": "7.07573000",
      "timezone": "Europe/Zurich",
      "wikiDataId": "Q70675",
      "country_code": "CH",
      "state_code": "JU",
      "state_id": 1658,
      "country_id": 214
    },
    {
      "id": 18320,
      "name": "Okrug Porrentruy",
      "name_default": "Porrentruy District",
      "native": "Porrentruy District",
      "type": "district",
      "level": null,
      "parent_id": null,
      "population": 6675,
      "latitude": "47.41475000",
      "longitude": "7.07638000",
      "timezone": "Europe/Zurich",
      "wikiDataId": "Q659764",
      "country_code": "CH",
      "state_code": "JU",
      "state_id": 1658,
      "country_id": 214
    },
    {
      "id": 18420,
      "name": "Saignelégier",
      "name_default": "Saignelégier",
      "native": "Blutung",
      "type": "city",
      "level": null,
      "parent_id": null,
      "population": 2608,
      "latitude": "47.25619000",
      "longitude": "6.99648000",
      "timezone": "Europe/Zurich",
      "wikiDataId": "Q22379129",
      "country_code": "CH",
      "state_code": "JU",
      "state_id": 1658,
      "country_id": 214
    },
    {
      "id": 18677,
      "name": "Vicques",
      "name_default": "Vicques",
      "native": "Vicques",
      "type": "city",
      "level": null,
      "parent_id": null,
      "population": 1741,
      "latitude": "47.35000000",
      "longitude": "7.41342000",
      "timezone": "Europe/Zurich",
      "wikiDataId": "Q54450",
      "country_code": "CH",
      "state_code": "JU",
      "state_id": 1658,
      "country_id": 214
    }
  ]
}
