{
  "locale": "de",
  "country": {
    "id": 103,
    "code": "IR",
    "iso3": "IRN",
    "numeric_code": "364",
    "name": "Iran",
    "name_default": "Iran",
    "native": "ایران",
    "capital": "Tehran",
    "phonecode": "98",
    "currency": "IRR",
    "currency_name": "Iranian rial",
    "currency_symbol": "﷼",
    "tld": ".ir",
    "population": 85961000,
    "gdp": 341013,
    "region": "Asia",
    "region_id": 3,
    "subregion": "Southern Asia",
    "subregion_id": 14,
    "nationality": "Iranian, Persian",
    "timezones": [
      {
        "zoneName": "Asia/Tehran",
        "gmtOffset": 12600,
        "gmtOffsetName": "UTC+03:30",
        "abbreviation": "IRDT",
        "tzName": "Iran Daylight Time"
      }
    ],
    "latitude": "32.00000000",
    "longitude": "53.00000000",
    "emoji": "🇮🇷",
    "emojiU": "U+1F1EE U+1F1F7"
  },
  "state": {
    "id": 3937,
    "code": "22",
    "iso2": "22",
    "iso3166_2": "IR-22",
    "fips_code": "11",
    "name": "Hormozgan",
    "name_default": "Hormozgan",
    "native": "هرمزگان",
    "type": "province",
    "level": null,
    "parent_id": null,
    "population": 1776415,
    "latitude": "27.71980950",
    "longitude": "56.33580700",
    "timezone": "Asia/Tehran",
    "wikiDataId": "Q633659",
    "country_code": "IR"
  },
  "cities": [
    {
      "id": 134786,
      "name": "Abu Musa",
      "name_default": "Abu Musa",
      "native": "ابو موسی",
      "type": "city",
      "level": null,
      "parent_id": null,
      "population": null,
      "latitude": "26.05474000",
      "longitude": "55.16243000",
      "timezone": "Asia/Tehran",
      "wikiDataId": "Q498106",
      "country_code": "IR",
      "state_code": "22",
      "state_id": 3937,
      "country_id": 103
    },
    {
      "id": 150978,
      "name": "Abumusa",
      "name_default": "Abumusa",
      "native": "شبیه",
      "type": "adm2",
      "level": null,
      "parent_id": null,
      "population": 0,
      "latitude": "27.19805600",
      "longitude": "54.36861100",
      "timezone": "Asia/Tehran",
      "wikiDataId": "Q167217",
      "country_code": "IR",
      "state_code": "22",
      "state_id": 3937,
      "country_id": 103
    },
    {
      "id": 134576,
      "name": "Bandar Abbas",
      "name_default": "Bandar Abbas",
      "native": "شهر عباس",
      "type": "adm1",
      "level": null,
      "parent_id": null,
      "population": 352173,
      "latitude": "27.18650000",
      "longitude": "56.28080000",
      "timezone": "Asia/Tehran",
      "wikiDataId": "Q154814",
      "country_code": "IR",
      "state_code": "22",
      "state_id": 3937,
      "country_id": 103
    },
    {
      "id": 150986,
      "name": "Bandar Charak",
      "name_default": "Bandar Charak",
      "native": "بندار چاراک",
      "type": "city",
      "level": null,
      "parent_id": null,
      "population": 4066,
      "latitude": "26.73055600",
      "longitude": "54.27472200",
      "timezone": "Asia/Tehran",
      "wikiDataId": "Q642330",
      "country_code": "IR",
      "state_code": "22",
      "state_id": 3937,
      "country_id": 103
    },
    {
      "id": 150995,
      "name": "Bandar Khamir",
      "name_default": "Bandar Khamir",
      "native": "شهر خامیر",
      "type": "adm2",
      "level": null,
      "parent_id": null,
      "population": 15320,
      "latitude": "26.95185270",
      "longitude": "55.57268840",
      "timezone": "Asia/Tehran",
      "wikiDataId": "Q2415324",
      "country_code": "IR",
      "state_code": "22",
      "state_id": 3937,
      "country_id": 103
    },
    {
      "id": 150987,
      "name": "Bandar Kong",
      "name_default": "Bandar Kong",
      "native": "شهر",
      "type": "city",
      "level": null,
      "parent_id": null,
      "population": 19213,
      "latitude": "26.60285650",
      "longitude": "54.92980580",
      "timezone": "Asia/Tehran",
      "wikiDataId": "Q2986542",
      "country_code": "IR",
      "state_code": "22",
      "state_id": 3937,
      "country_id": 103
    },
    {
      "id": 134580,
      "name": "Bandar Lengeh",
      "name_default": "Bandar Lengeh",
      "native": "شهر",
      "type": "adm2",
      "level": null,
      "parent_id": null,
      "population": 22768,
      "latitude": "26.55792000",
      "longitude": "54.88067000",
      "timezone": "Asia/Tehran",
      "wikiDataId": "Q388620",
      "country_code": "IR",
      "state_code": "22",
      "state_id": 3937,
      "country_id": 103
    },
    {
      "id": 150991,
      "name": "Bandar-e-Jask",
      "name_default": "Bandar-e-Jask",
      "native": "بندر",
      "type": "adm2",
      "level": null,
      "parent_id": null,
      "population": null,
      "latitude": "25.65385140",
      "longitude": "57.76995600",
      "timezone": "Asia/Tehran",
      "wikiDataId": null,
      "country_code": "IR",
      "state_code": "22",
      "state_id": 3937,
      "country_id": 103
    },
    {
      "id": 134806,
      "name": "Bashagard",
      "name_default": "Bashagard",
      "native": "باسگارد",
      "type": "city",
      "level": null,
      "parent_id": null,
      "population": 35085,
      "latitude": "26.45000000",
      "longitude": "58.08333000",
      "timezone": "Asia/Tehran",
      "wikiDataId": "Q498106",
      "country_code": "IR",
      "state_code": "22",
      "state_id": 3937,
      "country_id": 103
    },
    {
      "id": 134583,
      "name": "Bastak",
      "name_default": "Bastak",
      "native": "آهنگساز",
      "type": "adm2",
      "level": null,
      "parent_id": null,
      "population": 0,
      "latitude": "27.20000000",
      "longitude": "54.36667000",
      "timezone": "Asia/Tehran",
      "wikiDataId": "Q2159871",
      "country_code": "IR",
      "state_code": "22",
      "state_id": 3937,
      "country_id": 103
    },
    {
      "id": 150997,
      "name": "Bikah",
      "name_default": "Bikah",
      "native": "ساقه",
      "type": "adm2",
      "level": null,
      "parent_id": null,
      "population": null,
      "latitude": "27.35404360",
      "longitude": "57.16993320",
      "timezone": "Asia/Tehran",
      "wikiDataId": "Q4907300",
      "country_code": "IR",
      "state_code": "22",
      "state_id": 3937,
      "country_id": 103
    },
    {
      "id": 151002,
      "name": "Dargahan",
      "name_default": "Dargahan",
      "native": "دره",
      "type": "city",
      "level": null,
      "parent_id": null,
      "population": 14525,
      "latitude": "26.95833690",
      "longitude": "56.04316930",
      "timezone": "Asia/Tehran",
      "wikiDataId": "Q888633",
      "country_code": "IR",
      "state_code": "22",
      "state_id": 3937,
      "country_id": 103
    },
    {
      "id": 150989,
      "name": "Dashti",
      "name_default": "Dashti",
      "native": "خط داشری",
      "type": "city",
      "level": null,
      "parent_id": null,
      "population": 2725,
      "latitude": "27.17918870",
      "longitude": "52.99824000",
      "timezone": "Asia/Tehran",
      "wikiDataId": "Q536362",
      "country_code": "IR",
      "state_code": "22",
      "state_id": 3937,
      "country_id": 103
    },
    {
      "id": 150998,
      "name": "Dehbārez",
      "name_default": "Dehbārez",
      "native": "دهیرز",
      "type": "adm2",
      "level": null,
      "parent_id": null,
      "population": null,
      "latitude": "27.44841050",
      "longitude": "57.16675690",
      "timezone": "Asia/Tehran",
      "wikiDataId": null,
      "country_code": "IR",
      "state_code": "22",
      "state_id": 3937,
      "country_id": 103
    },
    {
      "id": 150994,
      "name": "Fareghan",
      "name_default": "Fareghan",
      "native": "جنگلی",
      "type": "city",
      "level": null,
      "parent_id": null,
      "population": 1773,
      "latitude": "28.00785210",
      "longitude": "56.24459260",
      "timezone": "Asia/Tehran",
      "wikiDataId": "Q2620409",
      "country_code": "IR",
      "state_code": "22",
      "state_id": 3937,
      "country_id": 103
    },
    {
      "id": 150984,
      "name": "Flosse",
      "name_default": "Fin",
      "native": "باله",
      "type": "city",
      "level": null,
      "parent_id": null,
      "population": 3939,
      "latitude": "27.63285790",
      "longitude": "55.88187210",
      "timezone": "Asia/Tehran",
      "wikiDataId": "Q778612",
      "country_code": "IR",
      "state_code": "22",
      "state_id": 3937,
      "country_id": 103
    },
    {
      "id": 151001,
      "name": "Gerouk",
      "name_default": "Gerouk",
      "native": "گورک",
      "type": "city",
      "level": null,
      "parent_id": null,
      "population": null,
      "latitude": "26.58856490",
      "longitude": "57.08517550",
      "timezone": "Asia/Tehran",
      "wikiDataId": null,
      "country_code": "IR",
      "state_code": "22",
      "state_id": 3937,
      "country_id": 103
    },
    {
      "id": 150981,
      "name": "Gouharan",
      "name_default": "Gouharan",
      "native": "گوهران",
      "type": "city",
      "level": null,
      "parent_id": null,
      "population": null,
      "latitude": "26.59615360",
      "longitude": "57.88707010",
      "timezone": "Asia/Tehran",
      "wikiDataId": null,
      "country_code": "IR",
      "state_code": "22",
      "state_id": 3937,
      "country_id": 103
    },
    {
      "id": 150992,
      "name": "Haji Abad",
      "name_default": "Haji Abad",
      "native": "حج از قرن",
      "type": "adm2",
      "level": null,
      "parent_id": null,
      "population": null,
      "latitude": "28.31352140",
      "longitude": "55.89620570",
      "timezone": "Asia/Tehran",
      "wikiDataId": "Q5640124",
      "country_code": "IR",
      "state_code": "22",
      "state_id": 3937,
      "country_id": 103
    },
    {
      "id": 135098,
      "name": "Hadschiabad",
      "name_default": "Hajjiabad",
      "native": "حاج آباد",
      "type": "city",
      "level": null,
      "parent_id": null,
      "population": 0,
      "latitude": "28.33333000",
      "longitude": "55.83333000",
      "timezone": "Asia/Tehran",
      "wikiDataId": "Q1277854",
      "country_code": "IR",
      "state_code": "22",
      "state_id": 3937,
      "country_id": 103
    },
    {
      "id": 151007,
      "name": "Hasht Bandi",
      "name_default": "Hasht Bandi",
      "native": "با بند",
      "type": "city",
      "level": null,
      "parent_id": null,
      "population": 6718,
      "latitude": "27.14586240",
      "longitude": "57.43326510",
      "timezone": "Asia/Tehran",
      "wikiDataId": "Q2620437",
      "country_code": "IR",
      "state_code": "22",
      "state_id": 3937,
      "country_id": 103
    },
    {
      "id": 151004,
      "name": "Hormuz",
      "name_default": "Hormuz",
      "native": "هرموز",
      "type": "city",
      "level": null,
      "parent_id": null,
      "population": 5891,
      "latitude": "27.09500000",
      "longitude": "56.45277800",
      "timezone": "Asia/Tehran",
      "wikiDataId": "Q347009",
      "country_code": "IR",
      "state_code": "22",
      "state_id": 3937,
      "country_id": 103
    },
    {
      "id": 150979,
      "name": "Janah",
      "name_default": "Janah",
      "native": "ژانا",
      "type": "city",
      "level": null,
      "parent_id": null,
      "population": null,
      "latitude": "27.02755080",
      "longitude": "54.27128050",
      "timezone": "Asia/Tehran",
      "wikiDataId": "Q2626774",
      "country_code": "IR",
      "state_code": "22",
      "state_id": 3937,
      "country_id": 103
    },
    {
      "id": 134900,
      "name": "Jask",
      "name_default": "Jask",
      "native": "چالاک",
      "type": "city",
      "level": null,
      "parent_id": null,
      "population": 16860,
      "latitude": "25.88333000",
      "longitude": "58.20000000",
      "timezone": "Asia/Tehran",
      "wikiDataId": "Q721034",
      "country_code": "IR",
      "state_code": "22",
      "state_id": 3937,
      "country_id": 103
    },
    {
      "id": 134913,
      "name": "Khamir",
      "name_default": "Khamir",
      "native": "کامیر",
      "type": "city",
      "level": null,
      "parent_id": null,
      "population": 56148,
      "latitude": "27.26667000",
      "longitude": "55.55000000",
      "timezone": "Asia/Tehran",
      "wikiDataId": "Q1264551",
      "country_code": "IR",
      "state_code": "22",
      "state_id": 3937,
      "country_id": 103
    },
    {
      "id": 134685,
      "name": "Kisch",
      "name_default": "Kish",
      "native": "کیش",
      "type": "city",
      "level": null,
      "parent_id": null,
      "population": 20922,
      "latitude": "26.55778000",
      "longitude": "54.01944000",
      "timezone": "Asia/Tehran",
      "wikiDataId": "Q721060",
      "country_code": "IR",
      "state_code": "22",
      "state_id": 3937,
      "country_id": 103
    },
    {
      "id": 150990,
      "name": "Koshkonar",
      "name_default": "Koshkonar",
      "native": "کاشکنار",
      "type": "city",
      "level": null,
      "parent_id": null,
      "population": null,
      "latitude": "27.25012720",
      "longitude": "52.85715580",
      "timezone": "Asia/Tehran",
      "wikiDataId": "Q5805749",
      "country_code": "IR",
      "state_code": "22",
      "state_id": 3937,
      "country_id": 103
    },
    {
      "id": 151000,
      "name": "Kouhestak",
      "name_default": "Kouhestak",
      "native": "کنگره",
      "type": "city",
      "level": null,
      "parent_id": null,
      "population": null,
      "latitude": "26.80426850",
      "longitude": "57.01887130",
      "timezone": "Asia/Tehran",
      "wikiDataId": null,
      "country_code": "IR",
      "state_code": "22",
      "state_id": 3937,
      "country_id": 103
    },
    {
      "id": 150988,
      "name": "Lemazan",
      "name_default": "Lemazan",
      "native": "لیمازان",
      "type": "city",
      "level": null,
      "parent_id": null,
      "population": null,
      "latitude": "27.05369130",
      "longitude": "54.83641080",
      "timezone": "Asia/Tehran",
      "wikiDataId": "Q6480991",
      "country_code": "IR",
      "state_code": "22",
      "state_id": 3937,
      "country_id": 103
    },
    {
      "id": 134705,
      "name": "Minab",
      "name_default": "Minab",
      "native": "مگس",
      "type": "adm2",
      "level": null,
      "parent_id": null,
      "population": 73170,
      "latitude": "27.13104000",
      "longitude": "57.08716000",
      "timezone": "Asia/Tehran",
      "wikiDataId": "Q691052",
      "country_code": "IR",
      "state_code": "22",
      "state_id": 3937,
      "country_id": 103
    },
    {
      "id": 134995,
      "name": "Parsisch",
      "name_default": "Parsian",
      "native": "وابسته به پارسی",
      "type": "city",
      "level": null,
      "parent_id": null,
      "population": 18045,
      "latitude": "27.16667000",
      "longitude": "53.26667000",
      "timezone": "Asia/Tehran",
      "wikiDataId": "Q5099954",
      "country_code": "IR",
      "state_code": "22",
      "state_id": 3937,
      "country_id": 103
    },
    {
      "id": 150985,
      "name": "Qaleh Qazi",
      "name_default": "Qaleh Qazi",
      "native": "کونابا و گادابا",
      "type": "city",
      "level": null,
      "parent_id": null,
      "population": null,
      "latitude": "27.44472200",
      "longitude": "56.54777800",
      "timezone": "Asia/Tehran",
      "wikiDataId": "Q7266317",
      "country_code": "IR",
      "state_code": "22",
      "state_id": 3937,
      "country_id": 103
    },
    {
      "id": 134742,
      "name": "Qeshm",
      "name_default": "Qeshm",
      "native": "احمق",
      "type": "city",
      "level": null,
      "parent_id": null,
      "population": 40678,
      "latitude": "26.78333000",
      "longitude": "55.86667000",
      "timezone": "Asia/Tehran",
      "wikiDataId": "Q1270862",
      "country_code": "IR",
      "state_code": "22",
      "state_id": 3937,
      "country_id": 103
    },
    {
      "id": 135020,
      "name": "Rudan",
      "name_default": "Rudan",
      "native": "چیز",
      "type": "adm2",
      "level": null,
      "parent_id": null,
      "population": 36121,
      "latitude": "27.53333000",
      "longitude": "57.11667000",
      "timezone": "Asia/Tehran",
      "wikiDataId": "Q5099954",
      "country_code": "IR",
      "state_code": "22",
      "state_id": 3937,
      "country_id": 103
    },
    {
      "id": 150996,
      "name": "Ruydar",
      "name_default": "Ruydar",
      "native": "رحیدار",
      "type": "city",
      "level": null,
      "parent_id": null,
      "population": 6558,
      "latitude": "27.46003100",
      "longitude": "55.40825820",
      "timezone": "Asia/Tehran",
      "wikiDataId": "Q599054",
      "country_code": "IR",
      "state_code": "22",
      "state_id": 3937,
      "country_id": 103
    },
    {
      "id": 150980,
      "name": "Sardasht Bashagard",
      "name_default": "Sardasht Bashagard",
      "native": "ساردشت باشاگارد",
      "type": "city",
      "level": null,
      "parent_id": null,
      "population": null,
      "latitude": "26.45871900",
      "longitude": "57.88425900",
      "timezone": "Asia/Tehran",
      "wikiDataId": null,
      "country_code": "IR",
      "state_code": "22",
      "state_id": 3937,
      "country_id": 103
    },
    {
      "id": 150993,
      "name": "Sargaz",
      "name_default": "Sargaz",
      "native": "سارجاز",
      "type": "city",
      "level": null,
      "parent_id": null,
      "population": null,
      "latitude": "28.42563000",
      "longitude": "55.70177000",
      "timezone": "Asia/Tehran",
      "wikiDataId": "Q7423906",
      "country_code": "IR",
      "state_code": "22",
      "state_id": 3937,
      "country_id": 103
    },
    {
      "id": 151006,
      "name": "Senderk",
      "name_default": "Senderk",
      "native": "فرستاگر",
      "type": "city",
      "level": null,
      "parent_id": null,
      "population": 1915,
      "latitude": "26.83816290",
      "longitude": "57.41788730",
      "timezone": "Asia/Tehran",
      "wikiDataId": "Q2620740",
      "country_code": "IR",
      "state_code": "22",
      "state_id": 3937,
      "country_id": 103
    },
    {
      "id": 135054,
      "name": "Sirik",
      "name_default": "Sirik",
      "native": "حسادت",
      "type": "city",
      "level": null,
      "parent_id": null,
      "population": 5137,
      "latitude": "26.50000000",
      "longitude": "57.18333000",
      "timezone": "Asia/Tehran",
      "wikiDataId": "Q1286233",
      "country_code": "IR",
      "state_code": "22",
      "state_id": 3937,
      "country_id": 103
    },
    {
      "id": 151003,
      "name": "Suza",
      "name_default": "Suzā",
      "native": "سوسن",
      "type": "city",
      "level": null,
      "parent_id": null,
      "population": 5707,
      "latitude": "26.77724030",
      "longitude": "56.04379160",
      "timezone": "Asia/Tehran",
      "wikiDataId": null,
      "country_code": "IR",
      "state_code": "22",
      "state_id": 3937,
      "country_id": 103
    },
    {
      "id": 150983,
      "name": "Takht",
      "name_default": "Takht",
      "native": "درشت",
      "type": "city",
      "level": null,
      "parent_id": null,
      "population": null,
      "latitude": "27.50356930",
      "longitude": "56.62731160",
      "timezone": "Asia/Tehran",
      "wikiDataId": "Q2389502",
      "country_code": "IR",
      "state_code": "22",
      "state_id": 3937,
      "country_id": 103
    },
    {
      "id": 150982,
      "name": "Tazian",
      "name_default": "Tazian",
      "native": "وابسته به تازی",
      "type": "city",
      "level": null,
      "parent_id": null,
      "population": null,
      "latitude": "27.29016000",
      "longitude": "56.15210300",
      "timezone": "Asia/Tehran",
      "wikiDataId": "Q7690449",
      "country_code": "IR",
      "state_code": "22",
      "state_id": 3937,
      "country_id": 103
    },
    {
      "id": 151005,
      "name": "Tirour",
      "name_default": "Tirour",
      "native": "درز",
      "type": "city",
      "level": null,
      "parent_id": null,
      "population": null,
      "latitude": "27.33793880",
      "longitude": "56.95310350",
      "timezone": "Asia/Tehran",
      "wikiDataId": null,
      "country_code": "IR",
      "state_code": "22",
      "state_id": 3937,
      "country_id": 103
    },
    {
      "id": 150999,
      "name": "Ziyārat Ali",
      "name_default": "Ziyārat Ali",
      "native": "زیارت علی",
      "type": "adm2",
      "level": null,
      "parent_id": null,
      "population": null,
      "latitude": "27.73557730",
      "longitude": "57.21072420",
      "timezone": "Asia/Tehran",
      "wikiDataId": null,
      "country_code": "IR",
      "state_code": "22",
      "state_id": 3937,
      "country_id": 103
    }
  ]
}
