{
  "locale": "pl",
  "country": {
    "id": 207,
    "code": "ES",
    "iso3": "ESP",
    "numeric_code": "724",
    "name": "Hiszpania",
    "name_default": "Spain",
    "native": "España",
    "capital": "Madrid",
    "phonecode": "34",
    "currency": "EUR",
    "currency_name": "Euro",
    "currency_symbol": "€",
    "tld": ".es",
    "population": 49315949,
    "gdp": 1799511,
    "region": "Europe",
    "region_id": 4,
    "subregion": "Southern Europe",
    "subregion_id": 16,
    "nationality": "Spanish",
    "timezones": [
      {
        "zoneName": "Africa/Ceuta",
        "gmtOffset": 3600,
        "gmtOffsetName": "UTC+01:00",
        "abbreviation": "CET",
        "tzName": "Central European Time"
      },
      {
        "zoneName": "Atlantic/Canary",
        "gmtOffset": 0,
        "gmtOffsetName": "UTC±00",
        "abbreviation": "WET",
        "tzName": "Western European Time"
      },
      {
        "zoneName": "Europe/Madrid",
        "gmtOffset": 3600,
        "gmtOffsetName": "UTC+01:00",
        "abbreviation": "CET",
        "tzName": "Central European Time"
      }
    ],
    "latitude": "40.00000000",
    "longitude": "-4.00000000",
    "emoji": "🇪🇸",
    "emojiU": "U+1F1EA U+1F1F8"
  },
  "state": {
    "id": 1157,
    "code": "P",
    "iso2": "P",
    "iso3166_2": "ES-P",
    "fips_code": "",
    "name": "Palencia",
    "name_default": "Palencia",
    "native": "Palencia",
    "type": "province",
    "level": "1",
    "parent_id": "5329",
    "population": 76578,
    "latitude": "42.00968320",
    "longitude": "-4.52879490",
    "timezone": "Europe/Madrid",
    "wikiDataId": "Q55269",
    "country_code": "ES"
  },
  "cities": [
    {
      "id": 152559,
      "name": "Abarca de Campos",
      "name_default": "Abarca de Campos",
      "native": "Abarca de Campos",
      "type": "adm3",
      "level": null,
      "parent_id": null,
      "population": 38,
      "latitude": "42.06249640",
      "longitude": "-4.84136960",
      "timezone": "Europe/Madrid",
      "wikiDataId": "Q1649176",
      "country_code": "ES",
      "state_code": "P",
      "state_id": 1157,
      "country_id": 207
    },
    {
      "id": 31912,
      "name": "Abia de las Torres",
      "name_default": "Abia de las Torres",
      "native": "Abia de las Torres",
      "type": "adm3",
      "level": null,
      "parent_id": null,
      "population": 170,
      "latitude": "42.42016000",
      "longitude": "-4.42131000",
      "timezone": "Europe/Madrid",
      "wikiDataId": "Q24012249",
      "country_code": "ES",
      "state_code": "P",
      "state_id": 1157,
      "country_id": 207
    },
    {
      "id": 31960,
      "name": "Aguilar de Campoo",
      "name_default": "Aguilar de Campoo",
      "native": "Aguilar de Campoo",
      "type": "adm3",
      "level": null,
      "parent_id": null,
      "population": 6823,
      "latitude": "42.79452000",
      "longitude": "-4.25892000",
      "timezone": "Europe/Madrid",
      "wikiDataId": "Q24012248",
      "country_code": "ES",
      "state_code": "P",
      "state_id": 1157,
      "country_id": 207
    },
    {
      "id": 32002,
      "name": "Alar del Rey",
      "name_default": "Alar del Rey",
      "native": "Alar del Rey",
      "type": "adm3",
      "level": null,
      "parent_id": null,
      "population": 1169,
      "latitude": "42.66037000",
      "longitude": "-4.31271000",
      "timezone": "Europe/Madrid",
      "wikiDataId": "Q572336",
      "country_code": "ES",
      "state_code": "P",
      "state_id": 1157,
      "country_id": 207
    },
    {
      "id": 32010,
      "name": "Alba de Cerrato",
      "name_default": "Alba de Cerrato",
      "native": "Alba de Cerrato",
      "type": "adm3",
      "level": null,
      "parent_id": null,
      "population": 82,
      "latitude": "41.81276000",
      "longitude": "-4.36470000",
      "timezone": "Europe/Madrid",
      "wikiDataId": "Q1657183",
      "country_code": "ES",
      "state_code": "P",
      "state_id": 1157,
      "country_id": 207
    },
    {
      "id": 32349,
      "name": "Amayuelas de Arriba",
      "name_default": "Amayuelas de Arriba",
      "native": "Amayuelas de Arriba",
      "type": "adm3",
      "level": null,
      "parent_id": null,
      "population": 38,
      "latitude": "42.21108000",
      "longitude": "-4.48880000",
      "timezone": "Europe/Madrid",
      "wikiDataId": "Q62127791",
      "country_code": "ES",
      "state_code": "P",
      "state_id": 1157,
      "country_id": 207
    },
    {
      "id": 32359,
      "name": "Ampudia",
      "name_default": "Ampudia",
      "native": "Ampudia",
      "type": "adm3",
      "level": null,
      "parent_id": null,
      "population": 581,
      "latitude": "41.91608000",
      "longitude": "-4.78033000",
      "timezone": "Europe/Madrid",
      "wikiDataId": "Q24012244",
      "country_code": "ES",
      "state_code": "P",
      "state_id": 1157,
      "country_id": 207
    },
    {
      "id": 32362,
      "name": "Amusco",
      "name_default": "Amusco",
      "native": "Amusco",
      "type": "adm3",
      "level": null,
      "parent_id": null,
      "population": 411,
      "latitude": "42.17306000",
      "longitude": "-4.47018000",
      "timezone": "Europe/Madrid",
      "wikiDataId": "Q1778135",
      "country_code": "ES",
      "state_code": "P",
      "state_id": 1157,
      "country_id": 207
    },
    {
      "id": 32394,
      "name": "Antigüedad",
      "name_default": "Antigüedad",
      "native": "Antigüedad",
      "type": "adm3",
      "level": null,
      "parent_id": null,
      "population": 340,
      "latitude": "41.94681000",
      "longitude": "-4.12058000",
      "timezone": "Europe/Madrid",
      "wikiDataId": "Q1922085",
      "country_code": "ES",
      "state_code": "P",
      "state_id": 1157,
      "country_id": 207
    },
    {
      "id": 32433,
      "name": "Arconada",
      "name_default": "Arconada",
      "native": "Arconada",
      "type": "adm3",
      "level": null,
      "parent_id": null,
      "population": 44,
      "latitude": "42.32774000",
      "longitude": "-4.49617000",
      "timezone": "Europe/Madrid",
      "wikiDataId": "Q1641209",
      "country_code": "ES",
      "state_code": "P",
      "state_id": 1157,
      "country_id": 207
    },
    {
      "id": 32541,
      "name": "Astudillo",
      "name_default": "Astudillo",
      "native": "Astudillo",
      "type": "adm3",
      "level": null,
      "parent_id": null,
      "population": 1038,
      "latitude": "42.19330000",
      "longitude": "-4.29394000",
      "timezone": "Europe/Madrid",
      "wikiDataId": "Q1639355",
      "country_code": "ES",
      "state_code": "P",
      "state_id": 1157,
      "country_id": 207
    },
    {
      "id": 32560,
      "name": "Autilla del Pino",
      "name_default": "Autilla del Pino",
      "native": "Autilla del Pino",
      "type": "adm3",
      "level": null,
      "parent_id": null,
      "population": 220,
      "latitude": "41.99207000",
      "longitude": "-4.63393000",
      "timezone": "Europe/Madrid",
      "wikiDataId": "Q24012241",
      "country_code": "ES",
      "state_code": "P",
      "state_id": 1157,
      "country_id": 207
    },
    {
      "id": 32561,
      "name": "Autillo de Campos",
      "name_default": "Autillo de Campos",
      "native": "Autillo de Campos",
      "type": "adm3",
      "level": null,
      "parent_id": null,
      "population": 196,
      "latitude": "42.08725000",
      "longitude": "-4.83376000",
      "timezone": "Europe/Madrid",
      "wikiDataId": "Q24012240",
      "country_code": "ES",
      "state_code": "P",
      "state_id": 1157,
      "country_id": 207
    },
    {
      "id": 32578,
      "name": "Ayuela",
      "name_default": "Ayuela",
      "native": "Ayuela",
      "type": "adm3",
      "level": null,
      "parent_id": null,
      "population": 53,
      "latitude": "42.62618000",
      "longitude": "-4.65979000",
      "timezone": "Europe/Madrid",
      "wikiDataId": "Q1647078",
      "country_code": "ES",
      "state_code": "P",
      "state_id": 1157,
      "country_id": 207
    },
    {
      "id": 32629,
      "name": "Baltanás",
      "name_default": "Baltanás",
      "native": "Baltanás",
      "type": "adm3",
      "level": null,
      "parent_id": null,
      "population": 1231,
      "latitude": "41.93775000",
      "longitude": "-4.24656000",
      "timezone": "Europe/Madrid",
      "wikiDataId": "Q1646404",
      "country_code": "ES",
      "state_code": "P",
      "state_id": 1157,
      "country_id": 207
    },
    {
      "id": 32635,
      "name": "Baquerín de Campos",
      "name_default": "Baquerín de Campos",
      "native": "Baquerín de Campos",
      "type": "adm3",
      "level": null,
      "parent_id": null,
      "population": 21,
      "latitude": "42.01600000",
      "longitude": "-4.78185000",
      "timezone": "Europe/Madrid",
      "wikiDataId": "Q1778120",
      "country_code": "ES",
      "state_code": "P",
      "state_id": 1157,
      "country_id": 207
    },
    {
      "id": 33052,
      "name": "Bárcena de Campos",
      "name_default": "Bárcena de Campos",
      "native": "Bárcena de Campos",
      "type": "adm3",
      "level": null,
      "parent_id": null,
      "population": 53,
      "latitude": "42.48428000",
      "longitude": "-4.49875000",
      "timezone": "Europe/Madrid",
      "wikiDataId": "Q1907591",
      "country_code": "ES",
      "state_code": "P",
      "state_id": 1157,
      "country_id": 207
    },
    {
      "id": 32682,
      "name": "Barruelo de Santullán",
      "name_default": "Barruelo de Santullán",
      "native": "Barruelo de Santus",
      "type": "adm3",
      "level": null,
      "parent_id": null,
      "population": 1574,
      "latitude": "42.90641000",
      "longitude": "-4.28593000",
      "timezone": "Europe/Madrid",
      "wikiDataId": "Q1776891",
      "country_code": "ES",
      "state_code": "P",
      "state_id": 1157,
      "country_id": 207
    },
    {
      "id": 33055,
      "name": "Báscones de Ojeda",
      "name_default": "Báscones de Ojeda",
      "native": "Báscones de Ojeda",
      "type": "adm3",
      "level": null,
      "parent_id": null,
      "population": 196,
      "latitude": "42.67064000",
      "longitude": "-4.52693000",
      "timezone": "Europe/Madrid",
      "wikiDataId": "Q934968",
      "country_code": "ES",
      "state_code": "P",
      "state_id": 1157,
      "country_id": 207
    },
    {
      "id": 32724,
      "name": "Becerril de Campos",
      "name_default": "Becerril de Campos",
      "native": "Becerril de Campos",
      "type": "adm3",
      "level": null,
      "parent_id": null,
      "population": 1021,
      "latitude": "42.10841000",
      "longitude": "-4.64152000",
      "timezone": "Europe/Madrid",
      "wikiDataId": "Q1906940",
      "country_code": "ES",
      "state_code": "P",
      "state_id": 1157,
      "country_id": 207
    },
    {
      "id": 32749,
      "name": "Belmonte de Campos",
      "name_default": "Belmonte de Campos",
      "native": "Belmonte de Campos",
      "type": "adm3",
      "level": null,
      "parent_id": null,
      "population": 30,
      "latitude": "41.94255000",
      "longitude": "-4.98659000",
      "timezone": "Europe/Madrid",
      "wikiDataId": "Q816113",
      "country_code": "ES",
      "state_code": "P",
      "state_id": 1157,
      "country_id": 207
    },
    {
      "id": 32876,
      "name": "Berzosilla",
      "name_default": "Berzosilla",
      "native": "Berzos",
      "type": "adm3",
      "level": null,
      "parent_id": null,
      "population": 62,
      "latitude": "42.78053000",
      "longitude": "-4.03753000",
      "timezone": "Europe/Madrid",
      "wikiDataId": "Q1907531",
      "country_code": "ES",
      "state_code": "P",
      "state_id": 1157,
      "country_id": 207
    },
    {
      "id": 32915,
      "name": "Boada de Campos",
      "name_default": "Boada de Campos",
      "native": "Boada de Campos",
      "type": "adm3",
      "level": null,
      "parent_id": null,
      "population": 22,
      "latitude": "41.98957000",
      "longitude": "-4.87730000",
      "timezone": "Europe/Madrid",
      "wikiDataId": "Q775826",
      "country_code": "ES",
      "state_code": "P",
      "state_id": 1157,
      "country_id": 207
    },
    {
      "id": 152560,
      "name": "Boadilla de Rioseco",
      "name_default": "Boadilla de Rioseco",
      "native": "Boadilla de Rioseco",
      "type": "adm3",
      "level": null,
      "parent_id": null,
      "population": 101,
      "latitude": "42.18000060",
      "longitude": "-4.96950850",
      "timezone": "Europe/Madrid",
      "wikiDataId": "Q1923892",
      "country_code": "ES",
      "state_code": "P",
      "state_id": 1157,
      "country_id": 207
    },
    {
      "id": 32916,
      "name": "Boadilla del Camino",
      "name_default": "Boadilla del Camino",
      "native": "Boadilla del Camino",
      "type": "adm3",
      "level": null,
      "parent_id": null,
      "population": 160,
      "latitude": "42.25934000",
      "longitude": "-4.34525000",
      "timezone": "Europe/Madrid",
      "wikiDataId": "Q592699",
      "country_code": "ES",
      "state_code": "P",
      "state_id": 1157,
      "country_id": 207
    },
    {
      "id": 32973,
      "name": "Brañosera",
      "name_default": "Brañosera",
      "native": "Brañosera",
      "type": "adm3",
      "level": null,
      "parent_id": null,
      "population": 253,
      "latitude": "42.93620000",
      "longitude": "-4.30833000",
      "timezone": "Europe/Madrid",
      "wikiDataId": "Q1923970",
      "country_code": "ES",
      "state_code": "P",
      "state_id": 1157,
      "country_id": 207
    },
    {
      "id": 33004,
      "name": "Buenavista de Valdavia",
      "name_default": "Buenavista de Valdavia",
      "native": "Buenavista de Valdavia",
      "type": "adm3",
      "level": null,
      "parent_id": null,
      "population": 431,
      "latitude": "42.63788000",
      "longitude": "-4.61446000",
      "timezone": "Europe/Madrid",
      "wikiDataId": "Q1923852",
      "country_code": "ES",
      "state_code": "P",
      "state_id": 1157,
      "country_id": 207
    },
    {
      "id": 33040,
      "name": "Bustillo de la Vega",
      "name_default": "Bustillo de la Vega",
      "native": "Bustillo de la Vega",
      "type": "adm3",
      "level": null,
      "parent_id": null,
      "population": 359,
      "latitude": "42.45605000",
      "longitude": "-4.74115000",
      "timezone": "Europe/Madrid",
      "wikiDataId": "Q1923886",
      "country_code": "ES",
      "state_code": "P",
      "state_id": 1157,
      "country_id": 207
    },
    {
      "id": 33043,
      "name": "Bustillo del Páramo de Carrión",
      "name_default": "Bustillo del Páramo de Carrión",
      "native": "Bustillo del Páramo de Carrión",
      "type": "adm3",
      "level": null,
      "parent_id": null,
      "population": 79,
      "latitude": "42.35509000",
      "longitude": "-4.73980000",
      "timezone": "Europe/Madrid",
      "wikiDataId": "Q1907581",
      "country_code": "ES",
      "state_code": "P",
      "state_id": 1157,
      "country_id": 207
    },
    {
      "id": 33127,
      "name": "Calahorra de Boedo",
      "name_default": "Calahorra de Boedo",
      "native": "Calahorra de Boedo",
      "type": "adm3",
      "level": null,
      "parent_id": null,
      "population": 123,
      "latitude": "42.57409000",
      "longitude": "-4.38485000",
      "timezone": "Europe/Madrid",
      "wikiDataId": "Q1923939",
      "country_code": "ES",
      "state_code": "P",
      "state_id": 1157,
      "country_id": 207
    },
    {
      "id": 33159,
      "name": "Calzada de los Molinos",
      "name_default": "Calzada de los Molinos",
      "native": "Calzada de los Molinos",
      "type": "adm3",
      "level": null,
      "parent_id": null,
      "population": 310,
      "latitude": "42.32724000",
      "longitude": "-4.65293000",
      "timezone": "Europe/Madrid",
      "wikiDataId": "Q1929306",
      "country_code": "ES",
      "state_code": "P",
      "state_id": 1157,
      "country_id": 207
    },
    {
      "id": 33270,
      "name": "Włośniczki",
      "name_default": "Capillas",
      "native": "Capillas",
      "type": "adm3",
      "level": null,
      "parent_id": null,
      "population": 100,
      "latitude": "42.01362000",
      "longitude": "-4.89051000",
      "timezone": "Europe/Madrid",
      "wikiDataId": "Q1923879",
      "country_code": "ES",
      "state_code": "P",
      "state_id": 1157,
      "country_id": 207
    },
    {
      "id": 33302,
      "name": "Cardeñosa de Volpejera",
      "name_default": "Cardeñosa de Volpejera",
      "native": "Cardeñosa de Volpejera",
      "type": "adm3",
      "level": null,
      "parent_id": null,
      "population": 60,
      "latitude": "42.23214000",
      "longitude": "-4.70197000",
      "timezone": "Europe/Madrid",
      "wikiDataId": "Q922250",
      "country_code": "ES",
      "state_code": "P",
      "state_id": 1157,
      "country_id": 207
    },
    {
      "id": 33332,
      "name": "Carrión de los Condes",
      "name_default": "Carrión de los Condes",
      "native": "Carrión de los Condes",
      "type": "adm3",
      "level": null,
      "parent_id": null,
      "population": 2000,
      "latitude": "42.34130000",
      "longitude": "-4.60071000",
      "timezone": "Europe/Madrid",
      "wikiDataId": "Q24012217",
      "country_code": "ES",
      "state_code": "P",
      "state_id": 1157,
      "country_id": 207
    },
    {
      "id": 33445,
      "name": "Castil de Vela",
      "name_default": "Castil de Vela",
      "native": "Castil de Vela",
      "type": "adm3",
      "level": null,
      "parent_id": null,
      "population": 85,
      "latitude": "41.98461000",
      "longitude": "-4.95920000",
      "timezone": "Europe/Madrid",
      "wikiDataId": "Q925497",
      "country_code": "ES",
      "state_code": "P",
      "state_id": 1157,
      "country_id": 207
    },
    {
      "id": 33472,
      "name": "Castrejón de la Peña",
      "name_default": "Castrejón de la Peña",
      "native": "Castrejón de la Peña",
      "type": "adm3",
      "level": null,
      "parent_id": null,
      "population": 564,
      "latitude": "42.80795000",
      "longitude": "-4.59901000",
      "timezone": "Europe/Madrid",
      "wikiDataId": "Q1929204",
      "country_code": "ES",
      "state_code": "P",
      "state_id": 1157,
      "country_id": 207
    },
    {
      "id": 33476,
      "name": "Castrillo de Don Juan",
      "name_default": "Castrillo de Don Juan",
      "native": "Castrillo de Don Juan",
      "type": "adm3",
      "level": null,
      "parent_id": null,
      "population": 298,
      "latitude": "41.79086000",
      "longitude": "-4.07031000",
      "timezone": "Europe/Madrid",
      "wikiDataId": "Q1915050",
      "country_code": "ES",
      "state_code": "P",
      "state_id": 1157,
      "country_id": 207
    },
    {
      "id": 33478,
      "name": "Castrillo de Onielo",
      "name_default": "Castrillo de Onielo",
      "native": "Castrillo de Onielo",
      "type": "adm3",
      "level": null,
      "parent_id": null,
      "population": 153,
      "latitude": "41.85820000",
      "longitude": "-4.30125000",
      "timezone": "Europe/Madrid",
      "wikiDataId": "Q1949179",
      "country_code": "ES",
      "state_code": "P",
      "state_id": 1157,
      "country_id": 207
    },
    {
      "id": 33479,
      "name": "Castrillo de Villavega",
      "name_default": "Castrillo de Villavega",
      "native": "Castrillo de Villavega",
      "type": "adm3",
      "level": null,
      "parent_id": null,
      "population": 245,
      "latitude": "42.45463000",
      "longitude": "-4.48069000",
      "timezone": "Europe/Madrid",
      "wikiDataId": "Q24012212",
      "country_code": "ES",
      "state_code": "P",
      "state_id": 1157,
      "country_id": 207
    },
    {
      "id": 33500,
      "name": "Castromocho",
      "name_default": "Castromocho",
      "native": "Castromocho",
      "type": "adm3",
      "level": null,
      "parent_id": null,
      "population": 260,
      "latitude": "42.03104000",
      "longitude": "-4.82404000",
      "timezone": "Europe/Madrid",
      "wikiDataId": "Q1923846",
      "country_code": "ES",
      "state_code": "P",
      "state_id": 1157,
      "country_id": 207
    },
    {
      "id": 33593,
      "name": "Cervatos de la Cueza",
      "name_default": "Cervatos de la Cueza",
      "native": "Cervatos de la Cueza",
      "type": "adm3",
      "level": null,
      "parent_id": null,
      "population": 334,
      "latitude": "42.29054000",
      "longitude": "-4.76947000",
      "timezone": "Europe/Madrid",
      "wikiDataId": "Q1915073",
      "country_code": "ES",
      "state_code": "P",
      "state_id": 1157,
      "country_id": 207
    },
    {
      "id": 33597,
      "name": "Cervera de Pisuerga",
      "name_default": "Cervera de Pisuerga",
      "native": "Cervera de Pisuerga",
      "type": "adm3",
      "level": null,
      "parent_id": null,
      "population": 2283,
      "latitude": "42.86676000",
      "longitude": "-4.49796000",
      "timezone": "Europe/Madrid",
      "wikiDataId": "Q1771120",
      "country_code": "ES",
      "state_code": "P",
      "state_id": 1157,
      "country_id": 207
    },
    {
      "id": 33612,
      "name": "Cevico de la Torre",
      "name_default": "Cevico de la Torre",
      "native": "Cevico de la Torre",
      "type": "adm3",
      "level": null,
      "parent_id": null,
      "population": 476,
      "latitude": "41.85113000",
      "longitude": "-4.40973000",
      "timezone": "Europe/Madrid",
      "wikiDataId": "Q1923913",
      "country_code": "ES",
      "state_code": "P",
      "state_id": 1157,
      "country_id": 207
    },
    {
      "id": 33611,
      "name": "Cevico Navero",
      "name_default": "Cevico Navero",
      "native": "Cevico Navero",
      "type": "adm3",
      "level": null,
      "parent_id": null,
      "population": 251,
      "latitude": "41.86112000",
      "longitude": "-4.18498000",
      "timezone": "Europe/Madrid",
      "wikiDataId": "Q1919414",
      "country_code": "ES",
      "state_code": "P",
      "state_id": 1157,
      "country_id": 207
    },
    {
      "id": 33691,
      "name": "Cisneros",
      "name_default": "Cisneros",
      "native": "Cisneros",
      "type": "adm3",
      "level": null,
      "parent_id": null,
      "population": 543,
      "latitude": "42.22046000",
      "longitude": "-4.85807000",
      "timezone": "Europe/Madrid",
      "wikiDataId": "Q62415411",
      "country_code": "ES",
      "state_code": "P",
      "state_id": 1157,
      "country_id": 207
    },
    {
      "id": 33711,
      "name": "Cobos de Cerrato",
      "name_default": "Cobos de Cerrato",
      "native": "Cobos de Cerrato",
      "type": "adm3",
      "level": null,
      "parent_id": null,
      "population": 213,
      "latitude": "42.02808000",
      "longitude": "-4.00251000",
      "timezone": "Europe/Madrid",
      "wikiDataId": "Q1923975",
      "country_code": "ES",
      "state_code": "P",
      "state_id": 1157,
      "country_id": 207
    },
    {
      "id": 33737,
      "name": "Collazos de Boedo",
      "name_default": "Collazos de Boedo",
      "native": "Collazos de Boedo",
      "type": "adm3",
      "level": null,
      "parent_id": null,
      "population": 157,
      "latitude": "42.62009000",
      "longitude": "-4.48294000",
      "timezone": "Europe/Madrid",
      "wikiDataId": "Q1923956",
      "country_code": "ES",
      "state_code": "P",
      "state_id": 1157,
      "country_id": 207
    },
    {
      "id": 33759,
      "name": "Congosto de Valdavia",
      "name_default": "Congosto de Valdavia",
      "native": "Congosto de Valdavia",
      "type": "adm3",
      "level": null,
      "parent_id": null,
      "population": 231,
      "latitude": "42.71584000",
      "longitude": "-4.63366000",
      "timezone": "Europe/Madrid",
      "wikiDataId": "Q1923922",
      "country_code": "ES",
      "state_code": "P",
      "state_id": 1157,
      "country_id": 207
    },
    {
      "id": 33782,
      "name": "Cordovilla la Real",
      "name_default": "Cordovilla la Real",
      "native": "Cordovilla la Real",
      "type": "adm3",
      "level": null,
      "parent_id": null,
      "population": 132,
      "latitude": "42.07961000",
      "longitude": "-4.25988000",
      "timezone": "Europe/Madrid",
      "wikiDataId": "Q1923964",
      "country_code": "ES",
      "state_code": "P",
      "state_id": 1157,
      "country_id": 207
    },
    {
      "id": 33850,
      "name": "Cubillas de Cerrato",
      "name_default": "Cubillas de Cerrato",
      "native": "Cubillas de Cerrato",
      "type": "adm3",
      "level": null,
      "parent_id": null,
      "population": 65,
      "latitude": "41.79844000",
      "longitude": "-4.46720000",
      "timezone": "Europe/Madrid",
      "wikiDataId": "Q1907612",
      "country_code": "ES",
      "state_code": "P",
      "state_id": 1157,
      "country_id": 207
    },
    {
      "id": 33918,
      "name": "Dehesa de Montejo",
      "name_default": "Dehesa de Montejo",
      "native": "Dehesa de Montejo",
      "type": "adm3",
      "level": null,
      "parent_id": null,
      "population": 188,
      "latitude": "42.81939000",
      "longitude": "-4.51019000",
      "timezone": "Europe/Madrid",
      "wikiDataId": "Q1119428",
      "country_code": "ES",
      "state_code": "P",
      "state_id": 1157,
      "country_id": 207
    },
    {
      "id": 33919,
      "name": "Dehesa de Romanos",
      "name_default": "Dehesa de Romanos",
      "native": "Dehesa de Romanos",
      "type": "adm3",
      "level": null,
      "parent_id": null,
      "population": 49,
      "latitude": "42.63876000",
      "longitude": "-4.43518000",
      "timezone": "Europe/Madrid",
      "wikiDataId": "Q1906992",
      "country_code": "ES",
      "state_code": "P",
      "state_id": 1157,
      "country_id": 207
    },
    {
      "id": 33959,
      "name": "Dueñas",
      "name_default": "Dueñas",
      "native": "Dueñas",
      "type": "adm3",
      "level": null,
      "parent_id": null,
      "population": 2584,
      "latitude": "41.87717000",
      "longitude": "-4.54714000",
      "timezone": "Europe/Madrid",
      "wikiDataId": "Q1657014",
      "country_code": "ES",
      "state_code": "P",
      "state_id": 1157,
      "country_id": 207
    },
    {
      "id": 34118,
      "name": "Espinosa de Cerrato",
      "name_default": "Espinosa de Cerrato",
      "native": "Espinosa de Cerrato",
      "type": "adm3",
      "level": null,
      "parent_id": null,
      "population": 208,
      "latitude": "41.96679000",
      "longitude": "-3.95346000",
      "timezone": "Europe/Madrid",
      "wikiDataId": "Q1929219",
      "country_code": "ES",
      "state_code": "P",
      "state_id": 1157,
      "country_id": 207
    },
    {
      "id": 34121,
      "name": "Espinosa de Villagonzalo",
      "name_default": "Espinosa de Villagonzalo",
      "native": "Espinosa de Villagonzalo",
      "type": "adm3",
      "level": null,
      "parent_id": null,
      "population": 221,
      "latitude": "42.47949000",
      "longitude": "-4.37218000",
      "timezone": "Europe/Madrid",
      "wikiDataId": "Q1923896",
      "country_code": "ES",
      "state_code": "P",
      "state_id": 1157,
      "country_id": 207
    },
    {
      "id": 34240,
      "name": "Frechilla",
      "name_default": "Frechilla",
      "native": "Frechilla",
      "type": "adm3",
      "level": null,
      "parent_id": null,
      "population": 250,
      "latitude": "42.13768000",
      "longitude": "-4.84112000",
      "timezone": "Europe/Madrid",
      "wikiDataId": "Q24001466",
      "country_code": "ES",
      "state_code": "P",
      "state_id": 1157,
      "country_id": 207
    },
    {
      "id": 34264,
      "name": "Fresno del Río",
      "name_default": "Fresno del Río",
      "native": "Fresno del Río",
      "type": "adm3",
      "level": null,
      "parent_id": null,
      "population": 0,
      "latitude": "42.68176000",
      "longitude": "-4.81734000",
      "timezone": "Europe/Madrid",
      "wikiDataId": "Q950285",
      "country_code": "ES",
      "state_code": "P",
      "state_id": 1157,
      "country_id": 207
    },
    {
      "id": 34273,
      "name": "Frómista",
      "name_default": "Frómista",
      "native": "Duende",
      "type": "adm3",
      "level": null,
      "parent_id": null,
      "population": 747,
      "latitude": "42.26667000",
      "longitude": "-4.40546000",
      "timezone": "Europe/Madrid",
      "wikiDataId": "Q988834",
      "country_code": "ES",
      "state_code": "P",
      "state_id": 1157,
      "country_id": 207
    },
    {
      "id": 34347,
      "name": "Źródła Nava",
      "name_default": "Fuentes de Nava",
      "native": "Fuentes de Nava",
      "type": "adm3",
      "level": null,
      "parent_id": null,
      "population": 767,
      "latitude": "42.08333000",
      "longitude": "-4.78333000",
      "timezone": "Europe/Madrid",
      "wikiDataId": "Q936286",
      "country_code": "ES",
      "state_code": "P",
      "state_id": 1157,
      "country_id": 207
    },
    {
      "id": 34351,
      "name": "Źródła Valdepero",
      "name_default": "Fuentes de Valdepero",
      "native": "Fuentes de Valdepero",
      "type": "adm3",
      "level": null,
      "parent_id": null,
      "population": 232,
      "latitude": "42.07532000",
      "longitude": "-4.50050000",
      "timezone": "Europe/Madrid",
      "wikiDataId": "Q1923930",
      "country_code": "ES",
      "state_code": "P",
      "state_id": 1157,
      "country_id": 207
    },
    {
      "id": 34512,
      "name": "Grijota",
      "name_default": "Grijota",
      "native": "Romper",
      "type": "adm3",
      "level": null,
      "parent_id": null,
      "population": 1047,
      "latitude": "42.05289000",
      "longitude": "-4.58309000",
      "timezone": "Europe/Madrid",
      "wikiDataId": "Q1771168",
      "country_code": "ES",
      "state_code": "P",
      "state_id": 1157,
      "country_id": 207
    },
    {
      "id": 34536,
      "name": "Strażnik",
      "name_default": "Guardo",
      "native": "Miro",
      "type": "adm3",
      "level": null,
      "parent_id": null,
      "population": 7920,
      "latitude": "42.78966000",
      "longitude": "-4.84823000",
      "timezone": "Europe/Madrid",
      "wikiDataId": "Q1771104",
      "country_code": "ES",
      "state_code": "P",
      "state_id": 1157,
      "country_id": 207
    },
    {
      "id": 34540,
      "name": "Guaza de Campos",
      "name_default": "Guaza de Campos",
      "native": "Guaza de Campos",
      "type": "adm3",
      "level": null,
      "parent_id": null,
      "population": 56,
      "latitude": "42.13365000",
      "longitude": "-4.90949000",
      "timezone": "Europe/Madrid",
      "wikiDataId": "Q62128920",
      "country_code": "ES",
      "state_code": "P",
      "state_id": 1157,
      "country_id": 207
    },
    {
      "id": 34721,
      "name": "Hermedes z Cerrato",
      "name_default": "Hérmedes de Cerrato",
      "native": "Hérmedes de Cerrato",
      "type": "adm3",
      "level": null,
      "parent_id": null,
      "population": 123,
      "latitude": "41.81972000",
      "longitude": "-4.17361000",
      "timezone": "Europe/Madrid",
      "wikiDataId": "Q1918894",
      "country_code": "ES",
      "state_code": "P",
      "state_id": 1157,
      "country_id": 207
    },
    {
      "id": 34595,
      "name": "Herrera de Pisuerga",
      "name_default": "Herrera de Pisuerga",
      "native": "Herrera de Pisuerga",
      "type": "adm3",
      "level": null,
      "parent_id": null,
      "population": 2440,
      "latitude": "42.59492000",
      "longitude": "-4.33034000",
      "timezone": "Europe/Madrid",
      "wikiDataId": "Q567563",
      "country_code": "ES",
      "state_code": "P",
      "state_id": 1157,
      "country_id": 207
    },
    {
      "id": 34597,
      "name": "Herrera de Valdecañas",
      "name_default": "Herrera de Valdecañas",
      "native": "Herrera de Valdecañas",
      "type": "adm3",
      "level": null,
      "parent_id": null,
      "population": 157,
      "latitude": "42.04828000",
      "longitude": "-4.20004000",
      "timezone": "Europe/Madrid",
      "wikiDataId": "Q1919384",
      "country_code": "ES",
      "state_code": "P",
      "state_id": 1157,
      "country_id": 207
    },
    {
      "id": 34646,
      "name": "Hontoria de Cerrato",
      "name_default": "Hontoria de Cerrato",
      "native": "Hontoria de Cerrato",
      "type": "adm3",
      "level": null,
      "parent_id": null,
      "population": 107,
      "latitude": "41.91061000",
      "longitude": "-4.44209000",
      "timezone": "Europe/Madrid",
      "wikiDataId": "Q1918741",
      "country_code": "ES",
      "state_code": "P",
      "state_id": 1157,
      "country_id": 207
    },
    {
      "id": 34662,
      "name": "Hornillos de Cerrato",
      "name_default": "Hornillos de Cerrato",
      "native": "Hornillos de Cerrato",
      "type": "adm3",
      "level": null,
      "parent_id": null,
      "population": 119,
      "latitude": "41.98772000",
      "longitude": "-4.27207000",
      "timezone": "Europe/Madrid",
      "wikiDataId": "Q1918521",
      "country_code": "ES",
      "state_code": "P",
      "state_id": 1157,
      "country_id": 207
    },
    {
      "id": 34705,
      "name": "Husillos",
      "name_default": "Husillos",
      "native": "Husillos",
      "type": "adm3",
      "level": null,
      "parent_id": null,
      "population": 200,
      "latitude": "42.09054000",
      "longitude": "-4.52709000",
      "timezone": "Europe/Madrid",
      "wikiDataId": "Q1918753",
      "country_code": "ES",
      "state_code": "P",
      "state_id": 1157,
      "country_id": 207
    },
    {
      "id": 34770,
      "name": "Itero de la Vega",
      "name_default": "Itero de la Vega",
      "native": "Itero de la Vega",
      "type": "adm3",
      "level": null,
      "parent_id": null,
      "population": 213,
      "latitude": "42.28804000",
      "longitude": "-4.25677000",
      "timezone": "Europe/Madrid",
      "wikiDataId": "Q988840",
      "country_code": "ES",
      "state_code": "P",
      "state_id": 1157,
      "country_id": 207
    },
    {
      "id": 152573,
      "name": "La Pernía",
      "name_default": "La Pernía",
      "native": "La Pernía",
      "type": "city",
      "level": null,
      "parent_id": null,
      "population": 301,
      "latitude": "42.98949270",
      "longitude": "-4.50058080",
      "timezone": "Europe/Madrid",
      "wikiDataId": "Q120173508",
      "country_code": "ES",
      "state_code": "P",
      "state_id": 1157,
      "country_id": 207
    },
    {
      "id": 152563,
      "name": "La Puebla de Valdavia",
      "name_default": "La Puebla de Valdavia",
      "native": "La Puebla de Valdavia",
      "type": "adm3",
      "level": null,
      "parent_id": null,
      "population": 81,
      "latitude": "42.67944970",
      "longitude": "-4.58823920",
      "timezone": "Europe/Madrid",
      "wikiDataId": "Q120173506",
      "country_code": "ES",
      "state_code": "P",
      "state_id": 1157,
      "country_id": 207
    },
    {
      "id": 152564,
      "name": "La Serna",
      "name_default": "La Serna",
      "native": "La Serna",
      "type": "adm3",
      "level": null,
      "parent_id": null,
      "population": 220,
      "latitude": "42.41615260",
      "longitude": "-4.66408780",
      "timezone": "Europe/Madrid",
      "wikiDataId": "Q120173663",
      "country_code": "ES",
      "state_code": "P",
      "state_id": 1157,
      "country_id": 207
    },
    {
      "id": 152561,
      "name": "La Vid de Ojeda",
      "name_default": "La Vid de Ojeda",
      "native": "La Vid de Ojeda",
      "type": "adm3",
      "level": null,
      "parent_id": null,
      "population": 123,
      "latitude": "42.65991950",
      "longitude": "-4.38542410",
      "timezone": "Europe/Madrid",
      "wikiDataId": "Q120173512",
      "country_code": "ES",
      "state_code": "P",
      "state_id": 1157,
      "country_id": 207
    },
    {
      "id": 34940,
      "name": "Lagartos",
      "name_default": "Lagartos",
      "native": "Lagarto",
      "type": "adm3",
      "level": null,
      "parent_id": null,
      "population": 117,
      "latitude": "42.40578000",
      "longitude": "-4.90454000",
      "timezone": "Europe/Madrid",
      "wikiDataId": "Q24012182",
      "country_code": "ES",
      "state_code": "P",
      "state_id": 1157,
      "country_id": 207
    },
    {
      "id": 34968,
      "name": "Lantadilla",
      "name_default": "Lantadilla",
      "native": "Ladadilla",
      "type": "adm3",
      "level": null,
      "parent_id": null,
      "population": 442,
      "latitude": "42.34078000",
      "longitude": "-4.27866000",
      "timezone": "Europe/Madrid",
      "wikiDataId": "Q1918829",
      "country_code": "ES",
      "state_code": "P",
      "state_id": 1157,
      "country_id": 207
    },
    {
      "id": 35018,
      "name": "Ledigos",
      "name_default": "Ledigos",
      "native": "El helado",
      "type": "adm3",
      "level": null,
      "parent_id": null,
      "population": 92,
      "latitude": "42.35480000",
      "longitude": "-4.86480000",
      "timezone": "Europe/Madrid",
      "wikiDataId": "Q956367",
      "country_code": "ES",
      "state_code": "P",
      "state_id": 1157,
      "country_id": 207
    },
    {
      "id": 152572,
      "name": "Loma de Ucieza",
      "name_default": "Loma de Ucieza",
      "native": "Loma de Ucieza",
      "type": "adm3",
      "level": null,
      "parent_id": null,
      "population": 192,
      "latitude": "42.46977340",
      "longitude": "-4.57275980",
      "timezone": "Europe/Madrid",
      "wikiDataId": "Q1918575",
      "country_code": "ES",
      "state_code": "P",
      "state_id": 1157,
      "country_id": 207
    },
    {
      "id": 35103,
      "name": "Lomas",
      "name_default": "Lomas",
      "native": "Lomas",
      "type": "adm3",
      "level": null,
      "parent_id": null,
      "population": 54,
      "latitude": "42.27362000",
      "longitude": "-4.55095000",
      "timezone": "Europe/Madrid",
      "wikiDataId": "Q31917806",
      "country_code": "ES",
      "state_code": "P",
      "state_id": 1157,
      "country_id": 207
    },
    {
      "id": 152562,
      "name": "Magazyn Pisuerga",
      "name_default": "Magaz de Pisuerga",
      "native": "Revista de Pisuerga",
      "type": "adm3",
      "level": null,
      "parent_id": null,
      "population": 1034,
      "latitude": "41.98262540",
      "longitude": "-4.42756100",
      "timezone": "Europe/Madrid",
      "wikiDataId": "Q660256",
      "country_code": "ES",
      "state_code": "P",
      "state_id": 1157,
      "country_id": 207
    },
    {
      "id": 35255,
      "name": "Manquillos",
      "name_default": "Manquillos",
      "native": "Manquillos",
      "type": "adm3",
      "level": null,
      "parent_id": null,
      "population": 58,
      "latitude": "42.20518000",
      "longitude": "-4.56841000",
      "timezone": "Europe/Madrid",
      "wikiDataId": "Q783867",
      "country_code": "ES",
      "state_code": "P",
      "state_id": 1157,
      "country_id": 207
    },
    {
      "id": 35260,
      "name": "Mantinos",
      "name_default": "Mantinos",
      "native": "Mantinos",
      "type": "adm3",
      "level": null,
      "parent_id": null,
      "population": 146,
      "latitude": "42.75259000",
      "longitude": "-4.84213000",
      "timezone": "Europe/Madrid",
      "wikiDataId": "Q1918548",
      "country_code": "ES",
      "state_code": "P",
      "state_id": 1157,
      "country_id": 207
    },
    {
      "id": 35287,
      "name": "Marcilla de Campos",
      "name_default": "Marcilla de Campos",
      "native": "Marcilla de Campos",
      "type": "adm3",
      "level": null,
      "parent_id": null,
      "population": 58,
      "latitude": "42.31770000",
      "longitude": "-4.39670000",
      "timezone": "Europe/Madrid",
      "wikiDataId": "Q1907507",
      "country_code": "ES",
      "state_code": "P",
      "state_id": 1157,
      "country_id": 207
    },
    {
      "id": 35355,
      "name": "Mazariegos",
      "name_default": "Mazariegos",
      "native": "Mazariegos",
      "type": "adm3",
      "level": null,
      "parent_id": null,
      "population": 268,
      "latitude": "42.02691000",
      "longitude": "-4.71542000",
      "timezone": "Europe/Madrid",
      "wikiDataId": "Q1918869",
      "country_code": "ES",
      "state_code": "P",
      "state_id": 1157,
      "country_id": 207
    },
    {
      "id": 35359,
      "name": "Mazuecos de Valdeginate",
      "name_default": "Mazuecos de Valdeginate",
      "native": "Mazuecos de valdeginato",
      "type": "adm3",
      "level": null,
      "parent_id": null,
      "population": 119,
      "latitude": "42.16814000",
      "longitude": "-4.84059000",
      "timezone": "Europe/Madrid",
      "wikiDataId": "Q1918560",
      "country_code": "ES",
      "state_code": "P",
      "state_id": 1157,
      "country_id": 207
    },
    {
      "id": 35389,
      "name": "Melgar de Yuso",
      "name_default": "Melgar de Yuso",
      "native": "Melgar de Yuso",
      "type": "adm3",
      "level": null,
      "parent_id": null,
      "population": 345,
      "latitude": "42.25381000",
      "longitude": "-4.25394000",
      "timezone": "Europe/Madrid",
      "wikiDataId": "Q1984852",
      "country_code": "ES",
      "state_code": "P",
      "state_id": 1157,
      "country_id": 207
    },
    {
      "id": 35402,
      "name": "Meneses de Campos",
      "name_default": "Meneses de Campos",
      "native": "Meneses de Campos",
      "type": "adm3",
      "level": null,
      "parent_id": null,
      "population": 143,
      "latitude": "41.94142000",
      "longitude": "-4.91927000",
      "timezone": "Europe/Madrid",
      "wikiDataId": "Q24012173",
      "country_code": "ES",
      "state_code": "P",
      "state_id": 1157,
      "country_id": 207
    },
    {
      "id": 35419,
      "name": "Micieces de Ojeda",
      "name_default": "Micieces de Ojeda",
      "native": "Micieces de Ojeda",
      "type": "adm3",
      "level": null,
      "parent_id": null,
      "population": 102,
      "latitude": "42.69078000",
      "longitude": "-4.46166000",
      "timezone": "Europe/Madrid",
      "wikiDataId": "Q390005",
      "country_code": "ES",
      "state_code": "P",
      "state_id": 1157,
      "country_id": 207
    },
    {
      "id": 35591,
      "name": "Monzón de Campos",
      "name_default": "Monzón de Campos",
      "native": "Monzón de Campos",
      "type": "adm3",
      "level": null,
      "parent_id": null,
      "population": 583,
      "latitude": "42.11604000",
      "longitude": "-4.49283000",
      "timezone": "Europe/Madrid",
      "wikiDataId": "Q1919373",
      "country_code": "ES",
      "state_code": "P",
      "state_id": 1157,
      "country_id": 207
    },
    {
      "id": 35620,
      "name": "Moratinos",
      "name_default": "Moratinos",
      "native": "Moratoria",
      "type": "adm3",
      "level": null,
      "parent_id": null,
      "population": 76,
      "latitude": "42.36191000",
      "longitude": "-4.92831000",
      "timezone": "Europe/Madrid",
      "wikiDataId": "Q23992632",
      "country_code": "ES",
      "state_code": "P",
      "state_id": 1157,
      "country_id": 207
    },
    {
      "id": 35654,
      "name": "Mudá",
      "name_default": "Mudá",
      "native": "Lodo",
      "type": "adm3",
      "level": null,
      "parent_id": null,
      "population": 80,
      "latitude": "42.87530000",
      "longitude": "-4.39426000",
      "timezone": "Europe/Madrid",
      "wikiDataId": "Q1915062",
      "country_code": "ES",
      "state_code": "P",
      "state_id": 1157,
      "country_id": 207
    },
    {
      "id": 35815,
      "name": "Nogal de las Huertas",
      "name_default": "Nogal de las Huertas",
      "native": "Nogal de las Huertas",
      "type": "adm3",
      "level": null,
      "parent_id": null,
      "population": 59,
      "latitude": "42.39255000",
      "longitude": "-4.64156000",
      "timezone": "Europe/Madrid",
      "wikiDataId": "Q1641701",
      "country_code": "ES",
      "state_code": "P",
      "state_id": 1157,
      "country_id": 207
    },
    {
      "id": 35875,
      "name": "Olea de Boedo",
      "name_default": "Olea de Boedo",
      "native": "Olea de Boedo",
      "type": "adm3",
      "level": null,
      "parent_id": null,
      "population": 39,
      "latitude": "42.60990000",
      "longitude": "-4.45040000",
      "timezone": "Europe/Madrid",
      "wikiDataId": "Q1907635",
      "country_code": "ES",
      "state_code": "P",
      "state_id": 1157,
      "country_id": 207
    },
    {
      "id": 35906,
      "name": "Olmos de Ojeda",
      "name_default": "Olmos de Ojeda",
      "native": "Olmos de Ojeda",
      "type": "adm3",
      "level": null,
      "parent_id": null,
      "population": 287,
      "latitude": "42.72274000",
      "longitude": "-4.42446000",
      "timezone": "Europe/Madrid",
      "wikiDataId": "Q1919129",
      "country_code": "ES",
      "state_code": "P",
      "state_id": 1157,
      "country_id": 207
    },
    {
      "id": 35972,
      "name": "Osornillo",
      "name_default": "Osornillo",
      "native": "Osornillo",
      "type": "adm3",
      "level": null,
      "parent_id": null,
      "population": 82,
      "latitude": "42.37047000",
      "longitude": "-4.29153000",
      "timezone": "Europe/Madrid",
      "wikiDataId": "Q1640150",
      "country_code": "ES",
      "state_code": "P",
      "state_id": 1157,
      "country_id": 207
    },
    {
      "id": 152570,
      "name": "Osorno la Mayor",
      "name_default": "Osorno la Mayor",
      "native": "Osorno la Mayor",
      "type": "adm3",
      "level": null,
      "parent_id": null,
      "population": 1190,
      "latitude": "42.36947800",
      "longitude": "-4.37707040",
      "timezone": "Europe/Madrid",
      "wikiDataId": "Q1657059",
      "country_code": "ES",
      "state_code": "P",
      "state_id": 1157,
      "country_id": 207
    },
    {
      "id": 36022,
      "name": "Palencia",
      "name_default": "Palencia",
      "native": "Palencia",
      "type": "adm2",
      "level": null,
      "parent_id": null,
      "population": 76738,
      "latitude": "42.00955000",
      "longitude": "-4.52406000",
      "timezone": "Europe/Madrid",
      "wikiDataId": "Q56250654",
      "country_code": "ES",
      "state_code": "P",
      "state_id": 1157,
      "country_id": 207
    },
    {
      "id": 36025,
      "name": "Palenzuela",
      "name_default": "Palenzuela",
      "native": "Palenzuela",
      "type": "adm3",
      "level": null,
      "parent_id": null,
      "population": 217,
      "latitude": "42.09518000",
      "longitude": "-4.13039000",
      "timezone": "Europe/Madrid",
      "wikiDataId": "Q687315",
      "country_code": "ES",
      "state_code": "P",
      "state_id": 1157,
      "country_id": 207
    },
    {
      "id": 36482,
      "name": "Páramo de Boedo",
      "name_default": "Páramo de Boedo",
      "native": "Páramo de Boedo",
      "type": "adm3",
      "level": null,
      "parent_id": null,
      "population": 102,
      "latitude": "42.57842000",
      "longitude": "-4.40042000",
      "timezone": "Europe/Madrid",
      "wikiDataId": "Q1918847",
      "country_code": "ES",
      "state_code": "P",
      "state_id": 1157,
      "country_id": 207
    },
    {
      "id": 36066,
      "name": "Paredes de Nava",
      "name_default": "Paredes de Nava",
      "native": "Paredes nava",
      "type": "adm3",
      "level": null,
      "parent_id": null,
      "population": 1911,
      "latitude": "42.15367000",
      "longitude": "-4.69193000",
      "timezone": "Europe/Madrid",
      "wikiDataId": "Q919652",
      "country_code": "ES",
      "state_code": "P",
      "state_id": 1157,
      "country_id": 207
    },
    {
      "id": 36086,
      "name": "Payo de Ojeda",
      "name_default": "Payo de Ojeda",
      "native": "Payo de Ojeda",
      "type": "adm3",
      "level": null,
      "parent_id": null,
      "population": 84,
      "latitude": "42.71859000",
      "longitude": "-4.47752000",
      "timezone": "Europe/Madrid",
      "wikiDataId": "Q1907475",
      "country_code": "ES",
      "state_code": "P",
      "state_id": 1157,
      "country_id": 207
    },
    {
      "id": 36094,
      "name": "Pedraza de Campos",
      "name_default": "Pedraza de Campos",
      "native": "Pedraza de Campos",
      "type": "adm3",
      "level": null,
      "parent_id": null,
      "population": 116,
      "latitude": "41.98419000",
      "longitude": "-4.73524000",
      "timezone": "Europe/Madrid",
      "wikiDataId": "Q1919394",
      "country_code": "ES",
      "state_code": "P",
      "state_id": 1157,
      "country_id": 207
    },
    {
      "id": 36105,
      "name": "Pedrosa de la Vega",
      "name_default": "Pedrosa de la Vega",
      "native": "Pedrosa de la Vega",
      "type": "adm3",
      "level": null,
      "parent_id": null,
      "population": 361,
      "latitude": "42.48159000",
      "longitude": "-4.74678000",
      "timezone": "Europe/Madrid",
      "wikiDataId": "Q1918886",
      "country_code": "ES",
      "state_code": "P",
      "state_id": 1157,
      "country_id": 207
    },
    {
      "id": 36138,
      "name": "Perales",
      "name_default": "Perales",
      "native": "Perales",
      "type": "adm3",
      "level": null,
      "parent_id": null,
      "population": 119,
      "latitude": "42.19398000",
      "longitude": "-4.58105000",
      "timezone": "Europe/Madrid",
      "wikiDataId": "Q1655959",
      "country_code": "ES",
      "state_code": "P",
      "state_id": 1157,
      "country_id": 207
    },
    {
      "id": 36227,
      "name": "Piña de Campos",
      "name_default": "Piña de Campos",
      "native": "Piña de Campos",
      "type": "adm3",
      "level": null,
      "parent_id": null,
      "population": 281,
      "latitude": "42.21326000",
      "longitude": "-4.43657000",
      "timezone": "Europe/Madrid",
      "wikiDataId": "Q1918806",
      "country_code": "ES",
      "state_code": "P",
      "state_id": 1157,
      "country_id": 207
    },
    {
      "id": 36209,
      "name": "Pino del Río",
      "name_default": "Pino del Río",
      "native": "Pino del Río",
      "type": "adm3",
      "level": null,
      "parent_id": null,
      "population": 265,
      "latitude": "42.64504000",
      "longitude": "-4.80795000",
      "timezone": "Europe/Madrid",
      "wikiDataId": "Q1920683",
      "country_code": "ES",
      "state_code": "P",
      "state_id": 1157,
      "country_id": 207
    },
    {
      "id": 36247,
      "name": "Población de Arroyo",
      "name_default": "Población de Arroyo",
      "native": "Población de Arroyo",
      "type": "adm3",
      "level": null,
      "parent_id": null,
      "population": 87,
      "latitude": "42.33675000",
      "longitude": "-4.87398000",
      "timezone": "Europe/Madrid",
      "wikiDataId": "Q1919717",
      "country_code": "ES",
      "state_code": "P",
      "state_id": 1157,
      "country_id": 207
    },
    {
      "id": 36248,
      "name": "Población de Campos",
      "name_default": "Población de Campos",
      "native": "Población de Campos",
      "type": "adm3",
      "level": null,
      "parent_id": null,
      "population": 173,
      "latitude": "42.26994000",
      "longitude": "-4.44744000",
      "timezone": "Europe/Madrid",
      "wikiDataId": "Q986562",
      "country_code": "ES",
      "state_code": "P",
      "state_id": 1157,
      "country_id": 207
    },
    {
      "id": 36249,
      "name": "Población de Cerrato",
      "name_default": "Población de Cerrato",
      "native": "Población de Cerrato",
      "type": "adm3",
      "level": null,
      "parent_id": null,
      "population": 138,
      "latitude": "41.79298000",
      "longitude": "-4.42874000",
      "timezone": "Europe/Madrid",
      "wikiDataId": "Q1918109",
      "country_code": "ES",
      "state_code": "P",
      "state_id": 1157,
      "country_id": 207
    },
    {
      "id": 36258,
      "name": "Polentinos",
      "name_default": "Polentinos",
      "native": "Polentinos",
      "type": "adm3",
      "level": null,
      "parent_id": null,
      "population": 75,
      "latitude": "42.93932000",
      "longitude": "-4.52887000",
      "timezone": "Europe/Madrid",
      "wikiDataId": "Q735872",
      "country_code": "ES",
      "state_code": "P",
      "state_id": 1157,
      "country_id": 207
    },
    {
      "id": 36268,
      "name": "Pomar de Valdivia",
      "name_default": "Pomar de Valdivia",
      "native": "Pomar de Valdivia",
      "type": "adm3",
      "level": null,
      "parent_id": null,
      "population": 490,
      "latitude": "42.77437000",
      "longitude": "-4.16756000",
      "timezone": "Europe/Madrid",
      "wikiDataId": "Q1907342",
      "country_code": "ES",
      "state_code": "P",
      "state_id": 1157,
      "country_id": 207
    },
    {
      "id": 36312,
      "name": "Poza de la Vega",
      "name_default": "Poza de la Vega",
      "native": "La imagen de Vega",
      "type": "adm3",
      "level": null,
      "parent_id": null,
      "population": 266,
      "latitude": "42.57823000",
      "longitude": "-4.79845000",
      "timezone": "Europe/Madrid",
      "wikiDataId": "Q1918458",
      "country_code": "ES",
      "state_code": "P",
      "state_id": 1157,
      "country_id": 207
    },
    {
      "id": 36319,
      "name": "Pozo de Urama",
      "name_default": "Pozo de Urama",
      "native": "Pozo de Urama",
      "type": "adm3",
      "level": null,
      "parent_id": null,
      "population": 45,
      "latitude": "42.25438000",
      "longitude": "-4.89389000",
      "timezone": "Europe/Madrid",
      "wikiDataId": "Q1767816",
      "country_code": "ES",
      "state_code": "P",
      "state_id": 1157,
      "country_id": 207
    },
    {
      "id": 36403,
      "name": "Prádanos de Ojeda",
      "name_default": "Prádanos de Ojeda",
      "native": "Prádanos de Ojeda",
      "type": "adm3",
      "level": null,
      "parent_id": null,
      "population": 181,
      "latitude": "42.68156000",
      "longitude": "-4.34659000",
      "timezone": "Europe/Madrid",
      "wikiDataId": "Q1919141",
      "country_code": "ES",
      "state_code": "P",
      "state_id": 1157,
      "country_id": 207
    },
    {
      "id": 36506,
      "name": "Quintana del Puente",
      "name_default": "Quintana del Puente",
      "native": "Quintana del Puente",
      "type": "adm3",
      "level": null,
      "parent_id": null,
      "population": 254,
      "latitude": "42.08471000",
      "longitude": "-4.20649000",
      "timezone": "Europe/Madrid",
      "wikiDataId": "Q1919402",
      "country_code": "ES",
      "state_code": "P",
      "state_id": 1157,
      "country_id": 207
    },
    {
      "id": 36518,
      "name": "Quintanilla de Onsoña",
      "name_default": "Quintanilla de Onsoña",
      "native": "Quintanilla de Onsoña",
      "type": "adm3",
      "level": null,
      "parent_id": null,
      "population": 180,
      "latitude": "42.46937000",
      "longitude": "-4.66385000",
      "timezone": "Europe/Madrid",
      "wikiDataId": "Q486593",
      "country_code": "ES",
      "state_code": "P",
      "state_id": 1157,
      "country_id": 207
    },
    {
      "id": 36570,
      "name": "Reinoso de Cerrato",
      "name_default": "Reinoso de Cerrato",
      "native": "Reinoso de Cerrato",
      "type": "adm3",
      "level": null,
      "parent_id": null,
      "population": 57,
      "latitude": "41.97624000",
      "longitude": "-4.38337000",
      "timezone": "Europe/Madrid",
      "wikiDataId": "Q925614",
      "country_code": "ES",
      "state_code": "P",
      "state_id": 1157,
      "country_id": 207
    },
    {
      "id": 36577,
      "name": "Renedo de la Vega",
      "name_default": "Renedo de la Vega",
      "native": "Renedo de la Vega",
      "type": "adm3",
      "level": null,
      "parent_id": null,
      "population": 256,
      "latitude": "42.45348000",
      "longitude": "-4.70298000",
      "timezone": "Europe/Madrid",
      "wikiDataId": "Q24012143",
      "country_code": "ES",
      "state_code": "P",
      "state_id": 1157,
      "country_id": 207
    },
    {
      "id": 36582,
      "name": "Requena de Campos",
      "name_default": "Requena de Campos",
      "native": "Requena de Campos",
      "type": "adm3",
      "level": null,
      "parent_id": null,
      "population": 39,
      "latitude": "42.30796000",
      "longitude": "-4.34304000",
      "timezone": "Europe/Madrid",
      "wikiDataId": "Q1916499",
      "country_code": "ES",
      "state_code": "P",
      "state_id": 1157,
      "country_id": 207
    },
    {
      "id": 36583,
      "name": "Respenda de la Peña",
      "name_default": "Respenda de la Peña",
      "native": "Respenda de la Peña",
      "type": "adm3",
      "level": null,
      "parent_id": null,
      "population": 219,
      "latitude": "42.76512000",
      "longitude": "-4.68540000",
      "timezone": "Europe/Madrid",
      "wikiDataId": "Q1918878",
      "country_code": "ES",
      "state_code": "P",
      "state_id": 1157,
      "country_id": 207
    },
    {
      "id": 36594,
      "name": "Revenga de Campos",
      "name_default": "Revenga de Campos",
      "native": "Revenga de Campos",
      "type": "adm3",
      "level": null,
      "parent_id": null,
      "population": 179,
      "latitude": "42.28401000",
      "longitude": "-4.48218000",
      "timezone": "Europe/Madrid",
      "wikiDataId": "Q1908322",
      "country_code": "ES",
      "state_code": "P",
      "state_id": 1157,
      "country_id": 207
    },
    {
      "id": 36595,
      "name": "Revilla de Collazos",
      "name_default": "Revilla de Collazos",
      "native": "Revilla de Collazos",
      "type": "adm3",
      "level": null,
      "parent_id": null,
      "population": 75,
      "latitude": "42.62960000",
      "longitude": "-4.50343000",
      "timezone": "Europe/Madrid",
      "wikiDataId": "Q1916515",
      "country_code": "ES",
      "state_code": "P",
      "state_id": 1157,
      "country_id": 207
    },
    {
      "id": 36612,
      "name": "Ribas de Campos",
      "name_default": "Ribas de Campos",
      "native": "Ribas de Campos",
      "type": "adm3",
      "level": null,
      "parent_id": null,
      "population": 157,
      "latitude": "42.15249000",
      "longitude": "-4.51649000",
      "timezone": "Europe/Madrid",
      "wikiDataId": "Q1918820",
      "country_code": "ES",
      "state_code": "P",
      "state_id": 1157,
      "country_id": 207
    },
    {
      "id": 36616,
      "name": "Ryby z Cuezy",
      "name_default": "Riberos de la Cueza",
      "native": "Riberos de la Cueza",
      "type": "adm3",
      "level": null,
      "parent_id": null,
      "population": 88,
      "latitude": "42.27881000",
      "longitude": "-4.72503000",
      "timezone": "Europe/Madrid",
      "wikiDataId": "Q1906843",
      "country_code": "ES",
      "state_code": "P",
      "state_id": 1157,
      "country_id": 207
    },
    {
      "id": 36754,
      "name": "Saldaña",
      "name_default": "Saldaña",
      "native": "Saldaña",
      "type": "adm3",
      "level": null,
      "parent_id": null,
      "population": 2877,
      "latitude": "42.52146000",
      "longitude": "-4.73605000",
      "timezone": "Europe/Madrid",
      "wikiDataId": "Q64447517",
      "country_code": "ES",
      "state_code": "P",
      "state_id": 1157,
      "country_id": 207
    },
    {
      "id": 36765,
      "name": "Salinas de Pisuerga",
      "name_default": "Salinas de Pisuerga",
      "native": "Salinas de Pisuerga",
      "type": "adm3",
      "level": null,
      "parent_id": null,
      "population": 329,
      "latitude": "42.85046000",
      "longitude": "-4.37783000",
      "timezone": "Europe/Madrid",
      "wikiDataId": "Q1918470",
      "country_code": "ES",
      "state_code": "P",
      "state_id": 1157,
      "country_id": 207
    },
    {
      "id": 36814,
      "name": "San Cebrián de Campos",
      "name_default": "San Cebrián de Campos",
      "native": "San Cebrián de Campos",
      "type": "adm3",
      "level": null,
      "parent_id": null,
      "population": 409,
      "latitude": "42.20063000",
      "longitude": "-4.53127000",
      "timezone": "Europe/Madrid",
      "wikiDataId": "Q24012135",
      "country_code": "ES",
      "state_code": "P",
      "state_id": 1157,
      "country_id": 207
    },
    {
      "id": 36817,
      "name": "San Cebrián de Mudá",
      "name_default": "San Cebrián de Mudá",
      "native": "San Cebrián de Mudá",
      "type": "adm3",
      "level": null,
      "parent_id": null,
      "population": 149,
      "latitude": "42.89261000",
      "longitude": "-4.38719000",
      "timezone": "Europe/Madrid",
      "wikiDataId": "Q1995261",
      "country_code": "ES",
      "state_code": "P",
      "state_id": 1157,
      "country_id": 207
    },
    {
      "id": 36819,
      "name": "San Cristóbal de Boedo",
      "name_default": "San Cristóbal de Boedo",
      "native": "San Cristóbal de Boedo",
      "type": "adm3",
      "level": null,
      "parent_id": null,
      "population": 37,
      "latitude": "42.54194000",
      "longitude": "-4.35325000",
      "timezone": "Europe/Madrid",
      "wikiDataId": "Q1906833",
      "country_code": "ES",
      "state_code": "P",
      "state_id": 1157,
      "country_id": 207
    },
    {
      "id": 36862,
      "name": "San Mamés de Campos",
      "name_default": "San Mamés de Campos",
      "native": "San Mamés de Campos",
      "type": "adm3",
      "level": null,
      "parent_id": null,
      "population": 89,
      "latitude": "42.35512000",
      "longitude": "-4.56565000",
      "timezone": "Europe/Madrid",
      "wikiDataId": "Q1907490",
      "country_code": "ES",
      "state_code": "P",
      "state_id": 1157,
      "country_id": 207
    },
    {
      "id": 36918,
      "name": "San Román de la Cuba",
      "name_default": "San Román de la Cuba",
      "native": "San Román de la Cuba",
      "type": "adm3",
      "level": null,
      "parent_id": null,
      "population": 108,
      "latitude": "42.26257000",
      "longitude": "-4.85724000",
      "timezone": "Europe/Madrid",
      "wikiDataId": "Q1906480",
      "country_code": "ES",
      "state_code": "P",
      "state_id": 1157,
      "country_id": 207
    },
    {
      "id": 37011,
      "name": "Święta Cecylia del Alcor",
      "name_default": "Santa Cecilia del Alcor",
      "native": "Santa Cecilia del Alcor",
      "type": "adm3",
      "level": null,
      "parent_id": null,
      "population": 149,
      "latitude": "41.93227000",
      "longitude": "-4.65546000",
      "timezone": "Europe/Madrid",
      "wikiDataId": "Q24012130",
      "country_code": "ES",
      "state_code": "P",
      "state_id": 1157,
      "country_id": 207
    },
    {
      "id": 37028,
      "name": "Santa Cruz de Boedo",
      "name_default": "Santa Cruz de Boedo",
      "native": "Santa Cruz de Boedo",
      "type": "adm3",
      "level": null,
      "parent_id": null,
      "population": 52,
      "latitude": "42.52531000",
      "longitude": "-4.37398000",
      "timezone": "Europe/Madrid",
      "wikiDataId": "Q1906821",
      "country_code": "ES",
      "state_code": "P",
      "state_id": 1157,
      "country_id": 207
    },
    {
      "id": 37111,
      "name": "Santervás de la Vega",
      "name_default": "Santervás de la Vega",
      "native": "Santervás de la Vega",
      "type": "adm3",
      "level": null,
      "parent_id": null,
      "population": 507,
      "latitude": "42.50677000",
      "longitude": "-4.80002000",
      "timezone": "Europe/Madrid",
      "wikiDataId": "Q977008",
      "country_code": "ES",
      "state_code": "P",
      "state_id": 1157,
      "country_id": 207
    },
    {
      "id": 37121,
      "name": "Santibáñez de Ecla",
      "name_default": "Santibáñez de Ecla",
      "native": "Santibáñez de Ecla",
      "type": "adm3",
      "level": null,
      "parent_id": null,
      "population": 82,
      "latitude": "42.70784000",
      "longitude": "-4.37263000",
      "timezone": "Europe/Madrid",
      "wikiDataId": "Q1906868",
      "country_code": "ES",
      "state_code": "P",
      "state_id": 1157,
      "country_id": 207
    },
    {
      "id": 37125,
      "name": "Santibáñez de la Peña",
      "name_default": "Santibáñez de la Peña",
      "native": "Santibáñez de la Peña",
      "type": "adm3",
      "level": null,
      "parent_id": null,
      "population": 1365,
      "latitude": "42.80929000",
      "longitude": "-4.73026000",
      "timezone": "Europe/Madrid",
      "wikiDataId": "Q1653139",
      "country_code": "ES",
      "state_code": "P",
      "state_id": 1157,
      "country_id": 207
    },
    {
      "id": 37149,
      "name": "Santoyo",
      "name_default": "Santoyo",
      "native": "Santoyo",
      "type": "adm3",
      "level": null,
      "parent_id": null,
      "population": 260,
      "latitude": "42.21473000",
      "longitude": "-4.34296000",
      "timezone": "Europe/Madrid",
      "wikiDataId": "Q1918060",
      "country_code": "ES",
      "state_code": "P",
      "state_id": 1157,
      "country_id": 207
    },
    {
      "id": 37317,
      "name": "Soto de Cerrato",
      "name_default": "Soto de Cerrato",
      "native": "Soto de Cerrato",
      "type": "adm3",
      "level": null,
      "parent_id": null,
      "population": 176,
      "latitude": "41.95312000",
      "longitude": "-4.42998000",
      "timezone": "Europe/Madrid",
      "wikiDataId": "Q1918481",
      "country_code": "ES",
      "state_code": "P",
      "state_id": 1157,
      "country_id": 207
    },
    {
      "id": 37321,
      "name": "Sotobañado y Priorato",
      "name_default": "Sotobañado y Priorato",
      "native": "Sotobañado y Priorato",
      "type": "adm3",
      "level": null,
      "parent_id": null,
      "population": 158,
      "latitude": "42.58987000",
      "longitude": "-4.44185000",
      "timezone": "Europe/Madrid",
      "wikiDataId": "Q1949169",
      "country_code": "ES",
      "state_code": "P",
      "state_id": 1157,
      "country_id": 207
    },
    {
      "id": 37339,
      "name": "Tabanera de Cerrato",
      "name_default": "Tabanera de Cerrato",
      "native": "Tabanera de Cerrato",
      "type": "adm3",
      "level": null,
      "parent_id": null,
      "population": 138,
      "latitude": "42.02469000",
      "longitude": "-4.12361000",
      "timezone": "Europe/Madrid",
      "wikiDataId": "Q1918812",
      "country_code": "ES",
      "state_code": "P",
      "state_id": 1157,
      "country_id": 207
    },
    {
      "id": 37340,
      "name": "Tabanera de Valdavia",
      "name_default": "Tabanera de Valdavia",
      "native": "Tabanera de Valdavia",
      "type": "adm3",
      "level": null,
      "parent_id": null,
      "population": 48,
      "latitude": "42.64728000",
      "longitude": "-4.69414000",
      "timezone": "Europe/Madrid",
      "wikiDataId": "Q1906976",
      "country_code": "ES",
      "state_code": "P",
      "state_id": 1157,
      "country_id": 207
    },
    {
      "id": 152565,
      "name": "Támara de Campos",
      "name_default": "Támara de Campos",
      "native": "Támara de Campos",
      "type": "adm3",
      "level": null,
      "parent_id": null,
      "population": 74,
      "latitude": "42.20348610",
      "longitude": "-4.39313630",
      "timezone": "Europe/Madrid",
      "wikiDataId": "Q1918493",
      "country_code": "ES",
      "state_code": "P",
      "state_id": 1157,
      "country_id": 207
    },
    {
      "id": 152566,
      "name": "Tariego de Cerrato",
      "name_default": "Tariego de Cerrato",
      "native": "Tariego de Cerrato",
      "type": "city",
      "level": null,
      "parent_id": null,
      "population": 501,
      "latitude": "41.90368070",
      "longitude": "-4.48190740",
      "timezone": "Europe/Madrid",
      "wikiDataId": "Q1798769",
      "country_code": "ES",
      "state_code": "P",
      "state_id": 1157,
      "country_id": 207
    },
    {
      "id": 37477,
      "name": "Torquemada",
      "name_default": "Torquemada",
      "native": "Torquemada",
      "type": "adm3",
      "level": null,
      "parent_id": null,
      "population": 967,
      "latitude": "42.03490000",
      "longitude": "-4.31841000",
      "timezone": "Europe/Madrid",
      "wikiDataId": "Q603164",
      "country_code": "ES",
      "state_code": "P",
      "state_id": 1157,
      "country_id": 207
    },
    {
      "id": 37563,
      "name": "Torremormojón",
      "name_default": "Torremormojón",
      "native": "Torremormsonon",
      "type": "adm3",
      "level": null,
      "parent_id": null,
      "population": 78,
      "latitude": "41.96018000",
      "longitude": "-4.77765000",
      "timezone": "Europe/Madrid",
      "wikiDataId": "Q1906728",
      "country_code": "ES",
      "state_code": "P",
      "state_id": 1157,
      "country_id": 207
    },
    {
      "id": 37641,
      "name": "Triollo",
      "name_default": "Triollo",
      "native": "Triollo",
      "type": "adm3",
      "level": null,
      "parent_id": null,
      "population": 74,
      "latitude": "42.92456000",
      "longitude": "-4.68130000",
      "timezone": "Europe/Madrid",
      "wikiDataId": "Q1906984",
      "country_code": "ES",
      "state_code": "P",
      "state_id": 1157,
      "country_id": 207
    },
    {
      "id": 37724,
      "name": "Valbuena de Pisuerga",
      "name_default": "Valbuena de Pisuerga",
      "native": "Valbuena de Pisuerga",
      "type": "adm3",
      "level": null,
      "parent_id": null,
      "population": 66,
      "latitude": "42.14584000",
      "longitude": "-4.24010000",
      "timezone": "Europe/Madrid",
      "wikiDataId": "Q1815688",
      "country_code": "ES",
      "state_code": "P",
      "state_id": 1157,
      "country_id": 207
    },
    {
      "id": 152567,
      "name": "Valde-Ucieza",
      "name_default": "Valde-Ucieza",
      "native": "Valde-uk",
      "type": "adm3",
      "level": null,
      "parent_id": null,
      "population": 76,
      "latitude": "42.39130780",
      "longitude": "-4.57275980",
      "timezone": "Europe/Madrid",
      "wikiDataId": "Q1918096",
      "country_code": "ES",
      "state_code": "P",
      "state_id": 1157,
      "country_id": 207
    },
    {
      "id": 37780,
      "name": "Valdeolmillos",
      "name_default": "Valdeolmillos",
      "native": "Valdeolmillos",
      "type": "adm3",
      "level": null,
      "parent_id": null,
      "population": 84,
      "latitude": "42.04123000",
      "longitude": "-4.40015000",
      "timezone": "Europe/Madrid",
      "wikiDataId": "Q1905926",
      "country_code": "ES",
      "state_code": "P",
      "state_id": 1157,
      "country_id": 207
    },
    {
      "id": 37798,
      "name": "Valderrábano",
      "name_default": "Valderrábano",
      "native": "Valderrábano",
      "type": "adm3",
      "level": null,
      "parent_id": null,
      "population": 60,
      "latitude": "42.60674000",
      "longitude": "-4.65584000",
      "timezone": "Europe/Madrid",
      "wikiDataId": "Q1906496",
      "country_code": "ES",
      "state_code": "P",
      "state_id": 1157,
      "country_id": 207
    },
    {
      "id": 37844,
      "name": "Dolina Cerrato",
      "name_default": "Valle de Cerrato",
      "native": "Valle de Cerrato",
      "type": "adm3",
      "level": null,
      "parent_id": null,
      "population": 112,
      "latitude": "41.88045000",
      "longitude": "-4.36243000",
      "timezone": "Europe/Madrid",
      "wikiDataId": "Q1919153",
      "country_code": "ES",
      "state_code": "P",
      "state_id": 1157,
      "country_id": 207
    },
    {
      "id": 152571,
      "name": "Dolina Retortillo",
      "name_default": "Valle del Retortillo",
      "native": "Valle del Retortillo",
      "type": "adm3",
      "level": null,
      "parent_id": null,
      "population": 169,
      "latitude": "42.23502070",
      "longitude": "-4.78987310",
      "timezone": "Europe/Madrid",
      "wikiDataId": "Q1918785",
      "country_code": "ES",
      "state_code": "P",
      "state_id": 1157,
      "country_id": 207
    },
    {
      "id": 37933,
      "name": "Velilla del Río Carrión",
      "name_default": "Velilla del Río Carrión",
      "native": "Velilla del Río Carrión",
      "type": "city",
      "level": null,
      "parent_id": null,
      "population": 1591,
      "latitude": "42.82611000",
      "longitude": "-4.84626000",
      "timezone": "Europe/Madrid",
      "wikiDataId": "Q986559",
      "country_code": "ES",
      "state_code": "P",
      "state_id": 1157,
      "country_id": 207
    },
    {
      "id": 37937,
      "name": "Venta de Baños",
      "name_default": "Venta de Baños",
      "native": "Venta de Baños",
      "type": "adm3",
      "level": null,
      "parent_id": null,
      "population": 6329,
      "latitude": "41.92110000",
      "longitude": "-4.49089000",
      "timezone": "Europe/Madrid",
      "wikiDataId": "Q1657213",
      "country_code": "ES",
      "state_code": "P",
      "state_id": 1157,
      "country_id": 207
    },
    {
      "id": 37954,
      "name": "Vertavillo",
      "name_default": "Vertavillo",
      "native": "Vertavillo",
      "type": "adm3",
      "level": null,
      "parent_id": null,
      "population": 214,
      "latitude": "41.83281000",
      "longitude": "-4.32707000",
      "timezone": "Europe/Madrid",
      "wikiDataId": "Q672722",
      "country_code": "ES",
      "state_code": "P",
      "state_id": 1157,
      "country_id": 207
    },
    {
      "id": 152568,
      "name": "Villabasta de Valdavia",
      "name_default": "Villabasta de Valdavia",
      "native": "Villabasta de Valvalia",
      "type": "adm3",
      "level": null,
      "parent_id": null,
      "population": 32,
      "latitude": "42.56074610",
      "longitude": "-4.60262870",
      "timezone": "Europe/Madrid",
      "wikiDataId": "Q1985351",
      "country_code": "ES",
      "state_code": "P",
      "state_id": 1157,
      "country_id": 207
    },
    {
      "id": 38030,
      "name": "Villacidaler",
      "name_default": "Villacidaler",
      "native": "Villacidal",
      "type": "adm3",
      "level": null,
      "parent_id": null,
      "population": 72,
      "latitude": "42.22168000",
      "longitude": "-4.97668000",
      "timezone": "Europe/Madrid",
      "wikiDataId": "Q62128526",
      "country_code": "ES",
      "state_code": "P",
      "state_id": 1157,
      "country_id": 207
    },
    {
      "id": 38033,
      "name": "Villaconancio",
      "name_default": "Villaconancio",
      "native": "Villaconancio",
      "type": "adm3",
      "level": null,
      "parent_id": null,
      "population": 84,
      "latitude": "41.87174000",
      "longitude": "-4.22379000",
      "timezone": "Europe/Madrid",
      "wikiDataId": "Q1906856",
      "country_code": "ES",
      "state_code": "P",
      "state_id": 1157,
      "country_id": 207
    },
    {
      "id": 38036,
      "name": "Villada",
      "name_default": "Villada",
      "native": "En la villa",
      "type": "adm3",
      "level": null,
      "parent_id": null,
      "population": 1165,
      "latitude": "42.25111000",
      "longitude": "-4.96708000",
      "timezone": "Europe/Madrid",
      "wikiDataId": "Q24012108",
      "country_code": "ES",
      "state_code": "P",
      "state_id": 1157,
      "country_id": 207
    },
    {
      "id": 38043,
      "name": "Villaeles de Valdavia",
      "name_default": "Villaeles de Valdavia",
      "native": "Valvalia en lana.",
      "type": "adm3",
      "level": null,
      "parent_id": null,
      "population": 71,
      "latitude": "42.56556000",
      "longitude": "-4.58318000",
      "timezone": "Europe/Madrid",
      "wikiDataId": "Q1906953",
      "country_code": "ES",
      "state_code": "P",
      "state_id": 1157,
      "country_id": 207
    },
    {
      "id": 38087,
      "name": "Villahán",
      "name_default": "Villahán",
      "native": "Villahán",
      "type": "adm3",
      "level": null,
      "parent_id": null,
      "population": 99,
      "latitude": "42.05031000",
      "longitude": "-4.13104000",
      "timezone": "Europe/Madrid",
      "wikiDataId": "Q1918587",
      "country_code": "ES",
      "state_code": "P",
      "state_id": 1157,
      "country_id": 207
    },
    {
      "id": 38085,
      "name": "Villaherreros",
      "name_default": "Villaherreros",
      "native": "Villaherreros",
      "type": "adm3",
      "level": null,
      "parent_id": null,
      "population": 212,
      "latitude": "42.38964000",
      "longitude": "-4.46254000",
      "timezone": "Europe/Madrid",
      "wikiDataId": "Q1918842",
      "country_code": "ES",
      "state_code": "P",
      "state_id": 1157,
      "country_id": 207
    },
    {
      "id": 38089,
      "name": "Villalaco",
      "name_default": "Villalaco",
      "native": "Villalaco",
      "type": "adm3",
      "level": null,
      "parent_id": null,
      "population": 61,
      "latitude": "42.15569000",
      "longitude": "-4.25940000",
      "timezone": "Europe/Madrid",
      "wikiDataId": "Q1906914",
      "country_code": "ES",
      "state_code": "P",
      "state_id": 1157,
      "country_id": 207
    },
    {
      "id": 38093,
      "name": "Villalba de Guardo",
      "name_default": "Villalba de Guardo",
      "native": "Villalba de Guardo",
      "type": "adm3",
      "level": null,
      "parent_id": null,
      "population": 201,
      "latitude": "42.72229000",
      "longitude": "-4.82328000",
      "timezone": "Europe/Madrid",
      "wikiDataId": "Q1919165",
      "country_code": "ES",
      "state_code": "P",
      "state_id": 1157,
      "country_id": 207
    },
    {
      "id": 38109,
      "name": "Villalcázar de Sirga",
      "name_default": "Villalcázar de Sirga",
      "native": "Villalcázar de Sirga",
      "type": "adm3",
      "level": null,
      "parent_id": null,
      "population": 174,
      "latitude": "42.31662000",
      "longitude": "-4.54278000",
      "timezone": "Europe/Madrid",
      "wikiDataId": "Q1010261",
      "country_code": "ES",
      "state_code": "P",
      "state_id": 1157,
      "country_id": 207
    },
    {
      "id": 38110,
      "name": "Villalcón",
      "name_default": "Villalcón",
      "native": "Villalcón",
      "type": "adm3",
      "level": null,
      "parent_id": null,
      "population": 84,
      "latitude": "42.29287000",
      "longitude": "-4.85527000",
      "timezone": "Europe/Madrid",
      "wikiDataId": "Q1906503",
      "country_code": "ES",
      "state_code": "P",
      "state_id": 1157,
      "country_id": 207
    },
    {
      "id": 38117,
      "name": "Villalobón",
      "name_default": "Villalobón",
      "native": "Villalobón",
      "type": "adm3",
      "level": null,
      "parent_id": null,
      "population": 734,
      "latitude": "42.03037000",
      "longitude": "-4.50340000",
      "timezone": "Europe/Madrid",
      "wikiDataId": "Q191773",
      "country_code": "ES",
      "state_code": "P",
      "state_id": 1157,
      "country_id": 207
    },
    {
      "id": 38123,
      "name": "Villaluenga de la Vega",
      "name_default": "Villaluenga de la Vega",
      "native": "Villaluenga de la Vega",
      "type": "adm3",
      "level": null,
      "parent_id": null,
      "population": 671,
      "latitude": "42.52386000",
      "longitude": "-4.76489000",
      "timezone": "Europe/Madrid",
      "wikiDataId": "Q1919363",
      "country_code": "ES",
      "state_code": "P",
      "state_id": 1157,
      "country_id": 207
    },
    {
      "id": 38137,
      "name": "Villamartín de Campos",
      "name_default": "Villamartín de Campos",
      "native": "Villamartín de Campos",
      "type": "adm3",
      "level": null,
      "parent_id": null,
      "population": 129,
      "latitude": "42.01598000",
      "longitude": "-4.66414000",
      "timezone": "Europe/Madrid",
      "wikiDataId": "Q24013801",
      "country_code": "ES",
      "state_code": "P",
      "state_id": 1157,
      "country_id": 207
    },
    {
      "id": 38148,
      "name": "Villamediana",
      "name_default": "Villamediana",
      "native": "VILLACIDA",
      "type": "adm3",
      "level": null,
      "parent_id": null,
      "population": 183,
      "latitude": "42.05024000",
      "longitude": "-4.36115000",
      "timezone": "Europe/Madrid",
      "wikiDataId": "Q521159",
      "country_code": "ES",
      "state_code": "P",
      "state_id": 1157,
      "country_id": 207
    },
    {
      "id": 38152,
      "name": "Villameriel",
      "name_default": "Villameriel",
      "native": "Villamero",
      "type": "adm3",
      "level": null,
      "parent_id": null,
      "population": 137,
      "latitude": "42.52822000",
      "longitude": "-4.47572000",
      "timezone": "Europe/Madrid",
      "wikiDataId": "Q1918506",
      "country_code": "ES",
      "state_code": "P",
      "state_id": 1157,
      "country_id": 207
    },
    {
      "id": 38162,
      "name": "Villamoronta",
      "name_default": "Villamoronta",
      "native": "Villamoronta",
      "type": "adm3",
      "level": null,
      "parent_id": null,
      "population": 313,
      "latitude": "42.40337000",
      "longitude": "-4.69899000",
      "timezone": "Europe/Madrid",
      "wikiDataId": "Q1917722",
      "country_code": "ES",
      "state_code": "P",
      "state_id": 1157,
      "country_id": 207
    },
    {
      "id": 38164,
      "name": "Villamuera de la Cueza",
      "name_default": "Villamuera de la Cueza",
      "native": "Villamuera de la Cueza",
      "type": "adm3",
      "level": null,
      "parent_id": null,
      "population": 61,
      "latitude": "42.25843000",
      "longitude": "-4.68860000",
      "timezone": "Europe/Madrid",
      "wikiDataId": "Q1906884",
      "country_code": "ES",
      "state_code": "P",
      "state_id": 1157,
      "country_id": 207
    },
    {
      "id": 38166,
      "name": "Villamuriel de Cerrato",
      "name_default": "Villamuriel de Cerrato",
      "native": "Villamuriel de Cerrato",
      "type": "adm3",
      "level": null,
      "parent_id": null,
      "population": 6502,
      "latitude": "41.94935000",
      "longitude": "-4.51584000",
      "timezone": "Europe/Madrid",
      "wikiDataId": "Q936806",
      "country_code": "ES",
      "state_code": "P",
      "state_id": 1157,
      "country_id": 207
    },
    {
      "id": 38220,
      "name": "Villanueva del Rebollar",
      "name_default": "Villanueva del Rebollar",
      "native": "Villanueva del Rebollar",
      "type": "adm3",
      "level": null,
      "parent_id": null,
      "population": 105,
      "latitude": "42.24114000",
      "longitude": "-4.74288000",
      "timezone": "Europe/Madrid",
      "wikiDataId": "Q1918729",
      "country_code": "ES",
      "state_code": "P",
      "state_id": 1157,
      "country_id": 207
    },
    {
      "id": 38225,
      "name": "Villanuño de Valdavia",
      "name_default": "Villanuño de Valdavia",
      "native": "Villanuño de Valdavia",
      "type": "adm3",
      "level": null,
      "parent_id": null,
      "population": 91,
      "latitude": "42.50775000",
      "longitude": "-4.51887000",
      "timezone": "Europe/Madrid",
      "wikiDataId": "Q1918075",
      "country_code": "ES",
      "state_code": "P",
      "state_id": 1157,
      "country_id": 207
    },
    {
      "id": 38230,
      "name": "Villaprovedo",
      "name_default": "Villaprovedo",
      "native": "Aldea",
      "type": "adm3",
      "level": null,
      "parent_id": null,
      "population": 82,
      "latitude": "42.51674000",
      "longitude": "-4.39645000",
      "timezone": "Europe/Madrid",
      "wikiDataId": "Q2047563",
      "country_code": "ES",
      "state_code": "P",
      "state_id": 1157,
      "country_id": 207
    },
    {
      "id": 38288,
      "name": "Villarmentero de Campos",
      "name_default": "Villarmentero de Campos",
      "native": "Villarmentero de Campos",
      "type": "adm3",
      "level": null,
      "parent_id": null,
      "population": 16,
      "latitude": "42.29777000",
      "longitude": "-4.49992000",
      "timezone": "Europe/Madrid",
      "wikiDataId": "Q1014717",
      "country_code": "ES",
      "state_code": "P",
      "state_id": 1157,
      "country_id": 207
    },
    {
      "id": 38292,
      "name": "Villarrabé",
      "name_default": "Villarrabé",
      "native": "Villarrabé",
      "type": "adm3",
      "level": null,
      "parent_id": null,
      "population": 242,
      "latitude": "42.42090000",
      "longitude": "-4.78445000",
      "timezone": "Europe/Madrid",
      "wikiDataId": "Q1922171",
      "country_code": "ES",
      "state_code": "P",
      "state_id": 1157,
      "country_id": 207
    },
    {
      "id": 38293,
      "name": "Villarramiel",
      "name_default": "Villarramiel",
      "native": "Villarramiel",
      "type": "adm3",
      "level": null,
      "parent_id": null,
      "population": 991,
      "latitude": "42.04301000",
      "longitude": "-4.91215000",
      "timezone": "Europe/Madrid",
      "wikiDataId": "Q24013899",
      "country_code": "ES",
      "state_code": "P",
      "state_id": 1157,
      "country_id": 207
    },
    {
      "id": 38313,
      "name": "Villasarracino",
      "name_default": "Villasarracino",
      "native": "Villasar",
      "type": "adm3",
      "level": null,
      "parent_id": null,
      "population": 218,
      "latitude": "42.41207000",
      "longitude": "-4.49633000",
      "timezone": "Europe/Madrid",
      "wikiDataId": "Q1922181",
      "country_code": "ES",
      "state_code": "P",
      "state_id": 1157,
      "country_id": 207
    },
    {
      "id": 38327,
      "name": "Villasila de Valdavia",
      "name_default": "Villasila de Valdavia",
      "native": "Villas de Valvalia",
      "type": "adm3",
      "level": null,
      "parent_id": null,
      "population": 91,
      "latitude": "42.53192000",
      "longitude": "-4.55884000",
      "timezone": "Europe/Madrid",
      "wikiDataId": "Q1766721",
      "country_code": "ES",
      "state_code": "P",
      "state_id": 1157,
      "country_id": 207
    },
    {
      "id": 38335,
      "name": "Villaturde",
      "name_default": "Villaturde",
      "native": "Villaturde",
      "type": "adm3",
      "level": null,
      "parent_id": null,
      "population": 220,
      "latitude": "42.37769000",
      "longitude": "-4.67085000",
      "timezone": "Europe/Madrid",
      "wikiDataId": "Q1917734",
      "country_code": "ES",
      "state_code": "P",
      "state_id": 1157,
      "country_id": 207
    },
    {
      "id": 38337,
      "name": "Villaumbrales",
      "name_default": "Villaumbrales",
      "native": "Villaumbrales",
      "type": "adm3",
      "level": null,
      "parent_id": null,
      "population": 796,
      "latitude": "42.08873000",
      "longitude": "-4.61384000",
      "timezone": "Europe/Madrid",
      "wikiDataId": "Q1922113",
      "country_code": "ES",
      "state_code": "P",
      "state_id": 1157,
      "country_id": 207
    },
    {
      "id": 38361,
      "name": "Villaviudas",
      "name_default": "Villaviudas",
      "native": "Villaviudas",
      "type": "adm3",
      "level": null,
      "parent_id": null,
      "population": 365,
      "latitude": "41.96227000",
      "longitude": "-4.34200000",
      "timezone": "Europe/Madrid",
      "wikiDataId": "Q1769420",
      "country_code": "ES",
      "state_code": "P",
      "state_id": 1157,
      "country_id": 207
    },
    {
      "id": 152569,
      "name": "Villerías de Campos",
      "name_default": "Villerías de Campos",
      "native": "Villerías de Campos",
      "type": "adm3",
      "level": null,
      "parent_id": null,
      "population": 76,
      "latitude": "41.94416120",
      "longitude": "-4.85660100",
      "timezone": "Europe/Madrid",
      "wikiDataId": "Q1922097",
      "country_code": "ES",
      "state_code": "P",
      "state_id": 1157,
      "country_id": 207
    },
    {
      "id": 38370,
      "name": "Villodre",
      "name_default": "Villodre",
      "native": "Villodre",
      "type": "adm3",
      "level": null,
      "parent_id": null,
      "population": 34,
      "latitude": "42.21161000",
      "longitude": "-4.24484000",
      "timezone": "Europe/Madrid",
      "wikiDataId": "Q1766675",
      "country_code": "ES",
      "state_code": "P",
      "state_id": 1157,
      "country_id": 207
    },
    {
      "id": 38371,
      "name": "Villodrigo",
      "name_default": "Villodrigo",
      "native": "Villodrigo",
      "type": "adm3",
      "level": null,
      "parent_id": null,
      "population": 146,
      "latitude": "42.14436000",
      "longitude": "-4.09527000",
      "timezone": "Europe/Madrid",
      "wikiDataId": "Q1990510",
      "country_code": "ES",
      "state_code": "P",
      "state_id": 1157,
      "country_id": 207
    },
    {
      "id": 38372,
      "name": "Villoldo",
      "name_default": "Villoldo",
      "native": "Villoldo",
      "type": "adm3",
      "level": null,
      "parent_id": null,
      "population": 432,
      "latitude": "42.24782000",
      "longitude": "-4.59592000",
      "timezone": "Europe/Madrid",
      "wikiDataId": "Q1922123",
      "country_code": "ES",
      "state_code": "P",
      "state_id": 1157,
      "country_id": 207
    },
    {
      "id": 38378,
      "name": "Villota del Páramo",
      "name_default": "Villota del Páramo",
      "native": "Villota del Páramo",
      "type": "adm3",
      "level": null,
      "parent_id": null,
      "population": 402,
      "latitude": "42.55234000",
      "longitude": "-4.84893000",
      "timezone": "Europe/Madrid",
      "wikiDataId": "Q1922132",
      "country_code": "ES",
      "state_code": "P",
      "state_id": 1157,
      "country_id": 207
    },
    {
      "id": 38379,
      "name": "Villovieco",
      "name_default": "Villovieco",
      "native": "Villovieco",
      "type": "adm3",
      "level": null,
      "parent_id": null,
      "population": 105,
      "latitude": "42.29478000",
      "longitude": "-4.48122000",
      "timezone": "Europe/Madrid",
      "wikiDataId": "Q1651684",
      "country_code": "ES",
      "state_code": "P",
      "state_id": 1157,
      "country_id": 207
    }
  ]
}
