{
  "locale": "fr",
  "country": {
    "id": 233,
    "code": "US",
    "iso3": "USA",
    "numeric_code": "840",
    "name": "États-Unis",
    "name_default": "United States",
    "native": "United States",
    "capital": "Washington",
    "phonecode": "1",
    "currency": "USD",
    "currency_name": "United States dollar",
    "currency_symbol": "$",
    "tld": ".us",
    "population": 340110988,
    "gdp": 30507217,
    "region": "Americas",
    "region_id": 2,
    "subregion": "Northern America",
    "subregion_id": 6,
    "nationality": "American",
    "timezones": [
      {
        "zoneName": "America/Adak",
        "gmtOffset": -36000,
        "gmtOffsetName": "UTC-10:00",
        "abbreviation": "HST",
        "tzName": "Hawaii–Aleutian Standard Time"
      },
      {
        "zoneName": "America/Anchorage",
        "gmtOffset": -32400,
        "gmtOffsetName": "UTC-09:00",
        "abbreviation": "AKST",
        "tzName": "Alaska Standard Time"
      },
      {
        "zoneName": "America/Boise",
        "gmtOffset": -25200,
        "gmtOffsetName": "UTC-07:00",
        "abbreviation": "MST",
        "tzName": "Mountain Standard Time (North America"
      },
      {
        "zoneName": "America/Chicago",
        "gmtOffset": -21600,
        "gmtOffsetName": "UTC-06:00",
        "abbreviation": "CST",
        "tzName": "Central Standard Time (North America"
      },
      {
        "zoneName": "America/Denver",
        "gmtOffset": -25200,
        "gmtOffsetName": "UTC-07:00",
        "abbreviation": "MST",
        "tzName": "Mountain Standard Time (North America"
      },
      {
        "zoneName": "America/Detroit",
        "gmtOffset": -18000,
        "gmtOffsetName": "UTC-05:00",
        "abbreviation": "EST",
        "tzName": "Eastern Standard Time (North America"
      },
      {
        "zoneName": "America/Indiana/Indianapolis",
        "gmtOffset": -18000,
        "gmtOffsetName": "UTC-05:00",
        "abbreviation": "EST",
        "tzName": "Eastern Standard Time (North America"
      },
      {
        "zoneName": "America/Indiana/Knox",
        "gmtOffset": -21600,
        "gmtOffsetName": "UTC-06:00",
        "abbreviation": "CST",
        "tzName": "Central Standard Time (North America"
      },
      {
        "zoneName": "America/Indiana/Marengo",
        "gmtOffset": -18000,
        "gmtOffsetName": "UTC-05:00",
        "abbreviation": "EST",
        "tzName": "Eastern Standard Time (North America"
      },
      {
        "zoneName": "America/Indiana/Petersburg",
        "gmtOffset": -18000,
        "gmtOffsetName": "UTC-05:00",
        "abbreviation": "EST",
        "tzName": "Eastern Standard Time (North America"
      },
      {
        "zoneName": "America/Indiana/Tell_City",
        "gmtOffset": -21600,
        "gmtOffsetName": "UTC-06:00",
        "abbreviation": "CST",
        "tzName": "Central Standard Time (North America"
      },
      {
        "zoneName": "America/Indiana/Vevay",
        "gmtOffset": -18000,
        "gmtOffsetName": "UTC-05:00",
        "abbreviation": "EST",
        "tzName": "Eastern Standard Time (North America"
      },
      {
        "zoneName": "America/Indiana/Vincennes",
        "gmtOffset": -18000,
        "gmtOffsetName": "UTC-05:00",
        "abbreviation": "EST",
        "tzName": "Eastern Standard Time (North America"
      },
      {
        "zoneName": "America/Indiana/Winamac",
        "gmtOffset": -18000,
        "gmtOffsetName": "UTC-05:00",
        "abbreviation": "EST",
        "tzName": "Eastern Standard Time (North America"
      },
      {
        "zoneName": "America/Juneau",
        "gmtOffset": -32400,
        "gmtOffsetName": "UTC-09:00",
        "abbreviation": "AKST",
        "tzName": "Alaska Standard Time"
      },
      {
        "zoneName": "America/Kentucky/Louisville",
        "gmtOffset": -18000,
        "gmtOffsetName": "UTC-05:00",
        "abbreviation": "EST",
        "tzName": "Eastern Standard Time (North America"
      },
      {
        "zoneName": "America/Kentucky/Monticello",
        "gmtOffset": -18000,
        "gmtOffsetName": "UTC-05:00",
        "abbreviation": "EST",
        "tzName": "Eastern Standard Time (North America"
      },
      {
        "zoneName": "America/Los_Angeles",
        "gmtOffset": -28800,
        "gmtOffsetName": "UTC-08:00",
        "abbreviation": "PST",
        "tzName": "Pacific Standard Time (North America"
      },
      {
        "zoneName": "America/Menominee",
        "gmtOffset": -21600,
        "gmtOffsetName": "UTC-06:00",
        "abbreviation": "CST",
        "tzName": "Central Standard Time (North America"
      },
      {
        "zoneName": "America/Metlakatla",
        "gmtOffset": -32400,
        "gmtOffsetName": "UTC-09:00",
        "abbreviation": "AKST",
        "tzName": "Alaska Standard Time"
      },
      {
        "zoneName": "America/New_York",
        "gmtOffset": -18000,
        "gmtOffsetName": "UTC-05:00",
        "abbreviation": "EST",
        "tzName": "Eastern Standard Time (North America"
      },
      {
        "zoneName": "America/Nome",
        "gmtOffset": -32400,
        "gmtOffsetName": "UTC-09:00",
        "abbreviation": "AKST",
        "tzName": "Alaska Standard Time"
      },
      {
        "zoneName": "America/North_Dakota/Beulah",
        "gmtOffset": -21600,
        "gmtOffsetName": "UTC-06:00",
        "abbreviation": "CST",
        "tzName": "Central Standard Time (North America"
      },
      {
        "zoneName": "America/North_Dakota/Center",
        "gmtOffset": -21600,
        "gmtOffsetName": "UTC-06:00",
        "abbreviation": "CST",
        "tzName": "Central Standard Time (North America"
      },
      {
        "zoneName": "America/North_Dakota/New_Salem",
        "gmtOffset": -21600,
        "gmtOffsetName": "UTC-06:00",
        "abbreviation": "CST",
        "tzName": "Central Standard Time (North America"
      },
      {
        "zoneName": "America/Phoenix",
        "gmtOffset": -25200,
        "gmtOffsetName": "UTC-07:00",
        "abbreviation": "MST",
        "tzName": "Mountain Standard Time (North America"
      },
      {
        "zoneName": "America/Sitka",
        "gmtOffset": -32400,
        "gmtOffsetName": "UTC-09:00",
        "abbreviation": "AKST",
        "tzName": "Alaska Standard Time"
      },
      {
        "zoneName": "America/Yakutat",
        "gmtOffset": -32400,
        "gmtOffsetName": "UTC-09:00",
        "abbreviation": "AKST",
        "tzName": "Alaska Standard Time"
      },
      {
        "zoneName": "Pacific/Honolulu",
        "gmtOffset": -36000,
        "gmtOffsetName": "UTC-10:00",
        "abbreviation": "HST",
        "tzName": "Hawaii–Aleutian Standard Time"
      }
    ],
    "latitude": "38.00000000",
    "longitude": "-97.00000000",
    "emoji": "🇺🇸",
    "emojiU": "U+1F1FA U+1F1F8"
  },
  "state": {
    "id": 1416,
    "code": "CA",
    "iso2": "CA",
    "iso3166_2": "US-CA",
    "fips_code": "06",
    "name": "Californie",
    "name_default": "California",
    "native": "California",
    "type": "state",
    "level": null,
    "parent_id": null,
    "population": 39431263,
    "latitude": "36.70146310",
    "longitude": "-118.75599700",
    "timezone": "America/Los_Angeles",
    "wikiDataId": "Q99",
    "country_code": "US"
  },
  "cities": [
    {
      "id": 110992,
      "name": "Crête d'Acalanes",
      "name_default": "Acalanes Ridge",
      "native": "ACALANES RIDGE",
      "type": "city",
      "level": null,
      "parent_id": null,
      "population": 1137,
      "latitude": "37.90472000",
      "longitude": "-122.07857000",
      "timezone": "America/Los_Angeles",
      "wikiDataId": "Q4671652",
      "country_code": "US",
      "state_code": "CA",
      "state_id": 1416,
      "country_id": 233
    },
    {
      "id": 111001,
      "name": "Acton",
      "name_default": "Acton",
      "native": "Acton",
      "type": "city",
      "level": null,
      "parent_id": null,
      "population": 7596,
      "latitude": "34.46999000",
      "longitude": "-118.19674000",
      "timezone": "America/Los_Angeles",
      "wikiDataId": "Q2308667",
      "country_code": "US",
      "state_code": "CA",
      "state_id": 1416,
      "country_id": 233
    },
    {
      "id": 111043,
      "name": "Adelanto",
      "name_default": "Adelanto",
      "native": "Advancement",
      "type": "city",
      "level": null,
      "parent_id": null,
      "population": 38046,
      "latitude": "34.58277000",
      "longitude": "-117.40922000",
      "timezone": "America/Los_Angeles",
      "wikiDataId": "Q354110",
      "country_code": "US",
      "state_code": "CA",
      "state_id": 1416,
      "country_id": 233
    },
    {
      "id": 111056,
      "name": "Agoura",
      "name_default": "Agoura",
      "native": "Agoura",
      "type": "city",
      "level": null,
      "parent_id": null,
      "population": 20537,
      "latitude": "34.14306000",
      "longitude": "-118.73787000",
      "timezone": "America/Los_Angeles",
      "wikiDataId": "Q9588470",
      "country_code": "US",
      "state_code": "CA",
      "state_id": 1416,
      "country_id": 233
    },
    {
      "id": 111057,
      "name": "Collines d'Agoura",
      "name_default": "Agoura Hills",
      "native": "Agoura Hills",
      "type": "city",
      "level": null,
      "parent_id": null,
      "population": 20299,
      "latitude": "34.13639000",
      "longitude": "-118.77453000",
      "timezone": "America/Los_Angeles",
      "wikiDataId": "Q395793",
      "country_code": "US",
      "state_code": "CA",
      "state_id": 1416,
      "country_id": 233
    },
    {
      "id": 111058,
      "name": "Eau douce",
      "name_default": "Agua Dulce",
      "native": "Fresh water",
      "type": "city",
      "level": null,
      "parent_id": null,
      "population": 3342,
      "latitude": "34.49638000",
      "longitude": "-118.32563000",
      "timezone": "America/Los_Angeles",
      "wikiDataId": "Q2827313",
      "country_code": "US",
      "state_code": "CA",
      "state_id": 1416,
      "country_id": 233
    },
    {
      "id": 111061,
      "name": "Aguanga",
      "name_default": "Aguanga",
      "native": "Aguanga",
      "type": "city",
      "level": null,
      "parent_id": null,
      "population": 1128,
      "latitude": "33.44281000",
      "longitude": "-116.86502000",
      "timezone": "America/Los_Angeles",
      "wikiDataId": "Q3476194",
      "country_code": "US",
      "state_code": "CA",
      "state_id": 1416,
      "country_id": 233
    },
    {
      "id": 111064,
      "name": "Ahwahnee",
      "name_default": "Ahwahnee",
      "native": "Ahwahnee",
      "type": "city",
      "level": null,
      "parent_id": null,
      "population": 2246,
      "latitude": "37.36550000",
      "longitude": "-119.72627000",
      "timezone": "America/Los_Angeles",
      "wikiDataId": "Q3458725",
      "country_code": "US",
      "state_code": "CA",
      "state_id": 1416,
      "country_id": 233
    },
    {
      "id": 111088,
      "name": "Alameda",
      "name_default": "Alameda",
      "native": "Alameda",
      "type": "city",
      "level": null,
      "parent_id": null,
      "population": 78280,
      "latitude": "37.76521000",
      "longitude": "-122.24164000",
      "timezone": "America/Los_Angeles",
      "wikiDataId": "Q490744",
      "country_code": "US",
      "state_code": "CA",
      "state_id": 1416,
      "country_id": 233
    },
    {
      "id": 111089,
      "name": "Comté d'Alameda",
      "name_default": "Alameda County",
      "native": "Alameda County",
      "type": "county",
      "level": null,
      "parent_id": null,
      "population": 1682353,
      "latitude": "37.65055000",
      "longitude": "-121.91789000",
      "timezone": "America/Los_Angeles",
      "wikiDataId": "Q107146",
      "country_code": "US",
      "state_code": "CA",
      "state_id": 1416,
      "country_id": 233
    },
    {
      "id": 111093,
      "name": "Alamo",
      "name_default": "Alamo",
      "native": "Alamo",
      "type": "city",
      "level": null,
      "parent_id": null,
      "population": 14570,
      "latitude": "37.85020000",
      "longitude": "-122.03218000",
      "timezone": "America/Los_Angeles",
      "wikiDataId": "Q241598",
      "country_code": "US",
      "state_code": "CA",
      "state_id": 1416,
      "country_id": 233
    },
    {
      "id": 111110,
      "name": "Albany",
      "name_default": "Albany",
      "native": "Albany",
      "type": "city",
      "level": null,
      "parent_id": null,
      "population": 19735,
      "latitude": "37.88687000",
      "longitude": "-122.29775000",
      "timezone": "America/Los_Angeles",
      "wikiDataId": "Q671480",
      "country_code": "US",
      "state_code": "CA",
      "state_id": 1416,
      "country_id": 233
    },
    {
      "id": 111169,
      "name": "Alhambra",
      "name_default": "Alhambra",
      "native": "Alhambra",
      "type": "city",
      "level": null,
      "parent_id": null,
      "population": 82868,
      "latitude": "34.09529000",
      "longitude": "-118.12701000",
      "timezone": "America/Los_Angeles",
      "wikiDataId": "Q752681",
      "country_code": "US",
      "state_code": "CA",
      "state_id": 1416,
      "country_id": 233
    },
    {
      "id": 111175,
      "name": "Aliso Viejo",
      "name_default": "Aliso Viejo",
      "native": "Aliso old",
      "type": "city",
      "level": null,
      "parent_id": null,
      "population": 52176,
      "latitude": "33.56504000",
      "longitude": "-117.72712000",
      "timezone": "America/Los_Angeles",
      "wikiDataId": "Q948231",
      "country_code": "US",
      "state_code": "CA",
      "state_id": 1416,
      "country_id": 233
    },
    {
      "id": 111196,
      "name": "Allendale",
      "name_default": "Allendale",
      "native": "Allendale",
      "type": "city",
      "level": null,
      "parent_id": null,
      "population": 1506,
      "latitude": "38.44463000",
      "longitude": "-121.94302000",
      "timezone": "America/Los_Angeles",
      "wikiDataId": "Q4731990",
      "country_code": "US",
      "state_code": "CA",
      "state_id": 1416,
      "country_id": 233
    },
    {
      "id": 111215,
      "name": "Parc Alondra",
      "name_default": "Alondra Park",
      "native": "Alondra Park",
      "type": "city",
      "level": null,
      "parent_id": null,
      "population": 8592,
      "latitude": "33.88946000",
      "longitude": "-118.33091000",
      "timezone": "America/Los_Angeles",
      "wikiDataId": "Q1668473",
      "country_code": "US",
      "state_code": "CA",
      "state_id": 1416,
      "country_id": 233
    },
    {
      "id": 111217,
      "name": "Alpaugh",
      "name_default": "Alpaugh",
      "native": "Alpaugh",
      "type": "city",
      "level": null,
      "parent_id": null,
      "population": 1026,
      "latitude": "35.88773000",
      "longitude": "-119.48734000",
      "timezone": "America/Los_Angeles",
      "wikiDataId": "Q742631",
      "country_code": "US",
      "state_code": "CA",
      "state_id": 1416,
      "country_id": 233
    },
    {
      "id": 111223,
      "name": "Alpin",
      "name_default": "Alpine",
      "native": "Alpine",
      "type": "city",
      "level": null,
      "parent_id": null,
      "population": 14236,
      "latitude": "32.83505000",
      "longitude": "-116.76641000",
      "timezone": "America/Los_Angeles",
      "wikiDataId": "Q2114785",
      "country_code": "US",
      "state_code": "CA",
      "state_id": 1416,
      "country_id": 233
    },
    {
      "id": 111226,
      "name": "Comté d'Alpine",
      "name_default": "Alpine County",
      "native": "Alpine County",
      "type": "county",
      "level": null,
      "parent_id": null,
      "population": 1204,
      "latitude": "38.59725000",
      "longitude": "-119.82065000",
      "timezone": "America/Los_Angeles",
      "wikiDataId": "Q108077",
      "country_code": "US",
      "state_code": "CA",
      "state_id": 1416,
      "country_id": 233
    },
    {
      "id": 111230,
      "name": "Haute Sierra",
      "name_default": "Alta Sierra",
      "native": "High Sierra",
      "type": "city",
      "level": null,
      "parent_id": null,
      "population": 7047,
      "latitude": "35.73126000",
      "longitude": "-118.55390000",
      "timezone": "America/Los_Angeles",
      "wikiDataId": "Q4736000",
      "country_code": "US",
      "state_code": "CA",
      "state_id": 1416,
      "country_id": 233
    },
    {
      "id": 111231,
      "name": "Altadena",
      "name_default": "Altadena",
      "native": "Altadena",
      "type": "city",
      "level": null,
      "parent_id": null,
      "population": 42777,
      "latitude": "34.18973000",
      "longitude": "-118.13118000",
      "timezone": "America/Los_Angeles",
      "wikiDataId": "Q433701",
      "country_code": "US",
      "state_code": "CA",
      "state_id": 1416,
      "country_id": 233
    },
    {
      "id": 111251,
      "name": "Alturas",
      "name_default": "Alturas",
      "native": "Heights",
      "type": "adm2",
      "level": null,
      "parent_id": null,
      "population": 2715,
      "latitude": "41.48714000",
      "longitude": "-120.54349000",
      "timezone": "America/Los_Angeles",
      "wikiDataId": "Q446281",
      "country_code": "US",
      "state_code": "CA",
      "state_id": 1416,
      "country_id": 233
    },
    {
      "id": 111254,
      "name": "Roche d'alun",
      "name_default": "Alum Rock",
      "native": "Alum Rock",
      "type": "section",
      "level": null,
      "parent_id": null,
      "population": 15536,
      "latitude": "37.36605000",
      "longitude": "-121.82718000",
      "timezone": "America/Los_Angeles",
      "wikiDataId": "Q3461009",
      "country_code": "US",
      "state_code": "CA",
      "state_id": 1416,
      "country_id": 233
    },
    {
      "id": 111261,
      "name": "Comté d'Amador",
      "name_default": "Amador",
      "native": "Amador County",
      "type": "county",
      "level": null,
      "parent_id": null,
      "population": 40474,
      "latitude": "38.44639000",
      "longitude": "-120.65112000",
      "timezone": "America/Los_Angeles",
      "wikiDataId": "Q156177",
      "country_code": "US",
      "state_code": "CA",
      "state_id": 1416,
      "country_id": 233
    },
    {
      "id": 111271,
      "name": "Canyon américain",
      "name_default": "American Canyon",
      "native": "American Canyon",
      "type": "city",
      "level": null,
      "parent_id": null,
      "population": 21837,
      "latitude": "38.17492000",
      "longitude": "-122.26080000",
      "timezone": "America/Los_Angeles",
      "wikiDataId": "Q463679",
      "country_code": "US",
      "state_code": "CA",
      "state_id": 1416,
      "country_id": 233
    },
    {
      "id": 111280,
      "name": "Amesti",
      "name_default": "Amesti",
      "native": "Amesti",
      "type": "city",
      "level": null,
      "parent_id": null,
      "population": 3478,
      "latitude": "36.96356000",
      "longitude": "-121.77912000",
      "timezone": "America/Los_Angeles",
      "wikiDataId": "Q3301177",
      "country_code": "US",
      "state_code": "CA",
      "state_id": 1416,
      "country_id": 233
    },
    {
      "id": 111299,
      "name": "Anaheim",
      "name_default": "Anaheim",
      "native": "Anaheim",
      "type": "city",
      "level": null,
      "parent_id": null,
      "population": 346824,
      "latitude": "33.83529000",
      "longitude": "-117.91450000",
      "timezone": "America/Los_Angeles",
      "wikiDataId": "Q49247",
      "country_code": "US",
      "state_code": "CA",
      "state_id": 1416,
      "country_id": 233
    },
    {
      "id": 111314,
      "name": "Anderson",
      "name_default": "Anderson",
      "native": "Anderson",
      "type": "city",
      "level": null,
      "parent_id": null,
      "population": 10217,
      "latitude": "40.44821000",
      "longitude": "-122.29778000",
      "timezone": "America/Los_Angeles",
      "wikiDataId": "Q491469",
      "country_code": "US",
      "state_code": "CA",
      "state_id": 1416,
      "country_id": 233
    },
    {
      "id": 111337,
      "name": "Camp des Anges",
      "name_default": "Angels Camp",
      "native": "Angels Camp",
      "type": "city",
      "level": null,
      "parent_id": null,
      "population": 2677,
      "latitude": "38.06826000",
      "longitude": "-120.53965000",
      "timezone": "America/Los_Angeles",
      "wikiDataId": "Q2603725",
      "country_code": "US",
      "state_code": "CA",
      "state_id": 1416,
      "country_id": 233
    },
    {
      "id": 111343,
      "name": "Angwin",
      "name_default": "Angwin",
      "native": "Angwin",
      "type": "city",
      "level": null,
      "parent_id": null,
      "population": 3051,
      "latitude": "38.57574000",
      "longitude": "-122.44998000",
      "timezone": "America/Los_Angeles",
      "wikiDataId": "Q2277678",
      "country_code": "US",
      "state_code": "CA",
      "state_id": 1416,
      "country_id": 233
    },
    {
      "id": 111364,
      "name": "Antilope",
      "name_default": "Antelope",
      "native": "Antelope",
      "type": "city",
      "level": null,
      "parent_id": null,
      "population": 45770,
      "latitude": "38.70824000",
      "longitude": "-121.32995000",
      "timezone": "America/Los_Angeles",
      "wikiDataId": "Q3470866",
      "country_code": "US",
      "state_code": "CA",
      "state_id": 1416,
      "country_id": 233
    },
    {
      "id": 111373,
      "name": "Antioche",
      "name_default": "Antioch",
      "native": "Antioch",
      "type": "city",
      "level": null,
      "parent_id": null,
      "population": 115291,
      "latitude": "38.00492000",
      "longitude": "-121.80579000",
      "timezone": "America/Los_Angeles",
      "wikiDataId": "Q495357",
      "country_code": "US",
      "state_code": "CA",
      "state_id": 1416,
      "country_id": 233
    },
    {
      "id": 111378,
      "name": "Anza",
      "name_default": "Anza",
      "native": "Anza",
      "type": "city",
      "level": null,
      "parent_id": null,
      "population": 3014,
      "latitude": "33.55503000",
      "longitude": "-116.67363000",
      "timezone": "America/Los_Angeles",
      "wikiDataId": "Q3458204",
      "country_code": "US",
      "state_code": "CA",
      "state_id": 1416,
      "country_id": 233
    },
    {
      "id": 111394,
      "name": "Vallée de la Pomme",
      "name_default": "Apple Valley",
      "native": "Apple Valley",
      "type": "city",
      "level": null,
      "parent_id": null,
      "population": 72174,
      "latitude": "34.50083000",
      "longitude": "-117.18588000",
      "timezone": "America/Los_Angeles",
      "wikiDataId": "Q621372",
      "country_code": "US",
      "state_code": "CA",
      "state_id": 1416,
      "country_id": 233
    },
    {
      "id": 111403,
      "name": "Aptos",
      "name_default": "Aptos",
      "native": "Apt",
      "type": "city",
      "level": null,
      "parent_id": null,
      "population": 6220,
      "latitude": "36.97717000",
      "longitude": "-121.89940000",
      "timezone": "America/Los_Angeles",
      "wikiDataId": "Q622269",
      "country_code": "US",
      "state_code": "CA",
      "state_id": 1416,
      "country_id": 233
    },
    {
      "id": 111404,
      "name": "Aptos Hills-Vallée de Larkin",
      "name_default": "Aptos Hills-Larkin Valley",
      "native": "Aptos Hills-Larkin Valley",
      "type": "city",
      "level": null,
      "parent_id": null,
      "population": 2381,
      "latitude": "36.96064000",
      "longitude": "-121.83404000",
      "timezone": "America/Los_Angeles",
      "wikiDataId": "Q2987998",
      "country_code": "US",
      "state_code": "CA",
      "state_id": 1416,
      "country_id": 233
    },
    {
      "id": 111416,
      "name": "Arbuckle",
      "name_default": "Arbuckle",
      "native": "Arbuckle",
      "type": "city",
      "level": null,
      "parent_id": null,
      "population": 3028,
      "latitude": "39.01740000",
      "longitude": "-122.05775000",
      "timezone": "America/Los_Angeles",
      "wikiDataId": "Q3306160",
      "country_code": "US",
      "state_code": "CA",
      "state_id": 1416,
      "country_id": 233
    },
    {
      "id": 111425,
      "name": "Arcadie",
      "name_default": "Arcadia",
      "native": "Arcadia",
      "type": "city",
      "level": null,
      "parent_id": null,
      "population": 58408,
      "latitude": "34.13973000",
      "longitude": "-118.03534000",
      "timezone": "America/Los_Angeles",
      "wikiDataId": "Q534536",
      "country_code": "US",
      "state_code": "CA",
      "state_id": 1416,
      "country_id": 233
    },
    {
      "id": 111426,
      "name": "Arcata",
      "name_default": "Arcata",
      "native": "Arch",
      "type": "city",
      "level": null,
      "parent_id": null,
      "population": 18857,
      "latitude": "40.86652000",
      "longitude": "-124.08284000",
      "timezone": "America/Los_Angeles",
      "wikiDataId": "Q631752",
      "country_code": "US",
      "state_code": "CA",
      "state_id": 1416,
      "country_id": 233
    },
    {
      "id": 111440,
      "name": "Arden Arcade",
      "name_default": "Arden-Arcade",
      "native": "Arden-Arcade",
      "type": "city",
      "level": null,
      "parent_id": null,
      "population": 92186,
      "latitude": "38.60250000",
      "longitude": "-121.37854000",
      "timezone": "America/Los_Angeles",
      "wikiDataId": "Q638819",
      "country_code": "US",
      "state_code": "CA",
      "state_id": 1416,
      "country_id": 233
    },
    {
      "id": 111477,
      "name": "Armona",
      "name_default": "Armona",
      "native": "Armona",
      "type": "city",
      "level": null,
      "parent_id": null,
      "population": 4156,
      "latitude": "36.31578000",
      "longitude": "-119.70846000",
      "timezone": "America/Los_Angeles",
      "wikiDataId": "Q2673381",
      "country_code": "US",
      "state_code": "CA",
      "state_id": 1416,
      "country_id": 233
    },
    {
      "id": 111488,
      "name": "Arnold",
      "name_default": "Arnold",
      "native": "Arnold",
      "type": "city",
      "level": null,
      "parent_id": null,
      "population": 4772,
      "latitude": "38.25547000",
      "longitude": "-120.35103000",
      "timezone": "America/Los_Angeles",
      "wikiDataId": "Q2179690",
      "country_code": "US",
      "state_code": "CA",
      "state_id": 1416,
      "country_id": 233
    },
    {
      "id": 111491,
      "name": "Arômes",
      "name_default": "Aromas",
      "native": "Aromas",
      "type": "city",
      "level": null,
      "parent_id": null,
      "population": 2650,
      "latitude": "36.88856000",
      "longitude": "-121.64300000",
      "timezone": "America/Los_Angeles",
      "wikiDataId": "Q3301893",
      "country_code": "US",
      "state_code": "CA",
      "state_id": 1416,
      "country_id": 233
    },
    {
      "id": 111494,
      "name": "Arroyo Grande",
      "name_default": "Arroyo Grande",
      "native": "Arroyo Grande",
      "type": "city",
      "level": null,
      "parent_id": null,
      "population": 18441,
      "latitude": "35.11859000",
      "longitude": "-120.59073000",
      "timezone": "America/Los_Angeles",
      "wikiDataId": "Q703206",
      "country_code": "US",
      "state_code": "CA",
      "state_id": 1416,
      "country_id": 233
    },
    {
      "id": 111496,
      "name": "Artesia",
      "name_default": "Artesia",
      "native": "Artesia",
      "type": "city",
      "level": null,
      "parent_id": null,
      "population": 16961,
      "latitude": "33.86585000",
      "longitude": "-118.08312000",
      "timezone": "America/Los_Angeles",
      "wikiDataId": "Q526814",
      "country_code": "US",
      "state_code": "CA",
      "state_id": 1416,
      "country_id": 233
    },
    {
      "id": 111505,
      "name": "Arvin",
      "name_default": "Arvin",
      "native": "Arvin",
      "type": "city",
      "level": null,
      "parent_id": null,
      "population": 19495,
      "latitude": "35.20913000",
      "longitude": "-118.82843000",
      "timezone": "America/Los_Angeles",
      "wikiDataId": "Q717385",
      "country_code": "US",
      "state_code": "CA",
      "state_id": 1416,
      "country_id": 233
    },
    {
      "id": 111538,
      "name": "Ashland",
      "name_default": "Ashland",
      "native": "Ashland",
      "type": "city",
      "level": null,
      "parent_id": null,
      "population": 21360,
      "latitude": "37.69465000",
      "longitude": "-122.11385000",
      "timezone": "America/Los_Angeles",
      "wikiDataId": "Q1006582",
      "country_code": "US",
      "state_code": "CA",
      "state_id": 1416,
      "country_id": 233
    },
    {
      "id": 111564,
      "name": "Atascadero",
      "name_default": "Atascadero",
      "native": "Clogger",
      "type": "city",
      "level": null,
      "parent_id": null,
      "population": 29773,
      "latitude": "35.48942000",
      "longitude": "-120.67073000",
      "timezone": "America/Los_Angeles",
      "wikiDataId": "Q653827",
      "country_code": "US",
      "state_code": "CA",
      "state_id": 1416,
      "country_id": 233
    },
    {
      "id": 111582,
      "name": "Atherton",
      "name_default": "Atherton",
      "native": "Atherton",
      "type": "city",
      "level": null,
      "parent_id": null,
      "population": 7188,
      "latitude": "37.46133000",
      "longitude": "-122.19774000",
      "timezone": "America/Los_Angeles",
      "wikiDataId": "Q2869080",
      "country_code": "US",
      "state_code": "CA",
      "state_id": 1416,
      "country_id": 233
    },
    {
      "id": 111613,
      "name": "Atwater",
      "name_default": "Atwater",
      "native": "Atwater",
      "type": "city",
      "level": null,
      "parent_id": null,
      "population": 31970,
      "latitude": "37.34772000",
      "longitude": "-120.60908000",
      "timezone": "America/Los_Angeles",
      "wikiDataId": "Q595806",
      "country_code": "US",
      "state_code": "CA",
      "state_id": 1416,
      "country_id": 233
    },
    {
      "id": 111617,
      "name": "Auberry",
      "name_default": "Auberry",
      "native": "Auberry",
      "type": "city",
      "level": null,
      "parent_id": null,
      "population": 2369,
      "latitude": "37.08078000",
      "longitude": "-119.48541000",
      "timezone": "America/Los_Angeles",
      "wikiDataId": "Q2662360",
      "country_code": "US",
      "state_code": "CA",
      "state_id": 1416,
      "country_id": 233
    },
    {
      "id": 111631,
      "name": "Auburn",
      "name_default": "Auburn",
      "native": "Auburn",
      "type": "adm2",
      "level": null,
      "parent_id": null,
      "population": 13776,
      "latitude": "38.89657000",
      "longitude": "-121.07689000",
      "timezone": "America/Los_Angeles",
      "wikiDataId": "Q758542",
      "country_code": "US",
      "state_code": "CA",
      "state_id": 1416,
      "country_id": 233
    },
    {
      "id": 111635,
      "name": "Sentiers du lac Auburn",
      "name_default": "Auburn Lake Trails",
      "native": "Auburn Lake Trails",
      "type": "city",
      "level": null,
      "parent_id": null,
      "population": 3426,
      "latitude": "38.91434000",
      "longitude": "-120.95244000",
      "timezone": "America/Los_Angeles",
      "wikiDataId": "Q4819286",
      "country_code": "US",
      "state_code": "CA",
      "state_id": 1416,
      "country_id": 233
    },
    {
      "id": 111644,
      "name": "Août",
      "name_default": "August",
      "native": "August",
      "type": "city",
      "level": null,
      "parent_id": null,
      "population": 8390,
      "latitude": "37.97881000",
      "longitude": "-121.26217000",
      "timezone": "America/Los_Angeles",
      "wikiDataId": "Q2617712",
      "country_code": "US",
      "state_code": "CA",
      "state_id": 1416,
      "country_id": 233
    },
    {
      "id": 111675,
      "name": "Avalon",
      "name_default": "Avalon",
      "native": "Avalon",
      "type": "city",
      "level": null,
      "parent_id": null,
      "population": 3799,
      "latitude": "33.34281000",
      "longitude": "-118.32785000",
      "timezone": "America/Los_Angeles",
      "wikiDataId": "Q695715",
      "country_code": "US",
      "state_code": "CA",
      "state_id": 1416,
      "country_id": 233
    },
    {
      "id": 111676,
      "name": "Avenal",
      "name_default": "Avenal",
      "native": "Avenal",
      "type": "city",
      "level": null,
      "parent_id": null,
      "population": 13696,
      "latitude": "36.00412000",
      "longitude": "-120.12903000",
      "timezone": "America/Los_Angeles",
      "wikiDataId": "Q790415",
      "country_code": "US",
      "state_code": "CA",
      "state_id": 1416,
      "country_id": 233
    },
    {
      "id": 111683,
      "name": "Plage d'Avila",
      "name_default": "Avila Beach",
      "native": "Avila Beach",
      "type": "city",
      "level": null,
      "parent_id": null,
      "population": 1627,
      "latitude": "35.17998000",
      "longitude": "-120.73184000",
      "timezone": "America/Los_Angeles",
      "wikiDataId": "Q3477456",
      "country_code": "US",
      "state_code": "CA",
      "state_id": 1416,
      "country_id": 233
    },
    {
      "id": 111689,
      "name": "Hauteurs d'avocat",
      "name_default": "Avocado Heights",
      "native": "Avocado Heights",
      "type": "city",
      "level": null,
      "parent_id": null,
      "population": 15411,
      "latitude": "34.03612000",
      "longitude": "-117.99118000",
      "timezone": "America/Los_Angeles",
      "wikiDataId": "Q791245",
      "country_code": "US",
      "state_code": "CA",
      "state_id": 1416,
      "country_id": 233
    },
    {
      "id": 111713,
      "name": "Azusa",
      "name_default": "Azusa",
      "native": "Azusa",
      "type": "city",
      "level": null,
      "parent_id": null,
      "population": 50000,
      "latitude": "34.13362000",
      "longitude": "-117.90756000",
      "timezone": "America/Los_Angeles",
      "wikiDataId": "Q794396",
      "country_code": "US",
      "state_code": "CA",
      "state_id": 1416,
      "country_id": 233
    },
    {
      "id": 111744,
      "name": "Bakersfield",
      "name_default": "Bakersfield",
      "native": "Bakersfield",
      "type": "adm2",
      "level": null,
      "parent_id": null,
      "population": 403455,
      "latitude": "35.37329000",
      "longitude": "-119.01871000",
      "timezone": "America/Los_Angeles",
      "wikiDataId": "Q49256",
      "country_code": "US",
      "state_code": "CA",
      "state_id": 1416,
      "country_id": 233
    },
    {
      "id": 111763,
      "name": "Parc Baldwin",
      "name_default": "Baldwin Park",
      "native": "Baldwin Park",
      "type": "city",
      "level": null,
      "parent_id": null,
      "population": 72176,
      "latitude": "34.08529000",
      "longitude": "-117.96090000",
      "timezone": "America/Los_Angeles",
      "wikiDataId": "Q804878",
      "country_code": "US",
      "state_code": "CA",
      "state_id": 1416,
      "country_id": 233
    },
    {
      "id": 111803,
      "name": "Interdiction",
      "name_default": "Banning",
      "native": "Banning",
      "type": "city",
      "level": null,
      "parent_id": null,
      "population": 29505,
      "latitude": "33.92557000",
      "longitude": "-116.87641000",
      "timezone": "America/Los_Angeles",
      "wikiDataId": "Q806903",
      "country_code": "US",
      "state_code": "CA",
      "state_id": 1416,
      "country_id": 233
    },
    {
      "id": 111857,
      "name": "Barstow",
      "name_default": "Barstow",
      "native": "Barstow",
      "type": "city",
      "level": null,
      "parent_id": null,
      "population": 23692,
      "latitude": "34.89859000",
      "longitude": "-117.02282000",
      "timezone": "America/Los_Angeles",
      "wikiDataId": "Q499174",
      "country_code": "US",
      "state_code": "CA",
      "state_id": 1416,
      "country_id": 233
    },
    {
      "id": 111858,
      "name": "Barstow Heights",
      "name_default": "Barstow Heights",
      "native": "Barstow Heights",
      "type": "city",
      "level": null,
      "parent_id": null,
      "population": 24202,
      "latitude": "34.86971000",
      "longitude": "-117.05615000",
      "timezone": "America/Los_Angeles",
      "wikiDataId": "Q499174",
      "country_code": "US",
      "state_code": "CA",
      "state_id": 1416,
      "country_id": 233
    },
    {
      "id": 111932,
      "name": "Pointe de la Baie",
      "name_default": "Bay Point",
      "native": "Bay Point",
      "type": "city",
      "level": null,
      "parent_id": null,
      "population": 21534,
      "latitude": "38.02909000",
      "longitude": "-121.96163000",
      "timezone": "America/Los_Angeles",
      "wikiDataId": "Q812085",
      "country_code": "US",
      "state_code": "CA",
      "state_id": 1416,
      "country_id": 233
    },
    {
      "id": 111957,
      "name": "Bayside",
      "name_default": "Bayside",
      "native": "Bayside",
      "type": "city",
      "level": null,
      "parent_id": null,
      "population": 17132,
      "latitude": "40.84235000",
      "longitude": "-124.06367000",
      "timezone": "America/Los_Angeles",
      "wikiDataId": "Q812624",
      "country_code": "US",
      "state_code": "CA",
      "state_id": 1416,
      "country_id": 233
    },
    {
      "id": 111959,
      "name": "Vue sur la baie",
      "name_default": "Bayview",
      "native": "Bayview",
      "type": "city",
      "level": null,
      "parent_id": null,
      "population": 2510,
      "latitude": "40.77263000",
      "longitude": "-124.18395000",
      "timezone": "America/Los_Angeles",
      "wikiDataId": "Q474517",
      "country_code": "US",
      "state_code": "CA",
      "state_id": 1416,
      "country_id": 233
    },
    {
      "id": 111971,
      "name": "Base aérienne de Beale",
      "name_default": "Beale Air Force Base",
      "native": "Beale Air Force Base",
      "type": "city",
      "level": null,
      "parent_id": null,
      "population": 1319,
      "latitude": "39.10917000",
      "longitude": "-121.35444000",
      "timezone": "America/Los_Angeles",
      "wikiDataId": "Q484780",
      "country_code": "US",
      "state_code": "CA",
      "state_id": 1416,
      "country_id": 233
    },
    {
      "id": 111979,
      "name": "Sources de Bear Valley",
      "name_default": "Bear Valley Springs",
      "native": "Bear Valley Springs",
      "type": "city",
      "level": null,
      "parent_id": null,
      "population": 5172,
      "latitude": "35.15913000",
      "longitude": "-118.62842000",
      "timezone": "America/Los_Angeles",
      "wikiDataId": "Q2083078",
      "country_code": "US",
      "state_code": "CA",
      "state_id": 1416,
      "country_id": 233
    },
    {
      "id": 111990,
      "name": "Beaumont",
      "name_default": "Beaumont",
      "native": "Beaumont",
      "type": "city",
      "level": null,
      "parent_id": null,
      "population": 53036,
      "latitude": "33.92946000",
      "longitude": "-116.97725000",
      "timezone": "America/Los_Angeles",
      "wikiDataId": "Q813431",
      "country_code": "US",
      "state_code": "CA",
      "state_id": 1416,
      "country_id": 233
    },
    {
      "id": 112066,
      "name": "Cloche",
      "name_default": "Bell",
      "native": "Bell",
      "type": "city",
      "level": null,
      "parent_id": null,
      "population": 33559,
      "latitude": "33.97751000",
      "longitude": "-118.18702000",
      "timezone": "America/Los_Angeles",
      "wikiDataId": "Q377736",
      "country_code": "US",
      "state_code": "CA",
      "state_id": 1416,
      "country_id": 233
    },
    {
      "id": 112070,
      "name": "Jardins de la Cloche",
      "name_default": "Bell Gardens",
      "native": "Bell Gardens",
      "type": "city",
      "level": null,
      "parent_id": null,
      "population": 39501,
      "latitude": "33.96529000",
      "longitude": "-118.15146000",
      "timezone": "America/Los_Angeles",
      "wikiDataId": "Q815720",
      "country_code": "US",
      "state_code": "CA",
      "state_id": 1416,
      "country_id": 233
    },
    {
      "id": 112072,
      "name": "Bella Vista",
      "name_default": "Bella Vista",
      "native": "Beautiful view",
      "type": "city",
      "level": null,
      "parent_id": null,
      "population": 2781,
      "latitude": "40.64071000",
      "longitude": "-122.23250000",
      "timezone": "America/Los_Angeles",
      "wikiDataId": "Q3458829",
      "country_code": "US",
      "state_code": "CA",
      "state_id": 1416,
      "country_id": 233
    },
    {
      "id": 112118,
      "name": "Campanule",
      "name_default": "Bellflower",
      "native": "Bellflower",
      "type": "city",
      "level": null,
      "parent_id": null,
      "population": 78441,
      "latitude": "33.88168000",
      "longitude": "-118.11701000",
      "timezone": "America/Los_Angeles",
      "wikiDataId": "Q815979",
      "country_code": "US",
      "state_code": "CA",
      "state_id": 1416,
      "country_id": 233
    },
    {
      "id": 112142,
      "name": "Belmont",
      "name_default": "Belmont",
      "native": "Belmont",
      "type": "city",
      "level": null,
      "parent_id": null,
      "population": 27218,
      "latitude": "37.52021000",
      "longitude": "-122.27580000",
      "timezone": "America/Los_Angeles",
      "wikiDataId": "Q816099",
      "country_code": "US",
      "state_code": "CA",
      "state_id": 1416,
      "country_id": 233
    },
    {
      "id": 112153,
      "name": "Belvédère",
      "name_default": "Belvedere",
      "native": "Belvedere",
      "type": "city",
      "level": null,
      "parent_id": null,
      "population": 2126,
      "latitude": "37.87270000",
      "longitude": "-122.46442000",
      "timezone": "America/Los_Angeles",
      "wikiDataId": "Q2054234",
      "country_code": "US",
      "state_code": "CA",
      "state_id": 1416,
      "country_id": 233
    },
    {
      "id": 112163,
      "name": "Ben Lomond",
      "name_default": "Ben Lomond",
      "native": "Ben Lomond",
      "type": "city",
      "level": null,
      "parent_id": null,
      "population": 6234,
      "latitude": "37.08911000",
      "longitude": "-122.08635000",
      "timezone": "America/Los_Angeles",
      "wikiDataId": "Q588934",
      "country_code": "US",
      "state_code": "CA",
      "state_id": 1416,
      "country_id": 233
    },
    {
      "id": 112168,
      "name": "Bénicia",
      "name_default": "Benicia",
      "native": "Benicia",
      "type": "city",
      "level": null,
      "parent_id": null,
      "population": 27131,
      "latitude": "38.04937000",
      "longitude": "-122.15858000",
      "timezone": "America/Los_Angeles",
      "wikiDataId": "Q817301",
      "country_code": "US",
      "state_code": "CA",
      "state_id": 1416,
      "country_id": 233
    },
    {
      "id": 112223,
      "name": "Berkeley",
      "name_default": "Berkeley",
      "native": "Berkeley",
      "type": "city",
      "level": null,
      "parent_id": null,
      "population": 124321,
      "latitude": "37.87159000",
      "longitude": "-122.27275000",
      "timezone": "America/Los_Angeles",
      "wikiDataId": "Q484678",
      "country_code": "US",
      "state_code": "CA",
      "state_id": 1416,
      "country_id": 233
    },
    {
      "id": 112240,
      "name": "Dunes des Bermudes",
      "name_default": "Bermuda Dunes",
      "native": "Bermuda Dunes",
      "type": "city",
      "level": null,
      "parent_id": null,
      "population": 7282,
      "latitude": "33.74280000",
      "longitude": "-116.28918000",
      "timezone": "America/Los_Angeles",
      "wikiDataId": "Q2206371",
      "country_code": "US",
      "state_code": "CA",
      "state_id": 1416,
      "country_id": 233
    },
    {
      "id": 112253,
      "name": "Ruisseau Berry",
      "name_default": "Berry Creek",
      "native": "Berry Creek",
      "type": "city",
      "level": null,
      "parent_id": null,
      "population": 1424,
      "latitude": "39.64516000",
      "longitude": "-121.40330000",
      "timezone": "America/Los_Angeles",
      "wikiDataId": "Q3458761",
      "country_code": "US",
      "state_code": "CA",
      "state_id": 1416,
      "country_id": 233
    },
    {
      "id": 112260,
      "name": "Bertsch-Oceanview",
      "name_default": "Bertsch-Oceanview",
      "native": "Bertsch-Oceanview",
      "type": "city",
      "level": null,
      "parent_id": null,
      "population": 2436,
      "latitude": "41.75250000",
      "longitude": "-124.15875000",
      "timezone": "America/Los_Angeles",
      "wikiDataId": "Q3301935",
      "country_code": "US",
      "state_code": "CA",
      "state_id": 1416,
      "country_id": 233
    },
    {
      "id": 112286,
      "name": "Île Bethel",
      "name_default": "Bethel Island",
      "native": "Bethel Island",
      "type": "city",
      "level": null,
      "parent_id": null,
      "population": 2137,
      "latitude": "38.01492000",
      "longitude": "-121.64051000",
      "timezone": "America/Los_Angeles",
      "wikiDataId": "Q3306108",
      "country_code": "US",
      "state_code": "CA",
      "state_id": 1416,
      "country_id": 233
    },
    {
      "id": 112306,
      "name": "Beverly Hills",
      "name_default": "Beverly Hills",
      "native": "Beverly Hills",
      "type": "section",
      "level": null,
      "parent_id": null,
      "population": 32701,
      "latitude": "34.07362000",
      "longitude": "-118.40036000",
      "timezone": "America/Los_Angeles",
      "wikiDataId": "Q127856",
      "country_code": "US",
      "state_code": "CA",
      "state_id": 1416,
      "country_id": 233
    },
    {
      "id": 112315,
      "name": "Big Bear City",
      "name_default": "Big Bear City",
      "native": "Big Bear City",
      "type": "city",
      "level": null,
      "parent_id": null,
      "population": 12304,
      "latitude": "34.26112000",
      "longitude": "-116.84503000",
      "timezone": "America/Los_Angeles",
      "wikiDataId": "Q542794",
      "country_code": "US",
      "state_code": "CA",
      "state_id": 1416,
      "country_id": 233
    },
    {
      "id": 112316,
      "name": "Lac Big Bear",
      "name_default": "Big Bear Lake",
      "native": "Big Bear Lake",
      "type": "city",
      "level": null,
      "parent_id": null,
      "population": 5046,
      "latitude": "34.24390000",
      "longitude": "-116.91142000",
      "timezone": "America/Los_Angeles",
      "wikiDataId": "Q430708",
      "country_code": "US",
      "state_code": "CA",
      "state_id": 1416,
      "country_id": 233
    },
    {
      "id": 112328,
      "name": "Grand Pin",
      "name_default": "Big Pine",
      "native": "Big Pine",
      "type": "city",
      "level": null,
      "parent_id": null,
      "population": 1756,
      "latitude": "37.16493000",
      "longitude": "-118.28955000",
      "timezone": "America/Los_Angeles",
      "wikiDataId": "Q2532244",
      "country_code": "US",
      "state_code": "CA",
      "state_id": 1416,
      "country_id": 233
    },
    {
      "id": 112331,
      "name": "Grande rivière",
      "name_default": "Big River",
      "native": "Big River",
      "type": "city",
      "level": null,
      "parent_id": null,
      "population": 1327,
      "latitude": "34.14002000",
      "longitude": "-114.36134000",
      "timezone": "America/Los_Angeles",
      "wikiDataId": "Q1837406",
      "country_code": "US",
      "state_code": "CA",
      "state_id": 1416,
      "country_id": 233
    },
    {
      "id": 112340,
      "name": "Biggs",
      "name_default": "Biggs",
      "native": "Biggs",
      "type": "city",
      "level": null,
      "parent_id": null,
      "population": 1964,
      "latitude": "39.41239000",
      "longitude": "-121.71275000",
      "timezone": "America/Los_Angeles",
      "wikiDataId": "Q2902454",
      "country_code": "US",
      "state_code": "CA",
      "state_id": 1416,
      "country_id": 233
    },
    {
      "id": 112352,
      "name": "Biola",
      "name_default": "Biola",
      "native": "Biola",
      "type": "city",
      "level": null,
      "parent_id": null,
      "population": 1623,
      "latitude": "36.80217000",
      "longitude": "-120.01627000",
      "timezone": "America/Los_Angeles",
      "wikiDataId": "Q2912357",
      "country_code": "US",
      "state_code": "CA",
      "state_id": 1416,
      "country_id": 233
    },
    {
      "id": 112364,
      "name": "Évêque",
      "name_default": "Bishop",
      "native": "Bishop",
      "type": "city",
      "level": null,
      "parent_id": null,
      "population": 3819,
      "latitude": "37.36354000",
      "longitude": "-118.39511000",
      "timezone": "America/Los_Angeles",
      "wikiDataId": "Q852658",
      "country_code": "US",
      "state_code": "CA",
      "state_id": 1416,
      "country_id": 233
    },
    {
      "id": 112381,
      "name": "Pointe Noire-Pointe Verte",
      "name_default": "Black Point-Green Point",
      "native": "Black Point-Green Point",
      "type": "city",
      "level": null,
      "parent_id": null,
      "population": 1306,
      "latitude": "38.11547000",
      "longitude": "-122.51318000",
      "timezone": "America/Los_Angeles",
      "wikiDataId": "Q2413277",
      "country_code": "US",
      "state_code": "CA",
      "state_id": 1416,
      "country_id": 233
    },
    {
      "id": 112387,
      "name": "Blackhawk",
      "name_default": "Blackhawk",
      "native": "Blackhawk",
      "type": "city",
      "level": null,
      "parent_id": null,
      "population": 9354,
      "latitude": "37.82076000",
      "longitude": "-121.90774000",
      "timezone": "America/Los_Angeles",
      "wikiDataId": "Q3470840",
      "country_code": "US",
      "state_code": "CA",
      "state_id": 1416,
      "country_id": 233
    },
    {
      "id": 112453,
      "name": "Bloomington",
      "name_default": "Bloomington",
      "native": "Bloomington",
      "type": "city",
      "level": null,
      "parent_id": null,
      "population": 23851,
      "latitude": "34.07029000",
      "longitude": "-117.39588000",
      "timezone": "America/Los_Angeles",
      "wikiDataId": "Q885396",
      "country_code": "US",
      "state_code": "CA",
      "state_id": 1416,
      "country_id": 233
    },
    {
      "id": 112470,
      "name": "Lac Bleu",
      "name_default": "Blue Lake",
      "native": "Blue Lake",
      "type": "city",
      "level": null,
      "parent_id": null,
      "population": 1208,
      "latitude": "40.88291000",
      "longitude": "-123.98395000",
      "timezone": "America/Los_Angeles",
      "wikiDataId": "Q2907220",
      "country_code": "US",
      "state_code": "CA",
      "state_id": 1416,
      "country_id": 233
    },
    {
      "id": 112485,
      "name": "Blythe",
      "name_default": "Blythe",
      "native": "Blythe",
      "type": "city",
      "level": null,
      "parent_id": null,
      "population": 18317,
      "latitude": "33.61030000",
      "longitude": "-114.59635000",
      "timezone": "America/Los_Angeles",
      "wikiDataId": "Q886915",
      "country_code": "US",
      "state_code": "CA",
      "state_id": 1416,
      "country_id": 233
    },
    {
      "id": 112495,
      "name": "Baie de Bodega",
      "name_default": "Bodega Bay",
      "native": "Bay winery",
      "type": "city",
      "level": null,
      "parent_id": null,
      "population": 1077,
      "latitude": "38.33325000",
      "longitude": "-123.04806000",
      "timezone": "America/Los_Angeles",
      "wikiDataId": "Q889411",
      "country_code": "US",
      "state_code": "CA",
      "state_id": 1416,
      "country_id": 233
    },
    {
      "id": 112496,
      "name": "Poisson-poisson",
      "name_default": "Bodfish",
      "native": "Bodfish",
      "type": "city",
      "level": null,
      "parent_id": null,
      "population": 1956,
      "latitude": "35.58801000",
      "longitude": "-118.49203000",
      "timezone": "America/Los_Angeles",
      "wikiDataId": "Q2396293",
      "country_code": "US",
      "state_code": "CA",
      "state_id": 1416,
      "country_id": 233
    },
    {
      "id": 112514,
      "name": "Bolinas",
      "name_default": "Bolinas",
      "native": "Bolinas",
      "type": "city",
      "level": null,
      "parent_id": null,
      "population": 1620,
      "latitude": "37.90937000",
      "longitude": "-122.68637000",
      "timezone": "America/Los_Angeles",
      "wikiDataId": "Q2686131",
      "country_code": "US",
      "state_code": "CA",
      "state_id": 1416,
      "country_id": 233
    },
    {
      "id": 112529,
      "name": "Bonadelle Ranchos-Madera Ranchos",
      "name_default": "Bonadelle Ranchos-Madera Ranchos",
      "native": "Bonadelle Ranchos-Madera Ranchos",
      "type": "city",
      "level": null,
      "parent_id": null,
      "population": 8569,
      "latitude": "36.98467000",
      "longitude": "-119.87463000",
      "timezone": "America/Los_Angeles",
      "wikiDataId": "Q2379808",
      "country_code": "US",
      "state_code": "CA",
      "state_id": 1416,
      "country_id": 233
    },
    {
      "id": 112537,
      "name": "Belle",
      "name_default": "Bonita",
      "native": "Bonita",
      "type": "city",
      "level": null,
      "parent_id": null,
      "population": 12538,
      "latitude": "32.65783000",
      "longitude": "-117.03003000",
      "timezone": "America/Los_Angeles",
      "wikiDataId": "Q892613",
      "country_code": "US",
      "state_code": "CA",
      "state_id": 1416,
      "country_id": 233
    },
    {
      "id": 112548,
      "name": "Bonny Doon",
      "name_default": "Bonny Doon",
      "native": "Bonny Doon",
      "type": "city",
      "level": null,
      "parent_id": null,
      "population": 2678,
      "latitude": "37.04162000",
      "longitude": "-122.15052000",
      "timezone": "America/Los_Angeles",
      "wikiDataId": "Q3476197",
      "country_code": "US",
      "state_code": "CA",
      "state_id": 1416,
      "country_id": 233
    },
    {
      "id": 112550,
      "name": "Bonsall",
      "name_default": "Bonsall",
      "native": "Bonsall",
      "type": "city",
      "level": null,
      "parent_id": null,
      "population": 3982,
      "latitude": "33.28892000",
      "longitude": "-117.22559000",
      "timezone": "America/Los_Angeles",
      "wikiDataId": "Q2393153",
      "country_code": "US",
      "state_code": "CA",
      "state_id": 1416,
      "country_id": 233
    },
    {
      "id": 112571,
      "name": "Boonville",
      "name_default": "Boonville",
      "native": "Boonville",
      "type": "city",
      "level": null,
      "parent_id": null,
      "population": 1035,
      "latitude": "39.00907000",
      "longitude": "-123.36612000",
      "timezone": "America/Los_Angeles",
      "wikiDataId": "Q2910515",
      "country_code": "US",
      "state_code": "CA",
      "state_id": 1416,
      "country_id": 233
    },
    {
      "id": 112578,
      "name": "Bore",
      "name_default": "Boron",
      "native": "Boron",
      "type": "city",
      "level": null,
      "parent_id": null,
      "population": 2253,
      "latitude": "34.99942000",
      "longitude": "-117.64978000",
      "timezone": "America/Los_Angeles",
      "wikiDataId": "Q1965078",
      "country_code": "US",
      "state_code": "CA",
      "state_id": 1416,
      "country_id": 233
    },
    {
      "id": 112579,
      "name": "Boronda",
      "name_default": "Boronda",
      "native": "Boronda",
      "type": "city",
      "level": null,
      "parent_id": null,
      "population": 1710,
      "latitude": "36.69885000",
      "longitude": "-121.67495000",
      "timezone": "America/Los_Angeles",
      "wikiDataId": "Q2083254",
      "country_code": "US",
      "state_code": "CA",
      "state_id": 1416,
      "country_id": 233
    },
    {
      "id": 112581,
      "name": "Borrego Springs",
      "name_default": "Borrego Springs",
      "native": "Borrego Springs",
      "type": "city",
      "level": null,
      "parent_id": null,
      "population": 3429,
      "latitude": "33.25587000",
      "longitude": "-116.37501000",
      "timezone": "America/Los_Angeles",
      "wikiDataId": "Q2049424",
      "country_code": "US",
      "state_code": "CA",
      "state_id": 1416,
      "country_id": 233
    },
    {
      "id": 112591,
      "name": "Bostonia",
      "name_default": "Bostonia",
      "native": "Bostonia",
      "type": "city",
      "level": null,
      "parent_id": null,
      "population": 15379,
      "latitude": "32.80755000",
      "longitude": "-116.93642000",
      "timezone": "America/Los_Angeles",
      "wikiDataId": "Q894606",
      "country_code": "US",
      "state_code": "CA",
      "state_id": 1416,
      "country_id": 233
    },
    {
      "id": 112604,
      "name": "Boulder Creek",
      "name_default": "Boulder Creek",
      "native": "Boulder Creek",
      "type": "city",
      "level": null,
      "parent_id": null,
      "population": 4923,
      "latitude": "37.12606000",
      "longitude": "-122.12219000",
      "timezone": "America/Los_Angeles",
      "wikiDataId": "Q2195131",
      "country_code": "US",
      "state_code": "CA",
      "state_id": 1416,
      "country_id": 233
    },
    {
      "id": 112646,
      "name": "Sources chaudes de Boyes",
      "name_default": "Boyes Hot Springs",
      "native": "Boyes Hot Springs",
      "type": "city",
      "level": null,
      "parent_id": null,
      "population": 6656,
      "latitude": "38.31380000",
      "longitude": "-122.48193000",
      "timezone": "America/Los_Angeles",
      "wikiDataId": "Q2547778",
      "country_code": "US",
      "state_code": "CA",
      "state_id": 1416,
      "country_id": 233
    },
    {
      "id": 112649,
      "name": "Boyle Heights",
      "name_default": "Boyle Heights",
      "native": "Boyle Heights",
      "type": "section",
      "level": null,
      "parent_id": null,
      "population": 107406,
      "latitude": "34.03390000",
      "longitude": "-118.20535000",
      "timezone": "America/Los_Angeles",
      "wikiDataId": "Q2923029",
      "country_code": "US",
      "state_code": "CA",
      "state_id": 1416,
      "country_id": 233
    },
    {
      "id": 112658,
      "name": "Bradbury",
      "name_default": "Bradbury",
      "native": "Bradbury",
      "type": "city",
      "level": null,
      "parent_id": null,
      "population": 921,
      "latitude": "34.14695000",
      "longitude": "-117.97090000",
      "timezone": "America/Los_Angeles",
      "wikiDataId": "Q896910",
      "country_code": "US",
      "state_code": "CA",
      "state_id": 1416,
      "country_id": 233
    },
    {
      "id": 112700,
      "name": "Brawley",
      "name_default": "Brawley",
      "native": "Brawley",
      "type": "city",
      "level": null,
      "parent_id": null,
      "population": 26416,
      "latitude": "32.97866000",
      "longitude": "-115.53027000",
      "timezone": "America/Los_Angeles",
      "wikiDataId": "Q902878",
      "country_code": "US",
      "state_code": "CA",
      "state_id": 1416,
      "country_id": 233
    },
    {
      "id": 112707,
      "name": "Bréa",
      "name_default": "Brea",
      "native": "Brea",
      "type": "city",
      "level": null,
      "parent_id": null,
      "population": 47325,
      "latitude": "33.91668000",
      "longitude": "-117.90006000",
      "timezone": "America/Los_Angeles",
      "wikiDataId": "Q302612",
      "country_code": "US",
      "state_code": "CA",
      "state_id": 1416,
      "country_id": 233
    },
    {
      "id": 112733,
      "name": "Brentwood",
      "name_default": "Brentwood",
      "native": "Brentwood",
      "type": "city",
      "level": null,
      "parent_id": null,
      "population": 64292,
      "latitude": "37.93187000",
      "longitude": "-121.69579000",
      "timezone": "America/Los_Angeles",
      "wikiDataId": "Q846426",
      "country_code": "US",
      "state_code": "CA",
      "state_id": 1416,
      "country_id": 233
    },
    {
      "id": 112736,
      "name": "Bret Harte",
      "name_default": "Bret Harte",
      "native": "Bret Harte",
      "type": "section",
      "level": null,
      "parent_id": null,
      "population": 5152,
      "latitude": "37.60207000",
      "longitude": "-121.00519000",
      "timezone": "America/Los_Angeles",
      "wikiDataId": "Q2792234",
      "country_code": "US",
      "state_code": "CA",
      "state_id": 1416,
      "country_id": 233
    },
    {
      "id": 112765,
      "name": "Bridgeport",
      "name_default": "Bridgeport",
      "native": "Bridgeport",
      "type": "adm2",
      "level": null,
      "parent_id": null,
      "population": 575,
      "latitude": "38.25575000",
      "longitude": "-119.23127000",
      "timezone": "America/Los_Angeles",
      "wikiDataId": "Q913753",
      "country_code": "US",
      "state_code": "CA",
      "state_id": 1416,
      "country_id": 233
    },
    {
      "id": 112800,
      "name": "Brisbane",
      "name_default": "Brisbane",
      "native": "Brisbane",
      "type": "city",
      "level": null,
      "parent_id": null,
      "population": 4851,
      "latitude": "37.68077000",
      "longitude": "-122.39997000",
      "timezone": "America/Los_Angeles",
      "wikiDataId": "Q917671",
      "country_code": "US",
      "state_code": "CA",
      "state_id": 1416,
      "country_id": 233
    },
    {
      "id": 112825,
      "name": "Broadmoor",
      "name_default": "Broadmoor",
      "native": "Broadmoor",
      "type": "city",
      "level": null,
      "parent_id": null,
      "population": 4176,
      "latitude": "37.68660000",
      "longitude": "-122.48275000",
      "timezone": "America/Los_Angeles",
      "wikiDataId": "Q2944590",
      "country_code": "US",
      "state_code": "CA",
      "state_id": 1416,
      "country_id": 233
    },
    {
      "id": 112851,
      "name": "Brookdale",
      "name_default": "Brookdale",
      "native": "Brookdale",
      "type": "city",
      "level": null,
      "parent_id": null,
      "population": 1991,
      "latitude": "37.10634000",
      "longitude": "-122.10608000",
      "timezone": "America/Los_Angeles",
      "wikiDataId": "Q2892145",
      "country_code": "US",
      "state_code": "CA",
      "state_id": 1416,
      "country_id": 233
    },
    {
      "id": 112893,
      "name": "Brooktrails",
      "name_default": "Brooktrails",
      "native": "Brooktrails",
      "type": "city",
      "level": null,
      "parent_id": null,
      "population": 3235,
      "latitude": "39.44377000",
      "longitude": "-123.38529000",
      "timezone": "America/Los_Angeles",
      "wikiDataId": "Q4975151",
      "country_code": "US",
      "state_code": "CA",
      "state_id": 1416,
      "country_id": 233
    },
    {
      "id": 112983,
      "name": "Buckhorn",
      "name_default": "Buckhorn",
      "native": "Buckhorn",
      "type": "city",
      "level": null,
      "parent_id": null,
      "population": 2429,
      "latitude": "38.45216000",
      "longitude": "-120.52854000",
      "timezone": "America/Los_Angeles",
      "wikiDataId": "Q4983148",
      "country_code": "US",
      "state_code": "CA",
      "state_id": 1416,
      "country_id": 233
    },
    {
      "id": 112997,
      "name": "Buellton",
      "name_default": "Buellton",
      "native": "Buellton",
      "type": "city",
      "level": null,
      "parent_id": null,
      "population": 5161,
      "latitude": "34.61360000",
      "longitude": "-120.19265000",
      "timezone": "America/Los_Angeles",
      "wikiDataId": "Q999905",
      "country_code": "US",
      "state_code": "CA",
      "state_id": 1416,
      "country_id": 233
    },
    {
      "id": 112999,
      "name": "Buena Park",
      "name_default": "Buena Park",
      "native": "Good Park",
      "type": "city",
      "level": null,
      "parent_id": null,
      "population": 84034,
      "latitude": "33.86751000",
      "longitude": "-117.99812000",
      "timezone": "America/Los_Angeles",
      "wikiDataId": "Q838762",
      "country_code": "US",
      "state_code": "CA",
      "state_id": 1416,
      "country_id": 233
    },
    {
      "id": 113003,
      "name": "Buena Vista",
      "name_default": "Buena Vista",
      "native": "Good view",
      "type": "section",
      "level": null,
      "parent_id": null,
      "population": 1704,
      "latitude": "37.32133000",
      "longitude": "-121.91662000",
      "timezone": "America/Los_Angeles",
      "wikiDataId": "Q3094060",
      "country_code": "US",
      "state_code": "CA",
      "state_id": 1416,
      "country_id": 233
    },
    {
      "id": 113047,
      "name": "Burbank",
      "name_default": "Burbank",
      "native": "Burbank",
      "type": "city",
      "level": null,
      "parent_id": null,
      "population": 105319,
      "latitude": "34.18084000",
      "longitude": "-118.30897000",
      "timezone": "America/Los_Angeles",
      "wikiDataId": "Q39561",
      "country_code": "US",
      "state_code": "CA",
      "state_id": 1416,
      "country_id": 233
    },
    {
      "id": 113065,
      "name": "Burlingame",
      "name_default": "Burlingame",
      "native": "Burlingame",
      "type": "city",
      "level": null,
      "parent_id": null,
      "population": 30459,
      "latitude": "37.58410000",
      "longitude": "-122.36608000",
      "timezone": "America/Los_Angeles",
      "wikiDataId": "Q986867",
      "country_code": "US",
      "state_code": "CA",
      "state_id": 1416,
      "country_id": 233
    },
    {
      "id": 113082,
      "name": "Burney",
      "name_default": "Burney",
      "native": "Burney",
      "type": "city",
      "level": null,
      "parent_id": null,
      "population": 3154,
      "latitude": "40.88238000",
      "longitude": "-121.66082000",
      "timezone": "America/Los_Angeles",
      "wikiDataId": "Q2587867",
      "country_code": "US",
      "state_code": "CA",
      "state_id": 1416,
      "country_id": 233
    },
    {
      "id": 113125,
      "name": "Comté de Butte",
      "name_default": "Butte",
      "native": "Butte County",
      "type": "county",
      "level": null,
      "parent_id": null,
      "population": 10243,
      "latitude": "39.66693000",
      "longitude": "-121.60067000",
      "timezone": "America/Los_Angeles",
      "wikiDataId": "Q156181",
      "country_code": "US",
      "state_code": "CA",
      "state_id": 1416,
      "country_id": 233
    },
    {
      "id": 113129,
      "name": "Saule boutonneux",
      "name_default": "Buttonwillow",
      "native": "Buttonwillow",
      "type": "city",
      "level": null,
      "parent_id": null,
      "population": 1508,
      "latitude": "35.40052000",
      "longitude": "-119.46956000",
      "timezone": "America/Los_Angeles",
      "wikiDataId": "Q2347141",
      "country_code": "US",
      "state_code": "CA",
      "state_id": 1416,
      "country_id": 233
    },
    {
      "id": 113146,
      "name": "Byron",
      "name_default": "Byron",
      "native": "Byron",
      "type": "city",
      "level": null,
      "parent_id": null,
      "population": 1277,
      "latitude": "37.86715000",
      "longitude": "-121.63801000",
      "timezone": "America/Los_Angeles",
      "wikiDataId": "Q1018596",
      "country_code": "US",
      "state_code": "CA",
      "state_id": 1416,
      "country_id": 233
    },
    {
      "id": 113148,
      "name": "Byström",
      "name_default": "Bystrom",
      "native": "Bystrom",
      "type": "city",
      "level": null,
      "parent_id": null,
      "population": 4008,
      "latitude": "37.62076000",
      "longitude": "-120.98577000",
      "timezone": "America/Los_Angeles",
      "wikiDataId": "Q3303215",
      "country_code": "US",
      "state_code": "CA",
      "state_id": 1416,
      "country_id": 233
    },
    {
      "id": 113150,
      "name": "Cabazon",
      "name_default": "Cabazon",
      "native": "Cabazon",
      "type": "city",
      "level": null,
      "parent_id": null,
      "population": 2535,
      "latitude": "33.91752000",
      "longitude": "-116.78724000",
      "timezone": "America/Los_Angeles",
      "wikiDataId": "Q2805009",
      "country_code": "US",
      "state_code": "CA",
      "state_id": 1416,
      "country_id": 233
    },
    {
      "id": 113173,
      "name": "Calabasas",
      "name_default": "Calabasas",
      "native": "Calabasas",
      "type": "section",
      "level": null,
      "parent_id": null,
      "population": 23241,
      "latitude": "34.15778000",
      "longitude": "-118.63842000",
      "timezone": "America/Los_Angeles",
      "wikiDataId": "Q629088",
      "country_code": "US",
      "state_code": "CA",
      "state_id": 1416,
      "country_id": 233
    },
    {
      "id": 113176,
      "name": "Comté de Calaveras",
      "name_default": "Calaveras",
      "native": "Calaveras County",
      "type": "county",
      "level": null,
      "parent_id": null,
      "population": 45292,
      "latitude": "38.20461000",
      "longitude": "-120.55413000",
      "timezone": "America/Los_Angeles",
      "wikiDataId": "Q271613",
      "country_code": "US",
      "state_code": "CA",
      "state_id": 1416,
      "country_id": 233
    },
    {
      "id": 113196,
      "name": "Calexico",
      "name_default": "Calexico",
      "native": "Calexico",
      "type": "city",
      "level": null,
      "parent_id": null,
      "population": 38633,
      "latitude": "32.67895000",
      "longitude": "-115.49888000",
      "timezone": "America/Los_Angeles",
      "wikiDataId": "Q753034",
      "country_code": "US",
      "state_code": "CA",
      "state_id": 1416,
      "country_id": 233
    },
    {
      "id": 113218,
      "name": "Californie City",
      "name_default": "California City",
      "native": "California City",
      "type": "city",
      "level": null,
      "parent_id": null,
      "population": 14973,
      "latitude": "35.12580000",
      "longitude": "-117.98590000",
      "timezone": "America/Los_Angeles",
      "wikiDataId": "Q732125",
      "country_code": "US",
      "state_code": "CA",
      "state_id": 1416,
      "country_id": 233
    },
    {
      "id": 113219,
      "name": "Calimesa",
      "name_default": "Calimesa",
      "native": "Calimesa",
      "type": "city",
      "level": null,
      "parent_id": null,
      "population": 10026,
      "latitude": "34.00390000",
      "longitude": "-117.06198000",
      "timezone": "America/Los_Angeles",
      "wikiDataId": "Q2346469",
      "country_code": "US",
      "state_code": "CA",
      "state_id": 1416,
      "country_id": 233
    },
    {
      "id": 113220,
      "name": "Calipatria",
      "name_default": "Calipatria",
      "native": "Calipatria",
      "type": "city",
      "level": null,
      "parent_id": null,
      "population": 6515,
      "latitude": "33.12560000",
      "longitude": "-115.51415000",
      "timezone": "America/Los_Angeles",
      "wikiDataId": "Q931778",
      "country_code": "US",
      "state_code": "CA",
      "state_id": 1416,
      "country_id": 233
    },
    {
      "id": 113221,
      "name": "Calistoga",
      "name_default": "Calistoga",
      "native": "Calistoga",
      "type": "city",
      "level": null,
      "parent_id": null,
      "population": 5228,
      "latitude": "38.57880000",
      "longitude": "-122.57971000",
      "timezone": "America/Los_Angeles",
      "wikiDataId": "Q983598",
      "country_code": "US",
      "state_code": "CA",
      "state_id": 1416,
      "country_id": 233
    },
    {
      "id": 113226,
      "name": "Callender",
      "name_default": "Callender",
      "native": "Callender",
      "type": "city",
      "level": null,
      "parent_id": null,
      "population": 1262,
      "latitude": "35.05303000",
      "longitude": "-120.59628000",
      "timezone": "America/Los_Angeles",
      "wikiDataId": "Q5021900",
      "country_code": "US",
      "state_code": "CA",
      "state_id": 1416,
      "country_id": 233
    },
    {
      "id": 113242,
      "name": "Camarillo",
      "name_default": "Camarillo",
      "native": "Camarillo",
      "type": "city",
      "level": null,
      "parent_id": null,
      "population": 70741,
      "latitude": "34.21639000",
      "longitude": "-119.03760000",
      "timezone": "America/Los_Angeles",
      "wikiDataId": "Q846040",
      "country_code": "US",
      "state_code": "CA",
      "state_id": 1416,
      "country_id": 233
    },
    {
      "id": 113246,
      "name": "Cambria",
      "name_default": "Cambria",
      "native": "Cambria",
      "type": "city",
      "level": null,
      "parent_id": null,
      "population": 6032,
      "latitude": "35.56414000",
      "longitude": "-121.08075000",
      "timezone": "America/Los_Angeles",
      "wikiDataId": "Q1028196",
      "country_code": "US",
      "state_code": "CA",
      "state_id": 1416,
      "country_id": 233
    },
    {
      "id": 113249,
      "name": "Parc Cambrien",
      "name_default": "Cambrian Park",
      "native": "Cambrian Park",
      "type": "section",
      "level": null,
      "parent_id": null,
      "population": 3282,
      "latitude": "37.25689000",
      "longitude": "-121.93079000",
      "timezone": "America/Los_Angeles",
      "wikiDataId": "Q1911837",
      "country_code": "US",
      "state_code": "CA",
      "state_id": 1416,
      "country_id": 233
    },
    {
      "id": 113281,
      "name": "Parc Cameron",
      "name_default": "Cameron Park",
      "native": "Cameron Park",
      "type": "city",
      "level": null,
      "parent_id": null,
      "population": 18228,
      "latitude": "38.66879000",
      "longitude": "-120.98716000",
      "timezone": "America/Los_Angeles",
      "wikiDataId": "Q1028791",
      "country_code": "US",
      "state_code": "CA",
      "state_id": 1416,
      "country_id": 233
    },
    {
      "id": 113285,
      "name": "Chemin",
      "name_default": "Camino",
      "native": "Camino",
      "type": "city",
      "level": null,
      "parent_id": null,
      "population": 1750,
      "latitude": "38.73824000",
      "longitude": "-120.67493000",
      "timezone": "America/Los_Angeles",
      "wikiDataId": "Q3458211",
      "country_code": "US",
      "state_code": "CA",
      "state_id": 1416,
      "country_id": 233
    },
    {
      "id": 113289,
      "name": "Camp Meeker",
      "name_default": "Camp Meeker",
      "native": "Camp Meeker",
      "type": "city",
      "level": null,
      "parent_id": null,
      "population": 2461,
      "latitude": "38.42519000",
      "longitude": "-122.95944000",
      "timezone": "America/Los_Angeles",
      "wikiDataId": "Q5027407",
      "country_code": "US",
      "state_code": "CA",
      "state_id": 1416,
      "country_id": 233
    },
    {
      "id": 113290,
      "name": "Camp Pendleton Nord",
      "name_default": "Camp Pendleton North",
      "native": "Camp Pendleton North",
      "type": "city",
      "level": null,
      "parent_id": null,
      "population": 5200,
      "latitude": "33.31465000",
      "longitude": "-117.31603000",
      "timezone": "America/Los_Angeles",
      "wikiDataId": "Q1029922",
      "country_code": "US",
      "state_code": "CA",
      "state_id": 1416,
      "country_id": 233
    },
    {
      "id": 113291,
      "name": "Camp Pendleton Sud",
      "name_default": "Camp Pendleton South",
      "native": "Camp Pendleton South",
      "type": "city",
      "level": null,
      "parent_id": null,
      "population": 10616,
      "latitude": "33.22844000",
      "longitude": "-117.37929000",
      "timezone": "America/Los_Angeles",
      "wikiDataId": "Q1029918",
      "country_code": "US",
      "state_code": "CA",
      "state_id": 1416,
      "country_id": 233
    },
    {
      "id": 113298,
      "name": "Campbell",
      "name_default": "Campbell",
      "native": "Campbell",
      "type": "city",
      "level": null,
      "parent_id": null,
      "population": 41117,
      "latitude": "37.28717000",
      "longitude": "-121.94996000",
      "timezone": "America/Los_Angeles",
      "wikiDataId": "Q988721",
      "country_code": "US",
      "state_code": "CA",
      "state_id": 1416,
      "country_id": 233
    },
    {
      "id": 113308,
      "name": "Champ",
      "name_default": "Campo",
      "native": "Campo",
      "type": "city",
      "level": null,
      "parent_id": null,
      "population": 2684,
      "latitude": "32.60645000",
      "longitude": "-116.46891000",
      "timezone": "America/Los_Angeles",
      "wikiDataId": "Q249224",
      "country_code": "US",
      "state_code": "CA",
      "state_id": 1416,
      "country_id": 233
    },
    {
      "id": 113335,
      "name": "Parc Canoga",
      "name_default": "Canoga Park",
      "native": "Canoga Park",
      "type": "section",
      "level": null,
      "parent_id": null,
      "population": 60578,
      "latitude": "34.20112000",
      "longitude": "-118.59814000",
      "timezone": "America/Los_Angeles",
      "wikiDataId": "Q2457268",
      "country_code": "US",
      "state_code": "CA",
      "state_id": 1416,
      "country_id": 233
    },
    {
      "id": 113359,
      "name": "Lac Canyon",
      "name_default": "Canyon Lake",
      "native": "Canyon Lake",
      "type": "city",
      "level": null,
      "parent_id": null,
      "population": 11082,
      "latitude": "33.68502000",
      "longitude": "-117.27309000",
      "timezone": "America/Los_Angeles",
      "wikiDataId": "Q656378",
      "country_code": "US",
      "state_code": "CA",
      "state_id": 1416,
      "country_id": 233
    },
    {
      "id": 113376,
      "name": "Capitole",
      "name_default": "Capitola",
      "native": "Capitulation",
      "type": "city",
      "level": null,
      "parent_id": null,
      "population": 9938,
      "latitude": "36.97523000",
      "longitude": "-121.95329000",
      "timezone": "America/Los_Angeles",
      "wikiDataId": "Q986894",
      "country_code": "US",
      "state_code": "CA",
      "state_id": 1416,
      "country_id": 233
    },
    {
      "id": 113408,
      "name": "Carlsbad",
      "name_default": "Carlsbad",
      "native": "Carlsbad",
      "type": "city",
      "level": null,
      "parent_id": null,
      "population": 114746,
      "latitude": "33.15809000",
      "longitude": "-117.35059000",
      "timezone": "America/Los_Angeles",
      "wikiDataId": "Q491099",
      "country_code": "US",
      "state_code": "CA",
      "state_id": 1416,
      "country_id": 233
    },
    {
      "id": 113420,
      "name": "Village de Carmel Valley",
      "name_default": "Carmel Valley Village",
      "native": "Carmel Valley Village",
      "type": "city",
      "level": null,
      "parent_id": null,
      "population": 4407,
      "latitude": "36.50605000",
      "longitude": "-121.76594000",
      "timezone": "America/Los_Angeles",
      "wikiDataId": "Q2150893",
      "country_code": "US",
      "state_code": "CA",
      "state_id": 1416,
      "country_id": 233
    },
    {
      "id": 113421,
      "name": "Carmel-by-the-Sea",
      "name_default": "Carmel-by-the-Sea",
      "native": "Carmel-by-the-Sea",
      "type": "city",
      "level": null,
      "parent_id": null,
      "population": 3220,
      "latitude": "36.55524000",
      "longitude": "-121.92329000",
      "timezone": "America/Los_Angeles",
      "wikiDataId": "Q625458",
      "country_code": "US",
      "state_code": "CA",
      "state_id": 1416,
      "country_id": 233
    },
    {
      "id": 113423,
      "name": "Carmichael",
      "name_default": "Carmichael",
      "native": "Carmichael",
      "type": "city",
      "level": null,
      "parent_id": null,
      "population": 61762,
      "latitude": "38.61713000",
      "longitude": "-121.32828000",
      "timezone": "America/Los_Angeles",
      "wikiDataId": "Q1006574",
      "country_code": "US",
      "state_code": "CA",
      "state_id": 1416,
      "country_id": 233
    },
    {
      "id": 113440,
      "name": "Carpinteria",
      "name_default": "Carpinteria",
      "native": "Carpinteria",
      "type": "city",
      "level": null,
      "parent_id": null,
      "population": 13264,
      "latitude": "34.39888000",
      "longitude": "-119.51846000",
      "timezone": "America/Los_Angeles",
      "wikiDataId": "Q588482",
      "country_code": "US",
      "state_code": "CA",
      "state_id": 1416,
      "country_id": 233
    },
    {
      "id": 113474,
      "name": "Carson",
      "name_default": "Carson",
      "native": "Carson",
      "type": "city",
      "level": null,
      "parent_id": null,
      "population": 93281,
      "latitude": "33.83141000",
      "longitude": "-118.28202000",
      "timezone": "America/Los_Angeles",
      "wikiDataId": "Q494690",
      "country_code": "US",
      "state_code": "CA",
      "state_id": 1416,
      "country_id": 233
    },
    {
      "id": 113498,
      "name": "Caruthers",
      "name_default": "Caruthers",
      "native": "Caruthers",
      "type": "city",
      "level": null,
      "parent_id": null,
      "population": 2497,
      "latitude": "36.54273000",
      "longitude": "-119.83320000",
      "timezone": "America/Los_Angeles",
      "wikiDataId": "Q2671627",
      "country_code": "US",
      "state_code": "CA",
      "state_id": 1416,
      "country_id": 233
    },
    {
      "id": 113509,
      "name": "Maison Conejo",
      "name_default": "Casa Conejo",
      "native": "Rabbit house",
      "type": "section",
      "level": null,
      "parent_id": null,
      "population": 3249,
      "latitude": "34.18362000",
      "longitude": "-118.94343000",
      "timezone": "America/Los_Angeles",
      "wikiDataId": "Q2490542",
      "country_code": "US",
      "state_code": "CA",
      "state_id": 1416,
      "country_id": 233
    },
    {
      "id": 113511,
      "name": "Casa de Oro-Mont Helix",
      "name_default": "Casa de Oro-Mount Helix",
      "native": "Gold House-Mount Helix",
      "type": "city",
      "level": null,
      "parent_id": null,
      "population": 18762,
      "latitude": "32.76397000",
      "longitude": "-116.96877000",
      "timezone": "America/Los_Angeles",
      "wikiDataId": "Q1046519",
      "country_code": "US",
      "state_code": "CA",
      "state_id": 1416,
      "country_id": 233
    },
    {
      "id": 113540,
      "name": "Castaïque",
      "name_default": "Castaic",
      "native": "Castaic",
      "type": "city",
      "level": null,
      "parent_id": null,
      "population": 19015,
      "latitude": "34.48888000",
      "longitude": "-118.62287000",
      "timezone": "America/Los_Angeles",
      "wikiDataId": "Q3242084",
      "country_code": "US",
      "state_code": "CA",
      "state_id": 1416,
      "country_id": 233
    },
    {
      "id": 113557,
      "name": "Vallée de Castro",
      "name_default": "Castro Valley",
      "native": "Castro Valley",
      "type": "city",
      "level": null,
      "parent_id": null,
      "population": 61388,
      "latitude": "37.69410000",
      "longitude": "-122.08635000",
      "timezone": "America/Los_Angeles",
      "wikiDataId": "Q1020700",
      "country_code": "US",
      "state_code": "CA",
      "state_id": 1416,
      "country_id": 233
    },
    {
      "id": 113559,
      "name": "Castroville",
      "name_default": "Castroville",
      "native": "Castroville",
      "type": "city",
      "level": null,
      "parent_id": null,
      "population": 6481,
      "latitude": "36.76579000",
      "longitude": "-121.75800000",
      "timezone": "America/Los_Angeles",
      "wikiDataId": "Q372402",
      "country_code": "US",
      "state_code": "CA",
      "state_id": 1416,
      "country_id": 233
    },
    {
      "id": 113570,
      "name": "Cité cathédrale",
      "name_default": "Cathedral City",
      "native": "Cathedral City",
      "type": "city",
      "level": null,
      "parent_id": null,
      "population": 51493,
      "latitude": "33.77974000",
      "longitude": "-116.46529000",
      "timezone": "America/Los_Angeles",
      "wikiDataId": "Q578518",
      "country_code": "US",
      "state_code": "CA",
      "state_id": 1416,
      "country_id": 233
    },
    {
      "id": 113592,
      "name": "Cayucos",
      "name_default": "Cayucos",
      "native": "Cayucos",
      "type": "city",
      "level": null,
      "parent_id": null,
      "population": 2592,
      "latitude": "35.44275000",
      "longitude": "-120.89213000",
      "timezone": "America/Los_Angeles",
      "wikiDataId": "Q1052054",
      "country_code": "US",
      "state_code": "CA",
      "state_id": 1416,
      "country_id": 233
    },
    {
      "id": 113622,
      "name": "Cedar Ridge",
      "name_default": "Cedar Ridge",
      "native": "Cedar Ridge",
      "type": "city",
      "level": null,
      "parent_id": null,
      "population": 1132,
      "latitude": "38.06576000",
      "longitude": "-120.27686000",
      "timezone": "America/Los_Angeles",
      "wikiDataId": "Q486439",
      "country_code": "US",
      "state_code": "CA",
      "state_id": 1416,
      "country_id": 233
    },
    {
      "id": 113683,
      "name": "Vallée centrale (historique)",
      "name_default": "Central Valley (historical)",
      "native": "Central Valley (historical)",
      "type": "abandoned",
      "level": null,
      "parent_id": null,
      "population": 4340,
      "latitude": "40.68043000",
      "longitude": "-122.37112000",
      "timezone": "America/Los_Angeles",
      "wikiDataId": "Q3826294",
      "country_code": "US",
      "state_code": "CA",
      "state_id": 1416,
      "country_id": 233
    },
    {
      "id": 113698,
      "name": "Century City",
      "name_default": "Century City",
      "native": "Century City",
      "type": "section",
      "level": null,
      "parent_id": null,
      "population": 5513,
      "latitude": "34.05557000",
      "longitude": "-118.41786000",
      "timezone": "America/Los_Angeles",
      "wikiDataId": "Q1054483",
      "country_code": "US",
      "state_code": "CA",
      "state_id": 1416,
      "country_id": 233
    },
    {
      "id": 113700,
      "name": "Cérès",
      "name_default": "Ceres",
      "native": "Ceres",
      "type": "city",
      "level": null,
      "parent_id": null,
      "population": 49302,
      "latitude": "37.59493000",
      "longitude": "-120.95771000",
      "timezone": "America/Los_Angeles",
      "wikiDataId": "Q594171",
      "country_code": "US",
      "state_code": "CA",
      "state_id": 1416,
      "country_id": 233
    },
    {
      "id": 113701,
      "name": "Cerritos",
      "name_default": "Cerritos",
      "native": "Cerritos",
      "type": "city",
      "level": null,
      "parent_id": null,
      "population": 49578,
      "latitude": "33.85835000",
      "longitude": "-118.06479000",
      "timezone": "America/Los_Angeles",
      "wikiDataId": "Q575316",
      "country_code": "US",
      "state_code": "CA",
      "state_id": 1416,
      "country_id": 233
    },
    {
      "id": 113714,
      "name": "Défi-Brownsville",
      "name_default": "Challenge-Brownsville",
      "native": "Challenge-Brownsville",
      "type": "city",
      "level": null,
      "parent_id": null,
      "population": 1148,
      "latitude": "39.46447000",
      "longitude": "-121.26338000",
      "timezone": "America/Los_Angeles",
      "wikiDataId": "Q3301605",
      "country_code": "US",
      "state_code": "CA",
      "state_id": 1416,
      "country_id": 233
    },
    {
      "id": 113734,
      "name": "Plage des îles Anglo-Normandes",
      "name_default": "Channel Islands Beach",
      "native": "Channel Islands Beach",
      "type": "city",
      "level": null,
      "parent_id": null,
      "population": 3103,
      "latitude": "34.15806000",
      "longitude": "-119.22316000",
      "timezone": "America/Los_Angeles",
      "wikiDataId": "Q550185",
      "country_code": "US",
      "state_code": "CA",
      "state_id": 1416,
      "country_id": 233
    },
    {
      "id": 113790,
      "name": "Chêne de la Charte",
      "name_default": "Charter Oak",
      "native": "Charter Oak",
      "type": "city",
      "level": null,
      "parent_id": null,
      "population": 9310,
      "latitude": "34.10306000",
      "longitude": "-117.84589000",
      "timezone": "America/Los_Angeles",
      "wikiDataId": "Q1067838",
      "country_code": "US",
      "state_code": "CA",
      "state_id": 1416,
      "country_id": 233
    },
    {
      "id": 113807,
      "name": "Chatsworth",
      "name_default": "Chatsworth",
      "native": "Chatsworth",
      "type": "section",
      "level": null,
      "parent_id": null,
      "population": 37102,
      "latitude": "34.25723000",
      "longitude": "-118.60120000",
      "timezone": "America/Los_Angeles",
      "wikiDataId": "Q1020942",
      "country_code": "US",
      "state_code": "CA",
      "state_id": 1416,
      "country_id": 233
    },
    {
      "id": 113865,
      "name": "Vallée des cerises",
      "name_default": "Cherry Valley",
      "native": "Cherry Valley",
      "type": "city",
      "level": null,
      "parent_id": null,
      "population": 6362,
      "latitude": "33.97252000",
      "longitude": "-116.97725000",
      "timezone": "America/Los_Angeles",
      "wikiDataId": "Q3296026",
      "country_code": "US",
      "state_code": "CA",
      "state_id": 1416,
      "country_id": 233
    },
    {
      "id": 113867,
      "name": "Pays des cerises",
      "name_default": "Cherryland",
      "native": "Cherryland",
      "type": "city",
      "level": null,
      "parent_id": null,
      "population": 14728,
      "latitude": "37.67938000",
      "longitude": "-122.10330000",
      "timezone": "America/Los_Angeles",
      "wikiDataId": "Q473016",
      "country_code": "US",
      "state_code": "CA",
      "state_id": 1416,
      "country_id": 233
    },
    {
      "id": 113892,
      "name": "Chester",
      "name_default": "Chester",
      "native": "Chester",
      "type": "city",
      "level": null,
      "parent_id": null,
      "population": 2144,
      "latitude": "40.30627000",
      "longitude": "-121.23191000",
      "timezone": "America/Los_Angeles",
      "wikiDataId": "Q301176",
      "country_code": "US",
      "state_code": "CA",
      "state_id": 1416,
      "country_id": 233
    },
    {
      "id": 113943,
      "name": "Chico",
      "name_default": "Chico",
      "native": "Chico",
      "type": "city",
      "level": null,
      "parent_id": null,
      "population": 101475,
      "latitude": "39.72849000",
      "longitude": "-121.83748000",
      "timezone": "America/Los_Angeles",
      "wikiDataId": "Q432152",
      "country_code": "US",
      "state_code": "CA",
      "state_id": 1416,
      "country_id": 233
    },
    {
      "id": 113963,
      "name": "Acres du lac de Chine",
      "name_default": "China Lake Acres",
      "native": "China Lake Acres",
      "type": "city",
      "level": null,
      "parent_id": null,
      "population": 1876,
      "latitude": "35.64051000",
      "longitude": "-117.76395000",
      "timezone": "America/Los_Angeles",
      "wikiDataId": "Q2720635",
      "country_code": "US",
      "state_code": "CA",
      "state_id": 1416,
      "country_id": 233
    },
    {
      "id": 113964,
      "name": "quartier chinois",
      "name_default": "Chinatown",
      "native": "Chinatown",
      "type": "section",
      "level": null,
      "parent_id": null,
      "population": 90000,
      "latitude": "37.79660000",
      "longitude": "-122.40858000",
      "timezone": "America/Los_Angeles",
      "wikiDataId": "Q2720635",
      "country_code": "US",
      "state_code": "CA",
      "state_id": 1416,
      "country_id": 233
    },
    {
      "id": 113968,
      "name": "Chinois",
      "name_default": "Chino",
      "native": "Chino",
      "type": "city",
      "level": null,
      "parent_id": null,
      "population": 91403,
      "latitude": "34.01223000",
      "longitude": "-117.68894000",
      "timezone": "America/Los_Angeles",
      "wikiDataId": "Q506395",
      "country_code": "US",
      "state_code": "CA",
      "state_id": 1416,
      "country_id": 233
    },
    {
      "id": 113969,
      "name": "Collines de Chino",
      "name_default": "Chino Hills",
      "native": "Chino Hills",
      "type": "city",
      "level": null,
      "parent_id": null,
      "population": 78411,
      "latitude": "33.99380000",
      "longitude": "-117.75888000",
      "timezone": "America/Los_Angeles",
      "wikiDataId": "Q852721",
      "country_code": "US",
      "state_code": "CA",
      "state_id": 1416,
      "country_id": 233
    },
    {
      "id": 113993,
      "name": "Chowchilla",
      "name_default": "Chowchilla",
      "native": "Hawk",
      "type": "city",
      "level": null,
      "parent_id": null,
      "population": 19039,
      "latitude": "37.12300000",
      "longitude": "-120.26018000",
      "timezone": "America/Los_Angeles",
      "wikiDataId": "Q985260",
      "country_code": "US",
      "state_code": "CA",
      "state_id": 1416,
      "country_id": 233
    },
    {
      "id": 114003,
      "name": "Chualar",
      "name_default": "Chualar",
      "native": "Sea Sea",
      "type": "city",
      "level": null,
      "parent_id": null,
      "population": 1190,
      "latitude": "36.57052000",
      "longitude": "-121.51855000",
      "timezone": "America/Los_Angeles",
      "wikiDataId": "Q2797405",
      "country_code": "US",
      "state_code": "CA",
      "state_id": 1416,
      "country_id": 233
    },
    {
      "id": 114005,
      "name": "Chula Vista",
      "name_default": "Chula Vista",
      "native": "Chula Vista",
      "type": "city",
      "level": null,
      "parent_id": null,
      "population": 275487,
      "latitude": "32.64005000",
      "longitude": "-117.08420000",
      "timezone": "America/Los_Angeles",
      "wikiDataId": "Q49270",
      "country_code": "US",
      "state_code": "CA",
      "state_id": 1416,
      "country_id": 233
    },
    {
      "id": 114034,
      "name": "Agrumes",
      "name_default": "Citrus",
      "native": "Citrus",
      "type": "city",
      "level": null,
      "parent_id": null,
      "population": 10866,
      "latitude": "34.11501000",
      "longitude": "-117.89173000",
      "timezone": "America/Los_Angeles",
      "wikiDataId": "Q2738888",
      "country_code": "US",
      "state_code": "CA",
      "state_id": 1416,
      "country_id": 233
    },
    {
      "id": 114037,
      "name": "Hauteurs d'agrumes",
      "name_default": "Citrus Heights",
      "native": "Citrus Heights",
      "type": "city",
      "level": null,
      "parent_id": null,
      "population": 87583,
      "latitude": "38.70712000",
      "longitude": "-121.28106000",
      "timezone": "America/Los_Angeles",
      "wikiDataId": "Q658402",
      "country_code": "US",
      "state_code": "CA",
      "state_id": 1416,
      "country_id": 233
    },
    {
      "id": 114046,
      "name": "Ville et comté de San Francisco",
      "name_default": "City and County of San Francisco",
      "native": "City and County of San Francisco",
      "type": "adm2",
      "level": null,
      "parent_id": null,
      "population": null,
      "latitude": "37.77823000",
      "longitude": "-122.44250000",
      "timezone": "America/Los_Angeles",
      "wikiDataId": "Q13188841",
      "country_code": "US",
      "state_code": "CA",
      "state_id": 1416,
      "country_id": 233
    },
    {
      "id": 153627,
      "name": "Cité de l'Industrie",
      "name_default": "City of Industry",
      "native": "City of Industry",
      "type": "city",
      "level": null,
      "parent_id": null,
      "population": 5454,
      "latitude": "34.01583333",
      "longitude": "-117.95083333",
      "timezone": "America/Los_Angeles",
      "wikiDataId": "Q927094",
      "country_code": "US",
      "state_code": "CA",
      "state_id": 1416,
      "country_id": 233
    },
    {
      "id": 114106,
      "name": "Claremont",
      "name_default": "Claremont",
      "native": "Claremont",
      "type": "city",
      "level": null,
      "parent_id": null,
      "population": 37266,
      "latitude": "34.09668000",
      "longitude": "-117.71978000",
      "timezone": "America/Los_Angeles",
      "wikiDataId": "Q506398",
      "country_code": "US",
      "state_code": "CA",
      "state_id": 1416,
      "country_id": 233
    },
    {
      "id": 114169,
      "name": "Argile",
      "name_default": "Clay",
      "native": "Clay",
      "type": "city",
      "level": null,
      "parent_id": null,
      "population": 1195,
      "latitude": "38.33602000",
      "longitude": "-121.15939000",
      "timezone": "America/Los_Angeles",
      "wikiDataId": "Q5129810",
      "country_code": "US",
      "state_code": "CA",
      "state_id": 1416,
      "country_id": 233
    },
    {
      "id": 114203,
      "name": "Clayton",
      "name_default": "Clayton",
      "native": "Clayton",
      "type": "city",
      "level": null,
      "parent_id": null,
      "population": 11867,
      "latitude": "37.94103000",
      "longitude": "-121.93579000",
      "timezone": "America/Los_Angeles",
      "wikiDataId": "Q948168",
      "country_code": "US",
      "state_code": "CA",
      "state_id": 1416,
      "country_id": 233
    },
    {
      "id": 114213,
      "name": "Riviera du lac Clear",
      "name_default": "Clear Lake Riviera",
      "native": "Clear Lake Riviera",
      "type": "city",
      "level": null,
      "parent_id": null,
      "population": 3090,
      "latitude": "38.95406000",
      "longitude": "-122.72082000",
      "timezone": "America/Los_Angeles",
      "wikiDataId": "Q1515610",
      "country_code": "US",
      "state_code": "CA",
      "state_id": 1416,
      "country_id": 233
    },
    {
      "id": 114219,
      "name": "Clearlake",
      "name_default": "Clearlake",
      "native": "Clearlake",
      "type": "city",
      "level": null,
      "parent_id": null,
      "population": 16685,
      "latitude": "38.95823000",
      "longitude": "-122.62637000",
      "timezone": "America/Los_Angeles",
      "wikiDataId": "Q376246",
      "country_code": "US",
      "state_code": "CA",
      "state_id": 1416,
      "country_id": 233
    },
    {
      "id": 114220,
      "name": "Chênes de Clearlake",
      "name_default": "Clearlake Oaks",
      "native": "Clearlake Oaks",
      "type": "city",
      "level": null,
      "parent_id": null,
      "population": 2359,
      "latitude": "39.02628000",
      "longitude": "-122.67193000",
      "timezone": "America/Los_Angeles",
      "wikiDataId": "Q2507947",
      "country_code": "US",
      "state_code": "CA",
      "state_id": 1416,
      "country_id": 233
    },