{
  "locale": "nl",
  "country": {
    "id": 232,
    "code": "GB",
    "iso3": "GBR",
    "numeric_code": "826",
    "name": "Verenigd Koninkrijk",
    "name_default": "United Kingdom",
    "native": "United Kingdom",
    "capital": "London",
    "phonecode": "44",
    "currency": "GBP",
    "currency_name": "British pound",
    "currency_symbol": "£",
    "tld": ".uk",
    "population": 68265209,
    "gdp": 3839180,
    "region": "Europe",
    "region_id": 4,
    "subregion": "Northern Europe",
    "subregion_id": 18,
    "nationality": "British, UK",
    "timezones": [
      {
        "zoneName": "Europe/London",
        "gmtOffset": 0,
        "gmtOffsetName": "UTC±00",
        "abbreviation": "GMT",
        "tzName": "Greenwich Mean Time"
      }
    ],
    "latitude": "54.00000000",
    "longitude": "-2.00000000",
    "emoji": "🇬🇧",
    "emojiU": "U+1F1EC U+1F1E7"
  },
  "state": {
    "id": 2457,
    "code": "DUD",
    "iso2": "DUD",
    "iso3166_2": "GB-DUD",
    "fips_code": "D7",
    "name": "Dudley",
    "name_default": "Dudley",
    "native": "Dudley",
    "type": "metropolitan district",
    "level": "2",
    "parent_id": "2336",
    "population": null,
    "latitude": "55.05412430",
    "longitude": "-1.59498640",
    "timezone": "Europe/London",
    "wikiDataId": "Q1617704",
    "country_code": "GB"
  },
  "cities": [
    {
      "id": 48293,
      "name": "Ashington",
      "name_default": "Ashington",
      "native": "Ashington",
      "type": "adm3",
      "level": null,
      "parent_id": null,
      "population": 27670,
      "latitude": "55.17719000",
      "longitude": "-1.56412000",
      "timezone": "Europe/London",
      "wikiDataId": "Q202348",
      "country_code": "GB",
      "state_code": "DUD",
      "state_id": 2457,
      "country_id": 232
    },
    {
      "id": 48450,
      "name": "Bedlington",
      "name_default": "Bedlington",
      "native": "Bedlington",
      "type": "city",
      "level": null,
      "parent_id": null,
      "population": 16974,
      "latitude": "55.13061000",
      "longitude": "-1.59319000",
      "timezone": "Europe/London",
      "wikiDataId": "Q2249694",
      "country_code": "GB",
      "state_code": "DUD",
      "state_id": 2457,
      "country_id": 232
    },
    {
      "id": 48577,
      "name": "Blyth",
      "name_default": "Blyth",
      "native": "Blyth",
      "type": "adm3",
      "level": null,
      "parent_id": null,
      "population": 37339,
      "latitude": "55.12708000",
      "longitude": "-1.50856000",
      "timezone": "Europe/London",
      "wikiDataId": "Q886899",
      "country_code": "GB",
      "state_code": "DUD",
      "state_id": 2457,
      "country_id": 232
    },
    {
      "id": 48982,
      "name": "Choppington",
      "name_default": "Choppington",
      "native": "Choppington",
      "type": "city",
      "level": null,
      "parent_id": null,
      "population": 3001,
      "latitude": "55.15004000",
      "longitude": "-1.60332000",
      "timezone": "Europe/London",
      "wikiDataId": "Q5104873",
      "country_code": "GB",
      "state_code": "DUD",
      "state_id": 2457,
      "country_id": 232
    },
    {
      "id": 49141,
      "name": "Cramlington",
      "name_default": "Cramlington",
      "native": "Cramlington",
      "type": "adm3",
      "level": null,
      "parent_id": null,
      "population": 30077,
      "latitude": "55.08652000",
      "longitude": "-1.58598000",
      "timezone": "Europe/London",
      "wikiDataId": "Q918787",
      "country_code": "GB",
      "state_code": "DUD",
      "state_id": 2457,
      "country_id": 232
    },
    {
      "id": 49237,
      "name": "Darras Hall",
      "name_default": "Darras Hall",
      "native": "Darras Hall",
      "type": "section",
      "level": null,
      "parent_id": null,
      "population": 15000,
      "latitude": "55.03560000",
      "longitude": "-1.76425000",
      "timezone": "Europe/London",
      "wikiDataId": "Q1171024",
      "country_code": "GB",
      "state_code": "DUD",
      "state_id": 2457,
      "country_id": 232
    },
    {
      "id": 49390,
      "name": "Oost-Chevington",
      "name_default": "East Chevington",
      "native": "East Chevington",
      "type": "adm3",
      "level": null,
      "parent_id": null,
      "population": 1751,
      "latitude": "55.28333000",
      "longitude": "-1.58333000",
      "timezone": "Europe/London",
      "wikiDataId": "Q5327978",
      "country_code": "GB",
      "state_code": "DUD",
      "state_id": 2457,
      "country_id": 232
    },
    {
      "id": 49869,
      "name": "Hazlerigg",
      "name_default": "Hazlerigg",
      "native": "Hazlerigg",
      "type": "city",
      "level": null,
      "parent_id": null,
      "population": 1003,
      "latitude": "55.04135000",
      "longitude": "-1.63912000",
      "timezone": "Europe/London",
      "wikiDataId": "Q2862048",
      "country_code": "GB",
      "state_code": "DUD",
      "state_id": 2457,
      "country_id": 232
    },
    {
      "id": 50453,
      "name": "Lynemouth",
      "name_default": "Lynemouth",
      "native": "Lynemouth",
      "type": "adm3",
      "level": null,
      "parent_id": null,
      "population": 1686,
      "latitude": "55.21306000",
      "longitude": "-1.54250000",
      "timezone": "Europe/London",
      "wikiDataId": "Q1616702",
      "country_code": "GB",
      "state_code": "DUD",
      "state_id": 2457,
      "country_id": 232
    },
    {
      "id": 50632,
      "name": "Morpeth",
      "name_default": "Morpeth",
      "native": "Morpeth",
      "type": "adm3",
      "level": null,
      "parent_id": null,
      "population": 14376,
      "latitude": "55.16882000",
      "longitude": "-1.68893000",
      "timezone": "Europe/London",
      "wikiDataId": "Q736785",
      "country_code": "GB",
      "state_code": "DUD",
      "state_id": 2457,
      "country_id": 232
    },
    {
      "id": 50700,
      "name": "Newbiggin-by-the-Sea",
      "name_default": "Newbiggin-by-the-Sea",
      "native": "Newbiggin-by-the-Sea",
      "type": "city",
      "level": null,
      "parent_id": null,
      "population": 6308,
      "latitude": "55.18532000",
      "longitude": "-1.51469000",
      "timezone": "Europe/London",
      "wikiDataId": "Q2097392",
      "country_code": "GB",
      "state_code": "DUD",
      "state_id": 2457,
      "country_id": 232
    },
    {
      "id": 50868,
      "name": "Pegswood",
      "name_default": "Pegswood",
      "native": "Pegswood",
      "type": "city",
      "level": null,
      "parent_id": null,
      "population": 3299,
      "latitude": "55.17930000",
      "longitude": "-1.64525000",
      "timezone": "Europe/London",
      "wikiDataId": "Q2339370",
      "country_code": "GB",
      "state_code": "DUD",
      "state_id": 2457,
      "country_id": 232
    },
    {
      "id": 50939,
      "name": "Ponteland",
      "name_default": "Ponteland",
      "native": "Ponteland",
      "type": "city",
      "level": null,
      "parent_id": null,
      "population": 11671,
      "latitude": "55.05024000",
      "longitude": "-1.74532000",
      "timezone": "Europe/London",
      "wikiDataId": "Q2262154",
      "country_code": "GB",
      "state_code": "DUD",
      "state_id": 2457,
      "country_id": 232
    },
    {
      "id": 51226,
      "name": "Seaton Delaval",
      "name_default": "Seaton Delaval",
      "native": "Seaton Delaval",
      "type": "city",
      "level": null,
      "parent_id": null,
      "population": 9350,
      "latitude": "55.07196000",
      "longitude": "-1.52609000",
      "timezone": "Europe/London",
      "wikiDataId": "Q1734413",
      "country_code": "GB",
      "state_code": "DUD",
      "state_id": 2457,
      "country_id": 232
    },
    {
      "id": 51233,
      "name": "Seghill",
      "name_default": "Seghill",
      "native": "Grèill",
      "type": "city",
      "level": null,
      "parent_id": null,
      "population": 2990,
      "latitude": "55.06225000",
      "longitude": "-1.55027000",
      "timezone": "Europe/London",
      "wikiDataId": "Q7446250",
      "country_code": "GB",
      "state_code": "DUD",
      "state_id": 2457,
      "country_id": 232
    },
    {
      "id": 51412,
      "name": "Stakeford",
      "name_default": "Stakeford",
      "native": "Stakeford",
      "type": "city",
      "level": null,
      "parent_id": null,
      "population": 9636,
      "latitude": "55.16110000",
      "longitude": "-1.57529000",
      "timezone": "Europe/London",
      "wikiDataId": "Q2121249",
      "country_code": "GB",
      "state_code": "DUD",
      "state_id": 2457,
      "country_id": 232
    },
    {
      "id": 51428,
      "name": "Stannington",
      "name_default": "Stannington",
      "native": "Stannington",
      "type": "adm3",
      "level": null,
      "parent_id": null,
      "population": 427,
      "latitude": "55.10862000",
      "longitude": "-1.66855000",
      "timezone": "Europe/London",
      "wikiDataId": "Q3916930",
      "country_code": "GB",
      "state_code": "DUD",
      "state_id": 2457,
      "country_id": 232
    },
    {
      "id": 51896,
      "name": "Wijd open",
      "name_default": "Wideopen",
      "native": "Wideopen",
      "type": "city",
      "level": null,
      "parent_id": null,
      "population": 8976,
      "latitude": "55.04514000",
      "longitude": "-1.62246000",
      "timezone": "Europe/London",
      "wikiDataId": "Q9372539",
      "country_code": "GB",
      "state_code": "DUD",
      "state_id": 2457,
      "country_id": 232
    }
  ]
}
