{
  "locale": "ru",
  "country": {
    "id": 107,
    "code": "IT",
    "iso3": "ITA",
    "numeric_code": "380",
    "name": "Италия",
    "name_default": "Italy",
    "native": "Italia",
    "capital": "Rome",
    "phonecode": "39",
    "currency": "EUR",
    "currency_name": "Euro",
    "currency_symbol": "€",
    "tld": ".it",
    "population": 58919230,
    "gdp": 2422855,
    "region": "Europe",
    "region_id": 4,
    "subregion": "Southern Europe",
    "subregion_id": 16,
    "nationality": "Italian",
    "timezones": [
      {
        "zoneName": "Europe/Rome",
        "gmtOffset": 3600,
        "gmtOffsetName": "UTC+01:00",
        "abbreviation": "CET",
        "tzName": "Central European Time"
      }
    ],
    "latitude": "42.83333333",
    "longitude": "12.83333333",
    "emoji": "🇮🇹",
    "emojiU": "U+1F1EE U+1F1F9"
  },
  "state": {
    "id": 1753,
    "code": "34",
    "iso2": "34",
    "iso3166_2": "IT-34",
    "fips_code": "20",
    "name": "Венето",
    "name_default": "Veneto",
    "native": "Veneto",
    "type": "region",
    "level": "1",
    "parent_id": null,
    "population": 4851851,
    "latitude": "45.64766630",
    "longitude": "11.86652540",
    "timezone": "Europe/Rome",
    "wikiDataId": "Q1243",
    "country_code": "IT"
  },
  "cities": [
    {
      "id": 135235,
      "name": "Абано-Терме",
      "name_default": "Abano Terme",
      "native": "Abano Terme",
      "type": "adm3",
      "level": null,
      "parent_id": null,
      "population": 20231,
      "latitude": "45.35753000",
      "longitude": "11.78725000",
      "timezone": "Europe/Rome",
      "wikiDataId": "Q335596",
      "country_code": "IT",
      "state_code": "34",
      "state_id": 1753,
      "country_id": 107
    },
    {
      "id": 135242,
      "name": "Аббатство Пизани",
      "name_default": "Abbazia Pisani",
      "native": "Abbazia Pisani",
      "type": "city",
      "level": null,
      "parent_id": null,
      "population": 1192,
      "latitude": "45.61270000",
      "longitude": "11.85429000",
      "timezone": "Europe/Rome",
      "wikiDataId": "Q3321966",
      "country_code": "IT",
      "state_code": "34",
      "state_id": 1753,
      "country_id": 107
    },
    {
      "id": 135290,
      "name": "Адрия",
      "name_default": "Adria",
      "native": "Adria",
      "type": "adm3",
      "level": null,
      "parent_id": null,
      "population": 12986,
      "latitude": "45.05445000",
      "longitude": "12.05599000",
      "timezone": "Europe/Rome",
      "wikiDataId": "Q2175750",
      "country_code": "IT",
      "state_code": "34",
      "state_id": 1753,
      "country_id": 107
    },
    {
      "id": 135292,
      "name": "Аффи",
      "name_default": "Affi",
      "native": "Affi",
      "type": "adm3",
      "level": null,
      "parent_id": null,
      "population": 1733,
      "latitude": "45.55297000",
      "longitude": "10.78640000",
      "timezone": "Europe/Rome",
      "wikiDataId": "Q2175750",
      "country_code": "IT",
      "state_code": "34",
      "state_id": 1753,
      "country_id": 107
    },
    {
      "id": 135307,
      "name": "Агна",
      "name_default": "Agna",
      "native": "Particella",
      "type": "adm3",
      "level": null,
      "parent_id": null,
      "population": 3157,
      "latitude": "45.17051000",
      "longitude": "11.95625000",
      "timezone": "Europe/Rome",
      "wikiDataId": "Q18497212",
      "country_code": "IT",
      "state_code": "34",
      "state_id": 1753,
      "country_id": 107
    },
    {
      "id": 135312,
      "name": "Агордо",
      "name_default": "Agordo",
      "native": "Configurazione",
      "type": "adm3",
      "level": null,
      "parent_id": null,
      "population": 4059,
      "latitude": "46.28201000",
      "longitude": "12.03608000",
      "timezone": "Europe/Rome",
      "wikiDataId": "Q18497212",
      "country_code": "IT",
      "state_code": "34",
      "state_id": 1753,
      "country_id": 107
    },
    {
      "id": 135321,
      "name": "Агульяро",
      "name_default": "Agugliaro",
      "native": "Agugliaro",
      "type": "adm3",
      "level": null,
      "parent_id": null,
      "population": 738,
      "latitude": "45.32510000",
      "longitude": "11.58496000",
      "timezone": "Europe/Rome",
      "wikiDataId": "Q16112",
      "country_code": "IT",
      "state_code": "34",
      "state_id": 1753,
      "country_id": 107
    },
    {
      "id": 135343,
      "name": "Алано ди Пьяве",
      "name_default": "Alano di Piave",
      "native": "Alano di Piave",
      "type": "adm3",
      "level": null,
      "parent_id": null,
      "population": 1518,
      "latitude": "45.90681000",
      "longitude": "11.90840000",
      "timezone": "Europe/Rome",
      "wikiDataId": "Q18441902",
      "country_code": "IT",
      "state_code": "34",
      "state_id": 1753,
      "country_id": 107
    },
    {
      "id": 135355,
      "name": "Альбаредо",
      "name_default": "Albaredo",
      "native": "Albaredo",
      "type": "city",
      "level": null,
      "parent_id": null,
      "population": 1375,
      "latitude": "45.66725000",
      "longitude": "12.01095000",
      "timezone": "Europe/Rome",
      "wikiDataId": "Q18500583",
      "country_code": "IT",
      "state_code": "34",
      "state_id": 1753,
      "country_id": 107
    },
    {
      "id": 135358,
      "name": "Альбаредо д'Адидже",
      "name_default": "Albaredo d'Adige",
      "native": "Albaredo d'Adige",
      "type": "adm3",
      "level": null,
      "parent_id": null,
      "population": 2783,
      "latitude": "45.31859000",
      "longitude": "11.27843000",
      "timezone": "Europe/Rome",
      "wikiDataId": "Q18500583",
      "country_code": "IT",
      "state_code": "34",
      "state_id": 1753,
      "country_id": 107
    },
    {
      "id": 135368,
      "name": "Альбеттоне",
      "name_default": "Albettone",
      "native": "Alexone",
      "type": "adm3",
      "level": null,
      "parent_id": null,
      "population": 807,
      "latitude": "45.35811000",
      "longitude": "11.58430000",
      "timezone": "Europe/Rome",
      "wikiDataId": "Q3607972",
      "country_code": "IT",
      "state_code": "34",
      "state_id": 1753,
      "country_id": 107
    },
    {
      "id": 135376,
      "name": "Альбиньясего",
      "name_default": "Albignasego",
      "native": "Albignasego",
      "type": "adm3",
      "level": null,
      "parent_id": null,
      "population": 16477,
      "latitude": "45.34705000",
      "longitude": "11.86781000",
      "timezone": "Europe/Rome",
      "wikiDataId": "Q3608760",
      "country_code": "IT",
      "state_code": "34",
      "state_id": 1753,
      "country_id": 107
    },
    {
      "id": 135415,
      "name": "Аллеге",
      "name_default": "Alleghe",
      "native": "Alleghe",
      "type": "adm3",
      "level": null,
      "parent_id": null,
      "population": 656,
      "latitude": "46.40718000",
      "longitude": "12.02336000",
      "timezone": "Europe/Rome",
      "wikiDataId": "Q18454404",
      "country_code": "IT",
      "state_code": "34",
      "state_id": 1753,
      "country_id": 107
    },
    {
      "id": 135424,
      "name": "Алонте",
      "name_default": "Alonte",
      "native": "Alonte",
      "type": "adm3",
      "level": null,
      "parent_id": null,
      "population": 689,
      "latitude": "45.36589000",
      "longitude": "11.42710000",
      "timezone": "Europe/Rome",
      "wikiDataId": "Q18441933",
      "country_code": "IT",
      "state_code": "34",
      "state_id": 1753,
      "country_id": 107
    },
    {
      "id": 135427,
      "name": "Альпо",
      "name_default": "Alpo",
      "native": "Alpo",
      "type": "city",
      "level": null,
      "parent_id": null,
      "population": 2106,
      "latitude": "45.37687000",
      "longitude": "10.91979000",
      "timezone": "Europe/Rome",
      "wikiDataId": "Q18503836",
      "country_code": "IT",
      "state_code": "34",
      "state_id": 1753,
      "country_id": 107
    },
    {
      "id": 135436,
      "name": "Альтавилла Вичентина",
      "name_default": "Altavilla Vicentina",
      "native": "Altavilla Vicentina",
      "type": "adm3",
      "level": null,
      "parent_id": null,
      "population": 11868,
      "latitude": "45.51329000",
      "longitude": "11.46877000",
      "timezone": "Europe/Rome",
      "wikiDataId": "Q18503836",
      "country_code": "IT",
      "state_code": "34",
      "state_id": 1753,
      "country_id": 107
    },
    {
      "id": 135441,
      "name": "Альтиссимо",
      "name_default": "Altissimo",
      "native": "Altissimo",
      "type": "adm3",
      "level": null,
      "parent_id": null,
      "population": 342,
      "latitude": "45.61429000",
      "longitude": "11.25189000",
      "timezone": "Europe/Rome",
      "wikiDataId": "Q3613147",
      "country_code": "IT",
      "state_code": "34",
      "state_id": 1753,
      "country_id": 107
    },
    {
      "id": 135442,
      "name": "Альтиволе",
      "name_default": "Altivole",
      "native": "Altezzoso",
      "type": "adm3",
      "level": null,
      "parent_id": null,
      "population": 1369,
      "latitude": "45.75370000",
      "longitude": "11.95620000",
      "timezone": "Europe/Rome",
      "wikiDataId": "Q3613147",
      "country_code": "IT",
      "state_code": "34",
      "state_id": 1753,
      "country_id": 107
    },
    {
      "id": 135498,
      "name": "Ангиари",
      "name_default": "Angiari",
      "native": "Angiari",
      "type": "adm3",
      "level": null,
      "parent_id": null,
      "population": 1565,
      "latitude": "45.22318000",
      "longitude": "11.27680000",
      "timezone": "Europe/Rome",
      "wikiDataId": "Q18448265",
      "country_code": "IT",
      "state_code": "34",
      "state_id": 1753,
      "country_id": 107
    },
    {
      "id": 135503,
      "name": "Ангвиллара Венета",
      "name_default": "Anguillara Veneta",
      "native": "Anguillara Veneta",
      "type": "adm3",
      "level": null,
      "parent_id": null,
      "population": 2938,
      "latitude": "45.14249000",
      "longitude": "11.88461000",
      "timezone": "Europe/Rome",
      "wikiDataId": "Q18448265",
      "country_code": "IT",
      "state_code": "34",
      "state_id": 1753,
      "country_id": 107
    },
    {
      "id": 135506,
      "name": "Анноне Венето",
      "name_default": "Annone Veneto",
      "native": "Annone Veneto",
      "type": "adm3",
      "level": null,
      "parent_id": null,
      "population": 2730,
      "latitude": "45.78965000",
      "longitude": "12.68646000",
      "timezone": "Europe/Rome",
      "wikiDataId": "Q2613526",
      "country_code": "IT",
      "state_code": "34",
      "state_id": 1753,
      "country_id": 107
    },
    {
      "id": 135555,
      "name": "Арбицано-Санта-Мария",
      "name_default": "Arbizzano-Santa Maria",
      "native": "Arbizzano-Santa Maria",
      "type": "city",
      "level": null,
      "parent_id": null,
      "population": 5148,
      "latitude": "45.49489000",
      "longitude": "10.93831000",
      "timezone": "Europe/Rome",
      "wikiDataId": "Q3621346",
      "country_code": "IT",
      "state_code": "34",
      "state_id": 1753,
      "country_id": 107
    },
    {
      "id": 135559,
      "name": "Аркада",
      "name_default": "Arcade",
      "native": "Portico",
      "type": "adm3",
      "level": null,
      "parent_id": null,
      "population": 3430,
      "latitude": "45.78428000",
      "longitude": "12.21972000",
      "timezone": "Europe/Rome",
      "wikiDataId": "Q3621346",
      "country_code": "IT",
      "state_code": "34",
      "state_id": 1753,
      "country_id": 107
    },
    {
      "id": 135572,
      "name": "Арколе",
      "name_default": "Arcole",
      "native": "Arcole",
      "type": "adm3",
      "level": null,
      "parent_id": null,
      "population": 3654,
      "latitude": "45.36125000",
      "longitude": "11.28750000",
      "timezone": "Europe/Rome",
      "wikiDataId": "Q18454414",
      "country_code": "IT",
      "state_code": "34",
      "state_id": 1753,
      "country_id": 107
    },
    {
      "id": 135575,
      "name": "Аркуньяно-Торри",
      "name_default": "Arcugnano-Torri",
      "native": "Arcugnano-Torrors",
      "type": "adm3",
      "level": null,
      "parent_id": null,
      "population": 2499,
      "latitude": "45.49579000",
      "longitude": "11.54770000",
      "timezone": "Europe/Rome",
      "wikiDataId": "Q18454414",
      "country_code": "IT",
      "state_code": "34",
      "state_id": 1753,
      "country_id": 107
    },
    {
      "id": 135598,
      "name": "Ариано",
      "name_default": "Ariano",
      "native": "Ariano",
      "type": "adm3",
      "level": null,
      "parent_id": null,
      "population": 1762,
      "latitude": "44.94604000",
      "longitude": "12.12448000",
      "timezone": "Europe/Rome",
      "wikiDataId": "Q18454415",
      "country_code": "IT",
      "state_code": "34",
      "state_id": 1753,
      "country_id": 107
    },
    {
      "id": 135605,
      "name": "Арино",
      "name_default": "Arino",
      "native": "Arino",
      "type": "city",
      "level": null,
      "parent_id": null,
      "population": 2063,
      "latitude": "45.43854000",
      "longitude": "12.05443000",
      "timezone": "Europe/Rome",
      "wikiDataId": "Q18502805",
      "country_code": "IT",
      "state_code": "34",
      "state_id": 1753,
      "country_id": 107
    },
    {
      "id": 135611,
      "name": "Арлесега",
      "name_default": "Arlesega",
      "native": "Arlesga",
      "type": "city",
      "level": null,
      "parent_id": null,
      "population": 1013,
      "latitude": "45.46126000",
      "longitude": "11.71942000",
      "timezone": "Europe/Rome",
      "wikiDataId": "Q18497242",
      "country_code": "IT",
      "state_code": "34",
      "state_id": 1753,
      "country_id": 107
    },
    {
      "id": 135632,
      "name": "Аркуа Петрарка",
      "name_default": "Arquà Petrarca",
      "native": "Arquà Petrarca",
      "type": "adm3",
      "level": null,
      "parent_id": null,
      "population": 878,
      "latitude": "45.26911000",
      "longitude": "11.72045000",
      "timezone": "Europe/Rome",
      "wikiDataId": "Q18436874",
      "country_code": "IT",
      "state_code": "34",
      "state_id": 1753,
      "country_id": 107
    },
    {
      "id": 135633,
      "name": "Arquà Polesine",
      "name_default": "Arquà Polesine",
      "native": "Arquà Polesine",
      "type": "adm3",
      "level": null,
      "parent_id": null,
      "population": 1721,
      "latitude": "45.01008000",
      "longitude": "11.73981000",
      "timezone": "Europe/Rome",
      "wikiDataId": "Q18436874",
      "country_code": "IT",
      "state_code": "34",
      "state_id": 1753,
      "country_id": 107
    },
    {
      "id": 135634,
      "name": "Арре",
      "name_default": "Arre",
      "native": "Arre",
      "type": "adm3",
      "level": null,
      "parent_id": null,
      "population": 1327,
      "latitude": "45.21748000",
      "longitude": "11.92858000",
      "timezone": "Europe/Rome",
      "wikiDataId": "Q18436874",
      "country_code": "IT",
      "state_code": "34",
      "state_id": 1753,
      "country_id": 107
    },
    {
      "id": 135639,
      "name": "Арси",
      "name_default": "Arsiè",
      "native": "Arsiè",
      "type": "adm3",
      "level": null,
      "parent_id": null,
      "population": 929,
      "latitude": "45.98211000",
      "longitude": "11.75794000",
      "timezone": "Europe/Rome",
      "wikiDataId": "Q18436874",
      "country_code": "IT",
      "state_code": "34",
      "state_id": 1753,
      "country_id": 107
    },
    {
      "id": 135637,
      "name": "Арсиеро",
      "name_default": "Arsiero",
      "native": "Arsiero",
      "type": "adm3",
      "level": null,
      "parent_id": null,
      "population": 3021,
      "latitude": "45.80422000",
      "longitude": "11.35582000",
      "timezone": "Europe/Rome",
      "wikiDataId": "Q18436874",
      "country_code": "IT",
      "state_code": "34",
      "state_id": 1753,
      "country_id": 107
    },
    {
      "id": 135651,
      "name": "Арцергранде",
      "name_default": "Arzergrande",
      "native": "Arzergrande",
      "type": "adm3",
      "level": null,
      "parent_id": null,
      "population": 2545,
      "latitude": "45.27278000",
      "longitude": "12.04840000",
      "timezone": "Europe/Rome",
      "wikiDataId": "Q53150",
      "country_code": "IT",
      "state_code": "34",
      "state_id": 1753,
      "country_id": 107
    },
    {
      "id": 135652,
      "name": "Арциньяно",
      "name_default": "Arzignano",
      "native": "Arzignano",
      "type": "adm3",
      "level": null,
      "parent_id": null,
      "population": 25280,
      "latitude": "45.52027000",
      "longitude": "11.33446000",
      "timezone": "Europe/Rome",
      "wikiDataId": "Q53150",
      "country_code": "IT",
      "state_code": "34",
      "state_id": 1753,
      "country_id": 107
    },
    {
      "id": 135658,
      "name": "Азиаго",
      "name_default": "Asiago",
      "native": "Asiago",
      "type": "adm3",
      "level": null,
      "parent_id": null,
      "population": 3683,
      "latitude": "45.87588000",
      "longitude": "11.51223000",
      "timezone": "Europe/Rome",
      "wikiDataId": "Q53150",
      "country_code": "IT",
      "state_code": "34",
      "state_id": 1753,
      "country_id": 107
    },
    {
      "id": 135659,
      "name": "Азильяно Венето",
      "name_default": "Asigliano Veneto",
      "native": "Asigliano Veneto",
      "type": "adm3",
      "level": null,
      "parent_id": null,
      "population": 406,
      "latitude": "45.30469000",
      "longitude": "11.44640000",
      "timezone": "Europe/Rome",
      "wikiDataId": "Q53150",
      "country_code": "IT",
      "state_code": "34",
      "state_id": 1753,
      "country_id": 107
    },
    {
      "id": 135662,
      "name": "Асоло",
      "name_default": "Asolo",
      "native": "Asolo",
      "type": "adm3",
      "level": null,
      "parent_id": null,
      "population": 3852,
      "latitude": "45.78854000",
      "longitude": "11.91701000",
      "timezone": "Europe/Rome",
      "wikiDataId": "Q53150",
      "country_code": "IT",
      "state_code": "34",
      "state_id": 1753,
      "country_id": 107
    },
    {
      "id": 135663,
      "name": "Аспаретто",
      "name_default": "Asparetto",
      "native": "Asparetto",
      "type": "city",
      "level": null,
      "parent_id": null,
      "population": 1688,
      "latitude": "45.21991000",
      "longitude": "11.18263000",
      "timezone": "Europe/Rome",
      "wikiDataId": "Q3625263",
      "country_code": "IT",
      "state_code": "34",
      "state_id": 1753,
      "country_id": 107
    },
    {
      "id": 135693,
      "name": "Ауронзо",
      "name_default": "Auronzo",
      "native": "Auronzo",
      "type": "adm3",
      "level": null,
      "parent_id": null,
      "population": 3347,
      "latitude": "46.55920000",
      "longitude": "12.42456000",
      "timezone": "Europe/Rome",
      "wikiDataId": "Q18496106",
      "country_code": "IT",
      "state_code": "34",
      "state_id": 1753,
      "country_id": 107
    },
    {
      "id": 135735,
      "name": "Бадия Калавена",
      "name_default": "Badia Calavena",
      "native": "Badia Calavena",
      "type": "adm3",
      "level": null,
      "parent_id": null,
      "population": 1678,
      "latitude": "45.56463000",
      "longitude": "11.15197000",
      "timezone": "Europe/Rome",
      "wikiDataId": "Q18508845",
      "country_code": "IT",
      "state_code": "34",
      "state_id": 1753,
      "country_id": 107
    },
    {
      "id": 135737,
      "name": "Бадия Полезине",
      "name_default": "Badia Polesine",
      "native": "Badia Polesine",
      "type": "adm3",
      "level": null,
      "parent_id": null,
      "population": 6940,
      "latitude": "45.09508000",
      "longitude": "11.49443000",
      "timezone": "Europe/Rome",
      "wikiDataId": "Q18508845",
      "country_code": "IT",
      "state_code": "34",
      "state_id": 1753,
      "country_id": 107
    },
    {
      "id": 135741,
      "name": "Бадоэре",
      "name_default": "Badoere",
      "native": "Badoere",
      "type": "adm3",
      "level": null,
      "parent_id": null,
      "population": 2165,
      "latitude": "45.63420000",
      "longitude": "12.08518000",
      "timezone": "Europe/Rome",
      "wikiDataId": "Q2542184",
      "country_code": "IT",
      "state_code": "34",
      "state_id": 1753,
      "country_id": 107
    },
    {
      "id": 135765,
      "name": "Баньоли ди Сопра",
      "name_default": "Bagnoli di Sopra",
      "native": "Bagnoli di Sopra",
      "type": "adm3",
      "level": null,
      "parent_id": null,
      "population": 1745,
      "latitude": "45.18667000",
      "longitude": "11.88433000",
      "timezone": "Europe/Rome",
      "wikiDataId": "Q799950",
      "country_code": "IT",
      "state_code": "34",
      "state_id": 1753,
      "country_id": 107
    },
    {
      "id": 135766,
      "name": "Баньоло",
      "name_default": "Bagnolo",
      "native": "Bagnolo",
      "type": "city",
      "level": null,
      "parent_id": null,
      "population": 1159,
      "latitude": "45.27238000",
      "longitude": "10.89081000",
      "timezone": "Europe/Rome",
      "wikiDataId": "Q18503883",
      "country_code": "IT",
      "state_code": "34",
      "state_id": 1753,
      "country_id": 107
    },
    {
      "id": 135772,
      "name": "Баньоло ди По",
      "name_default": "Bagnolo di Po",
      "native": "Bagnolo di Po",
      "type": "adm3",
      "level": null,
      "parent_id": null,
      "population": 532,
      "latitude": "45.01548000",
      "longitude": "11.50091000",
      "timezone": "Europe/Rome",
      "wikiDataId": "Q18503883",
      "country_code": "IT",
      "state_code": "34",
      "state_id": 1753,
      "country_id": 107
    },
    {
      "id": 135791,
      "name": "Балло",
      "name_default": "Ballò",
      "native": "Palla",
      "type": "city",
      "level": null,
      "parent_id": null,
      "population": 1428,
      "latitude": "45.45581000",
      "longitude": "12.07124000",
      "timezone": "Europe/Rome",
      "wikiDataId": "Q2066536",
      "country_code": "IT",
      "state_code": "34",
      "state_id": 1753,
      "country_id": 107
    },
    {
      "id": 135807,
      "name": "Баоне",
      "name_default": "Baone",
      "native": "Baone",
      "type": "adm3",
      "level": null,
      "parent_id": null,
      "population": 728,
      "latitude": "45.24174000",
      "longitude": "11.68463000",
      "timezone": "Europe/Rome",
      "wikiDataId": "Q18434512",
      "country_code": "IT",
      "state_code": "34",
      "state_id": 1753,
      "country_id": 107
    },
    {
      "id": 135821,
      "name": "Барбарано Вичентино",
      "name_default": "Barbarano Vicentino",
      "native": "Barbarano Vicentino",
      "type": "adm3",
      "level": null,
      "parent_id": null,
      "population": 1412,
      "latitude": "45.40912000",
      "longitude": "11.54342000",
      "timezone": "Europe/Rome",
      "wikiDataId": "Q18490644",
      "country_code": "IT",
      "state_code": "34",
      "state_id": 1753,
      "country_id": 107
    },
    {
      "id": 135832,
      "name": "Барбисано",
      "name_default": "Barbisano",
      "native": "Barbiseano",
      "type": "city",
      "level": null,
      "parent_id": null,
      "population": 1954,
      "latitude": "45.88224000",
      "longitude": "12.18632000",
      "timezone": "Europe/Rome",
      "wikiDataId": "Q3634777",
      "country_code": "IT",
      "state_code": "34",
      "state_id": 1753,
      "country_id": 107
    },
    {
      "id": 135833,
      "name": "Барбона",
      "name_default": "Barbona",
      "native": "Barbuto",
      "type": "adm3",
      "level": null,
      "parent_id": null,
      "population": 87,
      "latitude": "45.10339000",
      "longitude": "11.70486000",
      "timezone": "Europe/Rome",
      "wikiDataId": "Q3634777",
      "country_code": "IT",
      "state_code": "34",
      "state_id": 1753,
      "country_id": 107
    },
    {
      "id": 135842,
      "name": "Бардолино",
      "name_default": "Bardolino",
      "native": "Bardolino",
      "type": "adm3",
      "level": null,
      "parent_id": null,
      "population": 4873,
      "latitude": "45.54114000",
      "longitude": "10.73298000",
      "timezone": "Europe/Rome",
      "wikiDataId": "Q3634893",
      "country_code": "IT",
      "state_code": "34",
      "state_id": 1753,
      "country_id": 107
    },
    {
      "id": 135871,
      "name": "Барукелла",
      "name_default": "Baruchella",
      "native": "Baruchella",
      "type": "adm3",
      "level": null,
      "parent_id": null,
      "population": 961,
      "latitude": "45.06601000",
      "longitude": "11.45208000",
      "timezone": "Europe/Rome",
      "wikiDataId": "Q808771",
      "country_code": "IT",
      "state_code": "34",
      "state_id": 1753,
      "country_id": 107
    },
    {
      "id": 135893,
      "name": "Бассано дель Граппа",
      "name_default": "Bassano del Grappa",
      "native": "Bassano del Grappa",
      "type": "adm3",
      "level": null,
      "parent_id": null,
      "population": 42395,
      "latitude": "45.76656000",
      "longitude": "11.72739000",
      "timezone": "Europe/Rome",
      "wikiDataId": "Q3635788",
      "country_code": "IT",
      "state_code": "34",
      "state_id": 1753,
      "country_id": 107
    },
    {
      "id": 135897,
      "name": "Фассоне",
      "name_default": "Bassone",
      "native": "Zona di bass",
      "type": "city",
      "level": null,
      "parent_id": null,
      "population": 1653,
      "latitude": "45.45110000",
      "longitude": "10.89449000",
      "timezone": "Europe/Rome",
      "wikiDataId": "Q18503917",
      "country_code": "IT",
      "state_code": "34",
      "state_id": 1753,
      "country_id": 107
    },
    {
      "id": 135899,
      "name": "Бастия",
      "name_default": "Bastia",
      "native": "Bastia",
      "type": "adm3",
      "level": null,
      "parent_id": null,
      "population": 1802,
      "latitude": "45.38609000",
      "longitude": "11.65196000",
      "timezone": "Europe/Rome",
      "wikiDataId": "Q18497308",
      "country_code": "IT",
      "state_code": "34",
      "state_id": 1753,
      "country_id": 107
    },
    {
      "id": 135905,
      "name": "Батталья-Терме",
      "name_default": "Battaglia Terme",
      "native": "Battaglia Terme",
      "type": "adm3",
      "level": null,
      "parent_id": null,
      "population": 3766,
      "latitude": "45.28531000",
      "longitude": "11.78375000",
      "timezone": "Europe/Rome",
      "wikiDataId": "Q40707",
      "country_code": "IT",
      "state_code": "34",
      "state_id": 1753,
      "country_id": 107
    },
    {
      "id": 135916,
      "name": "Беккачиветта-Аццано",
      "name_default": "Beccacivetta-Azzano",
      "native": "Beccacivetta-Azzano",
      "type": "adm3",
      "level": null,
      "parent_id": null,
      "population": 10402,
      "latitude": "45.37435000",
      "longitude": "10.96133000",
      "timezone": "Europe/Rome",
      "wikiDataId": "Q18503929",
      "country_code": "IT",
      "state_code": "34",
      "state_id": 1753,
      "country_id": 107
    },
    {
      "id": 135927,
      "name": "Бельфиоре",
      "name_default": "Belfiore",
      "native": "Belfiore",
      "type": "adm3",
      "level": null,
      "parent_id": null,
      "population": 2318,
      "latitude": "45.38189000",
      "longitude": "11.21085000",
      "timezone": "Europe/Rome",
      "wikiDataId": "Q18448096",
      "country_code": "IT",
      "state_code": "34",
      "state_id": 1753,
      "country_id": 107
    },
    {
      "id": 135949,
      "name": "Беллуно",
      "name_default": "Belluno",
      "native": "Belluno",
      "type": "adm2",
      "level": null,
      "parent_id": null,
      "population": 25064,
      "latitude": "46.14262000",
      "longitude": "12.21560000",
      "timezone": "Europe/Rome",
      "wikiDataId": "Q18498108",
      "country_code": "IT",
      "state_code": "34",
      "state_id": 1753,
      "country_id": 107
    },
    {
      "id": 135961,
      "name": "Бельведер",
      "name_default": "Belvedere",
      "native": "Belvedere",
      "type": "city",
      "level": null,
      "parent_id": null,
      "population": 6878,
      "latitude": "45.69001000",
      "longitude": "11.77180000",
      "timezone": "Europe/Rome",
      "wikiDataId": "Q18505850",
      "country_code": "IT",
      "state_code": "34",
      "state_id": 1753,
      "country_id": 107
    },
    {
      "id": 135988,
      "name": "Бергантино",
      "name_default": "Bergantino",
      "native": "Bergantino",
      "type": "adm3",
      "level": null,
      "parent_id": null,
      "population": 2394,
      "latitude": "45.06145000",
      "longitude": "11.25237000",
      "timezone": "Europe/Rome",
      "wikiDataId": "Q18478581",
      "country_code": "IT",
      "state_code": "34",
      "state_id": 1753,
      "country_id": 107
    },
    {
      "id": 136002,
      "name": "Бертипалья",
      "name_default": "Bertipaglia",
      "native": "Typaglia",
      "type": "city",
      "level": null,
      "parent_id": null,
      "population": 1834,
      "latitude": "45.31594000",
      "longitude": "11.88547000",
      "timezone": "Europe/Rome",
      "wikiDataId": "Q18497330",
      "country_code": "IT",
      "state_code": "34",
      "state_id": 1753,
      "country_id": 107
    },
    {
      "id": 136026,
      "name": "Бевилаква",
      "name_default": "Bevilacqua",
      "native": "Bevilacqua",
      "type": "adm3",
      "level": null,
      "parent_id": null,
      "population": 1066,
      "latitude": "45.23249000",
      "longitude": "11.39496000",
      "timezone": "Europe/Rome",
      "wikiDataId": "Q18445866",
      "country_code": "IT",
      "state_code": "34",
      "state_id": 1753,
      "country_id": 107
    },
    {
      "id": 136027,
      "name": "Бианкаде",
      "name_default": "Biancade",
      "native": "Biancade",
      "type": "city",
      "level": null,
      "parent_id": null,
      "population": 2654,
      "latitude": "45.64867000",
      "longitude": "12.35753000",
      "timezone": "Europe/Rome",
      "wikiDataId": "Q3639404",
      "country_code": "IT",
      "state_code": "34",
      "state_id": 1753,
      "country_id": 107
    },
    {
      "id": 136037,
      "name": "Бибано",
      "name_default": "Bibano",
      "native": "Bibano",
      "type": "city",
      "level": null,
      "parent_id": null,
      "population": 1561,
      "latitude": "45.90751000",
      "longitude": "12.43266000",
      "timezone": "Europe/Rome",
      "wikiDataId": "Q3639483",
      "country_code": "IT",
      "state_code": "34",
      "state_id": 1753,
      "country_id": 107
    },
    {
      "id": 136042,
      "name": "Бибионе",
      "name_default": "Bibione",
      "native": "Bibione",
      "type": "city",
      "level": null,
      "parent_id": null,
      "population": 2564,
      "latitude": "45.63565000",
      "longitude": "13.03616000",
      "timezone": "Europe/Rome",
      "wikiDataId": "Q3512102",
      "country_code": "IT",
      "state_code": "34",
      "state_id": 1753,
      "country_id": 107
    },
    {
      "id": 136050,
      "name": "Биголино",
      "name_default": "Bigolino",
      "native": "Bigolino",
      "type": "city",
      "level": null,
      "parent_id": null,
      "population": 1541,
      "latitude": "45.86669000",
      "longitude": "12.01693000",
      "timezone": "Europe/Rome",
      "wikiDataId": "Q3639879",
      "country_code": "IT",
      "state_code": "34",
      "state_id": 1753,
      "country_id": 107
    },
    {
      "id": 136084,
      "name": "Боара Пизани",
      "name_default": "Boara Pisani",
      "native": "Boara scritta",
      "type": "adm3",
      "level": null,
      "parent_id": null,
      "population": 1429,
      "latitude": "45.10809000",
      "longitude": "11.78271000",
      "timezone": "Europe/Rome",
      "wikiDataId": "Q18454425",
      "country_code": "IT",
      "state_code": "34",
      "state_id": 1753,
      "country_id": 107
    },
    {
      "id": 136100,
      "name": "Боджон-Лова",
      "name_default": "Bojon-Lova",
      "native": "Bojon-Lova",
      "type": "city",
      "level": null,
      "parent_id": null,
      "population": 3914,
      "latitude": "45.33981000",
      "longitude": "12.08282000",
      "timezone": "Europe/Rome",
      "wikiDataId": "Q18502872",
      "country_code": "IT",
      "state_code": "34",
      "state_id": 1753,
      "country_id": 107
    },
    {
      "id": 136117,
      "name": "Больцано Вичентино",
      "name_default": "Bolzano Vicentino",
      "native": "Bolzano Vicentino",
      "type": "adm3",
      "level": null,
      "parent_id": null,
      "population": 3742,
      "latitude": "45.60221000",
      "longitude": "11.62198000",
      "timezone": "Europe/Rome",
      "wikiDataId": "Q15124",
      "country_code": "IT",
      "state_code": "34",
      "state_id": 1753,
      "country_id": 107
    },
    {
      "id": 136127,
      "name": "Бонавичина",
      "name_default": "Bonavicina",
      "native": "Bonavicina",
      "type": "city",
      "level": null,
      "parent_id": null,
      "population": 1435,
      "latitude": "45.24426000",
      "longitude": "11.18419000",
      "timezone": "Europe/Rome",
      "wikiDataId": "Q3642061",
      "country_code": "IT",
      "state_code": "34",
      "state_id": 1753,
      "country_id": 107
    },
    {
      "id": 136128,
      "name": "Бонавиго",
      "name_default": "Bonavigo",
      "native": "Buona volontà",
      "type": "adm3",
      "level": null,
      "parent_id": null,
      "population": 720,
      "latitude": "45.25831000",
      "longitude": "11.27944000",
      "timezone": "Europe/Rome",
      "wikiDataId": "Q3642061",
      "country_code": "IT",
      "state_code": "34",
      "state_id": 1753,
      "country_id": 107
    },
    {
      "id": 136137,
      "name": "Бонферраро",
      "name_default": "Bonferraro",
      "native": "Bonferraro",
      "type": "city",
      "level": null,
      "parent_id": null,
      "population": 1323,
      "latitude": "45.18380000",
      "longitude": "11.01201000",
      "timezone": "Europe/Rome",
      "wikiDataId": "Q18503987",
      "country_code": "IT",
      "state_code": "34",
      "state_id": 1753,
      "country_id": 107
    },
    {
      "id": 136146,
      "name": "Борка",
      "name_default": "Borca",
      "native": "Un combattente",
      "type": "adm3",
      "level": null,
      "parent_id": null,
      "population": 617,
      "latitude": "46.43452000",
      "longitude": "12.22230000",
      "timezone": "Europe/Rome",
      "wikiDataId": "Q18439865",
      "country_code": "IT",
      "state_code": "34",
      "state_id": 1753,
      "country_id": 107
    },
    {
      "id": 136215,
      "name": "Боргорикко-Сан-Микеле-делле-Бадесс-Сант-Эуфемия",
      "name_default": "Borgoricco-San Michele delle Badesse-Sant'Eufemia",
      "native": "Borgoricco-San Michele delle Badesse-Sant'Eufemia",
      "type": "adm3",
      "level": null,
      "parent_id": null,
      "population": 6036,
      "latitude": "45.53520000",
      "longitude": "11.94111000",
      "timezone": "Europe/Rome",
      "wikiDataId": "Q2460647",
      "country_code": "IT",
      "state_code": "34",
      "state_id": 1753,
      "country_id": 107
    },
    {
      "id": 136229,
      "name": "Борсо дель Граппа",
      "name_default": "Borso del Grappa",
      "native": "Borso del Grappa",
      "type": "adm3",
      "level": null,
      "parent_id": null,
      "population": 4410,
      "latitude": "45.81025000",
      "longitude": "11.77367000",
      "timezone": "Europe/Rome",
      "wikiDataId": "Q3642684",
      "country_code": "IT",
      "state_code": "34",
      "state_id": 1753,
      "country_id": 107
    },
    {
      "id": 136232,
      "name": "Бортолот",
      "name_default": "Bortolot",
      "native": "Bortolot",
      "type": "adm3",
      "level": null,
      "parent_id": null,
      "population": 271,
      "latitude": "46.38608000",
      "longitude": "12.17371000",
      "timezone": "Europe/Rome",
      "wikiDataId": "Q18496152",
      "country_code": "IT",
      "state_code": "34",
      "state_id": 1753,
      "country_id": 107
    },
    {
      "id": 136237,
      "name": "Босаро",
      "name_default": "Bosaro",
      "native": "Bosaro",
      "type": "adm3",
      "level": null,
      "parent_id": null,
      "population": 1067,
      "latitude": "44.99878000",
      "longitude": "11.76471000",
      "timezone": "Europe/Rome",
      "wikiDataId": "Q930122",
      "country_code": "IT",
      "state_code": "34",
      "state_id": 1753,
      "country_id": 107
    },
    {
      "id": 136239,
      "name": "Боски Сант'Анна",
      "name_default": "Boschi Sant'Anna",
      "native": "Boschi Sant'anna",
      "type": "adm3",
      "level": null,
      "parent_id": null,
      "population": 603,
      "latitude": "45.21768000",
      "longitude": "11.35620000",
      "timezone": "Europe/Rome",
      "wikiDataId": "Q18488003",
      "country_code": "IT",
      "state_code": "34",
      "state_id": 1753,
      "country_id": 107
    },
    {
      "id": 136240,
      "name": "Боско",
      "name_default": "Bosco",
      "native": "BOSCO",
      "type": "city",
      "level": null,
      "parent_id": null,
      "population": 1735,
      "latitude": "45.44337000",
      "longitude": "11.79530000",
      "timezone": "Europe/Rome",
      "wikiDataId": "Q18497389",
      "country_code": "IT",
      "state_code": "34",
      "state_id": 1753,
      "country_id": 107
    },
    {
      "id": 136241,
      "name": "Боско Кьезануова",
      "name_default": "Bosco Chiesanuova",
      "native": "Bosco Chiesanuova",
      "type": "adm3",
      "level": null,
      "parent_id": null,
      "population": 1289,
      "latitude": "45.62103000",
      "longitude": "11.03224000",
      "timezone": "Europe/Rome",
      "wikiDataId": "Q18497389",
      "country_code": "IT",
      "state_code": "34",
      "state_id": 1753,
      "country_id": 107
    },
    {
      "id": 136245,
      "name": "Боскокьяро",
      "name_default": "Boscochiaro",
      "native": "BOSCHIARO",
      "type": "city",
      "level": null,
      "parent_id": null,
      "population": 1321,
      "latitude": "45.13658000",
      "longitude": "12.12182000",
      "timezone": "Europe/Rome",
      "wikiDataId": "Q18502900",
      "country_code": "IT",
      "state_code": "34",
      "state_id": 1753,
      "country_id": 107
    },
    {
      "id": 136263,
      "name": "Боттриге",
      "name_default": "Bottrighe",
      "native": "Botture",
      "type": "city",
      "level": null,
      "parent_id": null,
      "population": 2055,
      "latitude": "45.02552000",
      "longitude": "12.08236000",
      "timezone": "Europe/Rome",
      "wikiDataId": "Q3643109",
      "country_code": "IT",
      "state_code": "34",
      "state_id": 1753,
      "country_id": 107
    },
    {
      "id": 136274,
      "name": "Боволента",
      "name_default": "Bovolenta",
      "native": "Bovolenta",
      "type": "adm3",
      "level": null,
      "parent_id": null,
      "population": 1510,
      "latitude": "45.26892000",
      "longitude": "11.93576000",
      "timezone": "Europe/Rome",
      "wikiDataId": "Q18431918",
      "country_code": "IT",
      "state_code": "34",
      "state_id": 1753,
      "country_id": 107
    },
    {
      "id": 136275,
      "name": "Боволоне",
      "name_default": "Bovolone",
      "native": "Bovolone",
      "type": "adm3",
      "level": null,
      "parent_id": null,
      "population": 14036,
      "latitude": "45.26142000",
      "longitude": "11.11786000",
      "timezone": "Europe/Rome",
      "wikiDataId": "Q18431918",
      "country_code": "IT",
      "state_code": "34",
      "state_id": 1753,
      "country_id": 107
    },
    {
      "id": 136283,
      "name": "Бралья",
      "name_default": "Braglia",
      "native": "Braglia",
      "type": "adm3",
      "level": null,
      "parent_id": null,
      "population": 902,
      "latitude": "44.98446000",
      "longitude": "12.03377000",
      "timezone": "Europe/Rome",
      "wikiDataId": "Q18499300",
      "country_code": "IT",
      "state_code": "34",
      "state_id": 1753,
      "country_id": 107
    },
    {
      "id": 136292,
      "name": "Бреда",
      "name_default": "Breda",
      "native": "Breda",
      "type": "adm3",
      "level": null,
      "parent_id": null,
      "population": 2472,
      "latitude": "45.72250000",
      "longitude": "12.33083000",
      "timezone": "Europe/Rome",
      "wikiDataId": "Q18431929",
      "country_code": "IT",
      "state_code": "34",
      "state_id": 1753,
      "country_id": 107
    },
    {
      "id": 136294,
      "name": "Бреганце",
      "name_default": "Breganze",
      "native": "Breganze",
      "type": "adm3",
      "level": null,
      "parent_id": null,
      "population": 5470,
      "latitude": "45.70489000",
      "longitude": "11.56074000",
      "timezone": "Europe/Rome",
      "wikiDataId": "Q18431929",
      "country_code": "IT",
      "state_code": "34",
      "state_id": 1753,
      "country_id": 107
    },
    {
      "id": 136303,
      "name": "Брендола",
      "name_default": "Brendola",
      "native": "Brendola",
      "type": "adm3",
      "level": null,
      "parent_id": null,
      "population": 3688,
      "latitude": "45.47849000",
      "longitude": "11.43947000",
      "timezone": "Europe/Rome",
      "wikiDataId": "Q24908",
      "country_code": "IT",
      "state_code": "34",
      "state_id": 1753,
      "country_id": 107
    },
    {
      "id": 136309,
      "name": "Брентино Беллуно",
      "name_default": "Brentino Belluno",
      "native": "Brentino Belluno",
      "type": "adm3",
      "level": null,
      "parent_id": null,
      "population": 1363,
      "latitude": "45.65689000",
      "longitude": "10.89368000",
      "timezone": "Europe/Rome",
      "wikiDataId": "Q646588",
      "country_code": "IT",
      "state_code": "34",
      "state_id": 1753,
      "country_id": 107
    },
    {
      "id": 136311,
      "name": "Бренцоне",
      "name_default": "Brenzone",
      "native": "Brenzone",
      "type": "adm3",
      "level": null,
      "parent_id": null,
      "population": 2358,
      "latitude": "45.69989000",
      "longitude": "10.76058000",
      "timezone": "Europe/Rome",
      "wikiDataId": "Q646588",
      "country_code": "IT",
      "state_code": "34",
      "state_id": 1753,
      "country_id": 107
    },
    {
      "id": 136319,
      "name": "Брессанвидо",
      "name_default": "Bressanvido",
      "native": "Bressanvido",
      "type": "adm3",
      "level": null,
      "parent_id": null,
      "population": 1201,
      "latitude": "45.64651000",
      "longitude": "11.63437000",
      "timezone": "Europe/Rome",
      "wikiDataId": "Q3644339",
      "country_code": "IT",
      "state_code": "34",
      "state_id": 1753,
      "country_id": 107
    },
    {
      "id": 136346,
      "name": "Брольяно",
      "name_default": "Brogliano",
      "native": "Brogliano",
      "type": "adm3",
      "level": null,
      "parent_id": null,
      "population": 2562,
      "latitude": "45.58919000",
      "longitude": "11.36549000",
      "timezone": "Europe/Rome",
      "wikiDataId": "Q18505077",
      "country_code": "IT",
      "state_code": "34",
      "state_id": 1753,
      "country_id": 107
    },
    {
      "id": 136348,
      "name": "Броньолиго-Косталунга",
      "name_default": "Brognoligo-Costalunga",
      "native": "Beneniligo-Costalunga",
      "type": "city",
      "level": null,
      "parent_id": null,
      "population": 2777,
      "latitude": "45.44869000",
      "longitude": "11.29379000",
      "timezone": "Europe/Rome",
      "wikiDataId": "Q18504046",
      "country_code": "IT",
      "state_code": "34",
      "state_id": 1753,
      "country_id": 107
    },
    {
      "id": 136363,
      "name": "Брюгин",
      "name_default": "Brugine",
      "native": "Brugine",
      "type": "adm3",
      "level": null,
      "parent_id": null,
      "population": 2249,
      "latitude": "45.29696000",
      "longitude": "11.99200000",
      "timezone": "Europe/Rome",
      "wikiDataId": "Q952146",
      "country_code": "IT",
      "state_code": "34",
      "state_id": 1753,
      "country_id": 107
    },
    {
      "id": 136410,
      "name": "Бурано",
      "name_default": "Burano",
      "native": "Burano",
      "type": "city",
      "level": null,
      "parent_id": null,
      "population": 2658,
      "latitude": "45.48548000",
      "longitude": "12.41696000",
      "timezone": "Europe/Rome",
      "wikiDataId": "Q18502918",
      "country_code": "IT",
      "state_code": "34",
      "state_id": 1753,
      "country_id": 107
    },
    {
      "id": 136427,
      "name": "Бусо",
      "name_default": "Buso",
      "native": "Autobus",
      "type": "city",
      "level": null,
      "parent_id": null,
      "population": 1065,
      "latitude": "45.06491000",
      "longitude": "11.84772000",
      "timezone": "Europe/Rome",
      "wikiDataId": "Q3647593",
      "country_code": "IT",
      "state_code": "34",
      "state_id": 1753,
      "country_id": 107
    },
    {
      "id": 136432,
      "name": "Буссоленго",
      "name_default": "Bussolengo",
      "native": "Bussolengo",
      "type": "adm3",
      "level": null,
      "parent_id": null,
      "population": 15170,
      "latitude": "45.46903000",
      "longitude": "10.85371000",
      "timezone": "Europe/Rome",
      "wikiDataId": "Q12360475",
      "country_code": "IT",
      "state_code": "34",
      "state_id": 1753,
      "country_id": 107
    },
    {
      "id": 136438,
      "name": "Буттапьетра",
      "name_default": "Buttapietra",
      "native": "Buttapietra",
      "type": "adm3",
      "level": null,
      "parent_id": null,
      "population": 4199,
      "latitude": "45.34110000",
      "longitude": "10.99915000",
      "timezone": "Europe/Rome",
      "wikiDataId": "Q12360475",
      "country_code": "IT",
      "state_code": "34",
      "state_id": 1753,
      "country_id": 107
    },
    {
      "id": 136446,
      "name": "Ca' degli Oppi",
      "name_default": "Ca' degli Oppi",
      "native": "Ca' degli Oppi",
      "type": "city",
      "level": null,
      "parent_id": null,
      "population": 1349,
      "latitude": "45.29550000",
      "longitude": "11.13029000",
      "timezone": "Europe/Rome",
      "wikiDataId": "Q18504076",
      "country_code": "IT",
      "state_code": "34",
      "state_id": 1753,
      "country_id": 107
    },
    {
      "id": 136442,
      "name": "Ка'Райнати",
      "name_default": "Ca' Rainati",
      "native": "CA 'RAINATI",
      "type": "city",
      "level": null,
      "parent_id": null,
      "population": 1719,
      "latitude": "45.75764000",
      "longitude": "11.85113000",
      "timezone": "Europe/Rome",
      "wikiDataId": "Q3649086",
      "country_code": "IT",
      "state_code": "34",
      "state_id": 1753,
      "country_id": 107
    },
    {
      "id": 136443,
      "name": "Ка' Савио",
      "name_default": "Ca' Savio",
      "native": "Come 'Savio",
      "type": "adm3",
      "level": null,
      "parent_id": null,
      "population": 5737,
      "latitude": "45.45375000",
      "longitude": "12.45729000",
      "timezone": "Europe/Rome",
      "wikiDataId": "Q18503017",
      "country_code": "IT",
      "state_code": "34",
      "state_id": 1753,
      "country_id": 107
    },
    {
      "id": 136444,
      "name": "Ка' Тьеполо",
      "name_default": "Ca' Tiepolo",
      "native": "Ca' Tiepolo",
      "type": "adm3",
      "level": null,
      "parent_id": null,
      "population": 3666,
      "latitude": "44.94861000",
      "longitude": "12.33917000",
      "timezone": "Europe/Rome",
      "wikiDataId": "Q18499365",
      "country_code": "IT",
      "state_code": "34",
      "state_id": 1753,
      "country_id": 107
    },
    {
      "id": 136460,
      "name": "Кадонеге",
      "name_default": "Cadoneghe",
      "native": "Cadoneghe",
      "type": "city",
      "level": null,
      "parent_id": null,
      "population": 3045,
      "latitude": "45.44282000",
      "longitude": "11.92749000",
      "timezone": "Europe/Rome",
      "wikiDataId": "Q18473145",
      "country_code": "IT",
      "state_code": "34",
      "state_id": 1753,
      "country_id": 107
    },
    {
      "id": 136464,
      "name": "Каэрано ди Сан Марко",
      "name_default": "Caerano di San Marco",
      "native": "Caerano di San Marco",
      "type": "adm3",
      "level": null,
      "parent_id": null,
      "population": 7761,
      "latitude": "45.78160000",
      "longitude": "11.99851000",
      "timezone": "Europe/Rome",
      "wikiDataId": "Q3649521",
      "country_code": "IT",
      "state_code": "34",
      "state_id": 1753,
      "country_id": 107
    },
    {
      "id": 136487,
      "name": "Калальцо ди Кадоре",
      "name_default": "Calalzo di Cadore",
      "native": "Calalzo di Cadore",
      "type": "adm3",
      "level": null,
      "parent_id": null,
      "population": 1841,
      "latitude": "46.44643000",
      "longitude": "12.38176000",
      "timezone": "Europe/Rome",
      "wikiDataId": "Q1026145",
      "country_code": "IT",
      "state_code": "34",
      "state_id": 1753,
      "country_id": 107
    },
    {
      "id": 136516,
      "name": "Кальдиерино-Рота",
      "name_default": "Caldierino-Rota",
      "native": "Caldierino-Rota",
      "type": "city",
      "level": null,
      "parent_id": null,
      "population": 1126,
      "latitude": "45.41616000",
      "longitude": "11.15696000",
      "timezone": "Europe/Rome",
      "wikiDataId": "Q18504130",
      "country_code": "IT",
      "state_code": "34",
      "state_id": 1753,
      "country_id": 107
    },
    {
      "id": 136517,
      "name": "Кальдиеро",
      "name_default": "Caldiero",
      "native": "I Caldiero",
      "type": "adm3",
      "level": null,
      "parent_id": null,
      "population": 5743,
      "latitude": "45.41439000",
      "longitude": "11.17739000",
      "timezone": "Europe/Rome",
      "wikiDataId": "Q18504130",
      "country_code": "IT",
      "state_code": "34",
      "state_id": 1753,
      "country_id": 107
    },
    {
      "id": 136519,
      "name": "Кальдоньо-Ретторголе-Крезоле",
      "name_default": "Caldogno-Rettorgole-Cresole",
      "native": "Caldogno-Rettorgole-Cresole",
      "type": "adm3",
      "level": null,
      "parent_id": null,
      "population": 10361,
      "latitude": "45.60780000",
      "longitude": "11.50280000",
      "timezone": "Europe/Rome",
      "wikiDataId": "Q18486545",
      "country_code": "IT",
      "state_code": "34",
      "state_id": 1753,
      "country_id": 107
    },
    {
      "id": 136534,
      "name": "Кальмасино",
      "name_default": "Calmasino",
      "native": "Calmasino",
      "type": "city",
      "level": null,
      "parent_id": null,
      "population": 1011,
      "latitude": "45.52099000",
      "longitude": "10.75206000",
      "timezone": "Europe/Rome",
      "wikiDataId": "Q18504139",
      "country_code": "IT",
      "state_code": "34",
      "state_id": 1753,
      "country_id": 107
    },
    {
      "id": 136542,
      "name": "Кальтана",
      "name_default": "Caltana",
      "native": "Caltana",
      "type": "city",
      "level": null,
      "parent_id": null,
      "population": 2838,
      "latitude": "45.48278000",
      "longitude": "12.03002000",
      "timezone": "Europe/Rome",
      "wikiDataId": "Q18503049",
      "country_code": "IT",
      "state_code": "34",
      "state_id": 1753,
      "country_id": 107
    },
    {
      "id": 136546,
      "name": "Кальто",
      "name_default": "Calto",
      "native": "Calto",
      "type": "adm3",
      "level": null,
      "parent_id": null,
      "population": 662,
      "latitude": "44.99072000",
      "longitude": "11.35854000",
      "timezone": "Europe/Rome",
      "wikiDataId": "Q18503049",
      "country_code": "IT",
      "state_code": "34",
      "state_id": 1753,
      "country_id": 107
    },
    {
      "id": 136547,
      "name": "Кальтрано",
      "name_default": "Caltrano",
      "native": "Caltrano",
      "type": "adm3",
      "level": null,
      "parent_id": null,
      "population": 2497,
      "latitude": "45.77346000",
      "longitude": "11.45570000",
      "timezone": "Europe/Rome",
      "wikiDataId": "Q18503049",
      "country_code": "IT",
      "state_code": "34",
      "state_id": 1753,
      "country_id": 107
    },
    {
      "id": 136554,
      "name": "Кальвен",
      "name_default": "Calvene",
      "native": "Calvene",
      "type": "adm3",
      "level": null,
      "parent_id": null,
      "population": 980,
      "latitude": "45.76615000",
      "longitude": "11.51146000",
      "timezone": "Europe/Rome",
      "wikiDataId": "Q18503049",
      "country_code": "IT",
      "state_code": "34",
      "state_id": 1753,
      "country_id": 107
    },
    {
      "id": 136569,
      "name": "Камало",
      "name_default": "Camalò",
      "native": "Camalo",
      "type": "city",
      "level": null,
      "parent_id": null,
      "population": 2099,
      "latitude": "45.75324000",
      "longitude": "12.17165000",
      "timezone": "Europe/Rome",
      "wikiDataId": "Q3651123",
      "country_code": "IT",
      "state_code": "34",
      "state_id": 1753,
      "country_id": 107
    },
    {
      "id": 136593,
      "name": "Камизано Вичентино",
      "name_default": "Camisano Vicentino",
      "native": "Camisano Vicentino",
      "type": "adm3",
      "level": null,
      "parent_id": null,
      "population": 8244,
      "latitude": "45.52156000",
      "longitude": "11.70817000",
      "timezone": "Europe/Rome",
      "wikiDataId": "Q18453662",
      "country_code": "IT",
      "state_code": "34",
      "state_id": 1753,
      "country_id": 107
    },
    {
      "id": 136600,
      "name": "Кампанья Лупия",
      "name_default": "Campagna Lupia",
      "native": "Meteo a Campagna Lupia",
      "type": "adm3",
      "level": null,
      "parent_id": null,
      "population": 4333,
      "latitude": "45.35381000",
      "longitude": "12.09727000",
      "timezone": "Europe/Rome",
      "wikiDataId": "Q18465414",
      "country_code": "IT",
      "state_code": "34",
      "state_id": 1753,
      "country_id": 107
    },
    {
      "id": 136603,
      "name": "Кампаньола",
      "name_default": "Campagnola",
      "native": "Campagnola",
      "type": "city",
      "level": null,
      "parent_id": null,
      "population": 2470,
      "latitude": "45.27866000",
      "longitude": "11.99902000",
      "timezone": "Europe/Rome",
      "wikiDataId": "Q18497523",
      "country_code": "IT",
      "state_code": "34",
      "state_id": 1753,
      "country_id": 107
    },
    {
      "id": 136606,
      "name": "Кампальто",
      "name_default": "Campalto",
      "native": "Campalto",
      "type": "city",
      "level": null,
      "parent_id": null,
      "population": 3854,
      "latitude": "45.48062000",
      "longitude": "12.28747000",
      "timezone": "Europe/Rome",
      "wikiDataId": "Q635108",
      "country_code": "IT",
      "state_code": "34",
      "state_id": 1753,
      "country_id": 107
    },
    {
      "id": 136614,
      "name": "Кампезский",
      "name_default": "Campese",
      "native": "Campese",
      "type": "city",
      "level": null,
      "parent_id": null,
      "population": 1142,
      "latitude": "45.80580000",
      "longitude": "11.71289000",
      "timezone": "Europe/Rome",
      "wikiDataId": "Q2580419",
      "country_code": "IT",
      "state_code": "34",
      "state_id": 1753,
      "country_id": 107
    },
    {
      "id": 136619,
      "name": "Кампилья-деи-Беричи",
      "name_default": "Campiglia dei Berici",
      "native": "Campiglia dei Berici",
      "type": "adm3",
      "level": null,
      "parent_id": null,
      "population": 935,
      "latitude": "45.33546000",
      "longitude": "11.54210000",
      "timezone": "Europe/Rome",
      "wikiDataId": "Q2580419",
      "country_code": "IT",
      "state_code": "34",
      "state_id": 1753,
      "country_id": 107
    },
    {
      "id": 136631,
      "name": "Кампо Сан Мартино",
      "name_default": "Campo San Martino",
      "native": "Campo San Martino",
      "type": "adm3",
      "level": null,
      "parent_id": null,
      "population": 3703,
      "latitude": "45.54868000",
      "longitude": "11.82809000",
      "timezone": "Europe/Rome",
      "wikiDataId": "Q2935545",
      "country_code": "IT",
      "state_code": "34",
      "state_id": 1753,
      "country_id": 107
    },
    {
      "id": 136644,
      "name": "Камподарсего",
      "name_default": "Campodarsego",
      "native": "Campodarsego",
      "type": "adm3",
      "level": null,
      "parent_id": null,
      "population": 11971,
      "latitude": "45.49815000",
      "longitude": "11.92194000",
      "timezone": "Europe/Rome",
      "wikiDataId": "Q3654723",
      "country_code": "IT",
      "state_code": "34",
      "state_id": 1753,
      "country_id": 107
    },
    {
      "id": 136649,
      "name": "Камподоро",
      "name_default": "Campodoro",
      "native": "Campodoro",
      "type": "adm3",
      "level": null,
      "parent_id": null,
      "population": 1207,
      "latitude": "45.48947000",
      "longitude": "11.75268000",
      "timezone": "Europe/Rome",
      "wikiDataId": "Q3654723",
      "country_code": "IT",
      "state_code": "34",
      "state_id": 1753,
      "country_id": 107
    },
    {
      "id": 136663,
      "name": "Камполонго Маджоре Лиеттоли",
      "name_default": "Campolongo Maggiore Liettoli",
      "native": "Lizollol Bointship Campolong",
      "type": "adm3",
      "level": null,
      "parent_id": null,
      "population": 3578,
      "latitude": "45.33944000",
      "longitude": "12.02417000",
      "timezone": "Europe/Rome",
      "wikiDataId": "Q18503069",
      "country_code": "IT",
      "state_code": "34",
      "state_id": 1753,
      "country_id": 107
    },
    {
      "id": 136666,
      "name": "Камполонго-суль-Брента",
      "name_default": "Campolongo sul Brenta",
      "native": "Campolongo sul Brenta",
      "type": "adm3",
      "level": null,
      "parent_id": null,
      "population": 639,
      "latitude": "45.82710000",
      "longitude": "11.70080000",
      "timezone": "Europe/Rome",
      "wikiDataId": "Q18450226",
      "country_code": "IT",
      "state_code": "34",
      "state_id": 1753,
      "country_id": 107
    },
    {
      "id": 136671,
      "name": "Кампоногара",
      "name_default": "Camponogara",
      "native": "Contadino",
      "type": "adm3",
      "level": null,
      "parent_id": null,
      "population": 12942,
      "latitude": "45.37954000",
      "longitude": "12.08638000",
      "timezone": "Europe/Rome",
      "wikiDataId": "Q18505155",
      "country_code": "IT",
      "state_code": "34",
      "state_id": 1753,
      "country_id": 107
    },
    {
      "id": 136679,
      "name": "Кампосампьеро",
      "name_default": "Camposampiero",
      "native": "Camposampiero",
      "type": "adm3",
      "level": null,
      "parent_id": null,
      "population": 8722,
      "latitude": "45.56368000",
      "longitude": "11.93534000",
      "timezone": "Europe/Rome",
      "wikiDataId": "Q37672",
      "country_code": "IT",
      "state_code": "34",
      "state_id": 1753,
      "country_id": 107
    },
    {
      "id": 136689,
      "name": "Канале д'Агордо",
      "name_default": "Canale d'Agordo",
      "native": "Canale d'Agordo",
      "type": "adm3",
      "level": null,
      "parent_id": null,
      "population": 718,
      "latitude": "46.35693000",
      "longitude": "11.91429000",
      "timezone": "Europe/Rome",
      "wikiDataId": "Q2540274",
      "country_code": "IT",
      "state_code": "34",
      "state_id": 1753,
      "country_id": 107
    },
    {
      "id": 136691,
      "name": "Канаро",
      "name_default": "Canaro",
      "native": "Canaro",
      "type": "adm3",
      "level": null,
      "parent_id": null,
      "population": 1494,
      "latitude": "44.93394000",
      "longitude": "11.67541000",
      "timezone": "Europe/Rome",
      "wikiDataId": "Q2583458",
      "country_code": "IT",
      "state_code": "34",
      "state_id": 1753,
      "country_id": 107
    },
    {
      "id": 136696,
      "name": "Канда",
      "name_default": "Canda",
      "native": "Candela",
      "type": "adm3",
      "level": null,
      "parent_id": null,
      "population": 658,
      "latitude": "45.03608000",
      "longitude": "11.50331000",
      "timezone": "Europe/Rome",
      "wikiDataId": "Q16536208",
      "country_code": "IT",
      "state_code": "34",
      "state_id": 1753,
      "country_id": 107
    },
    {
      "id": 136699,
      "name": "Канделу",
      "name_default": "Candelù",
      "native": "Candelù",
      "type": "city",
      "level": null,
      "parent_id": null,
      "population": 1071,
      "latitude": "45.73499000",
      "longitude": "12.37224000",
      "timezone": "Europe/Rome",
      "wikiDataId": "Q18501043",
      "country_code": "IT",
      "state_code": "34",
      "state_id": 1753,
      "country_id": 107
    },
    {
      "id": 136702,
      "name": "Кандиана",
      "name_default": "Candiana",
      "native": "Candana",
      "type": "adm3",
      "level": null,
      "parent_id": null,
      "population": 1115,
      "latitude": "45.22184000",
      "longitude": "11.99256000",
      "timezone": "Europe/Rome",
      "wikiDataId": "Q18501043",
      "country_code": "IT",
      "state_code": "34",
      "state_id": 1753,
      "country_id": 107
    },
    {
      "id": 136704,
      "name": "Кандид",
      "name_default": "Candide",
      "native": "Candido",
      "type": "adm3",
      "level": null,
      "parent_id": null,
      "population": 836,
      "latitude": "46.58913000",
      "longitude": "12.51476000",
      "timezone": "Europe/Rome",
      "wikiDataId": "Q18501043",
      "country_code": "IT",
      "state_code": "34",
      "state_id": 1753,
      "country_id": 107
    },
    {
      "id": 136713,
      "name": "Каньецца",
      "name_default": "Caniezza",
      "native": "Caniezza",
      "type": "adm3",
      "level": null,
      "parent_id": null,
      "population": 1778,
      "latitude": "45.85274000",
      "longitude": "11.89900000",
      "timezone": "Europe/Rome",
      "wikiDataId": "Q18501047",
      "country_code": "IT",
      "state_code": "34",
      "state_id": 1753,
      "country_id": 107
    },
    {
      "id": 136735,
      "name": "Канове ди Роана",
      "name_default": "Canove di Roana",
      "native": "Canove di Roana",
      "type": "adm3",
      "level": null,
      "parent_id": null,
      "population": 1269,
      "latitude": "45.86350000",
      "longitude": "11.47350000",
      "timezone": "Europe/Rome",
      "wikiDataId": "Q18506036",
      "country_code": "IT",
      "state_code": "34",
      "state_id": 1753,
      "country_id": 107
    },
    {
      "id": 136754,
      "name": "Каорле",
      "name_default": "Caorle",
      "native": "Caorle",
      "type": "adm3",
      "level": null,
      "parent_id": null,
      "population": 7511,
      "latitude": "45.59656000",
      "longitude": "12.87580000",
      "timezone": "Europe/Rome",
      "wikiDataId": "Q18429629",
      "country_code": "IT",
      "state_code": "34",
      "state_id": 1753,
      "country_id": 107
    },
    {
      "id": 136773,
      "name": "Капителло",
      "name_default": "Capitello",
      "native": "Capitello",
      "type": "adm3",
      "level": null,
      "parent_id": null,
      "population": 664,
      "latitude": "45.20792000",
      "longitude": "11.14014000",
      "timezone": "Europe/Rome",
      "wikiDataId": "Q18504209",
      "country_code": "IT",
      "state_code": "34",
      "state_id": 1753,
      "country_id": 107
    },
    {
      "id": 136792,
      "name": "Капелла Маджоре",
      "name_default": "Cappella Maggiore",
      "native": "Cappella Maggiore",
      "type": "adm3",
      "level": null,
      "parent_id": null,
      "population": 4645,
      "latitude": "45.97222000",
      "longitude": "12.35855000",
      "timezone": "Europe/Rome",
      "wikiDataId": "Q18426527",
      "country_code": "IT",
      "state_code": "34",
      "state_id": 1753,
      "country_id": 107
    },
    {
      "id": 136822,
      "name": "Каприно Веронезе",
      "name_default": "Caprino Veronese",
      "native": "Caprino Veronese",
      "type": "adm3",
      "level": null,
      "parent_id": null,
      "population": 3629,
      "latitude": "45.60489000",
      "longitude": "10.79518000",
      "timezone": "Europe/Rome",
      "wikiDataId": "Q18509327",
      "country_code": "IT",
      "state_code": "34",
      "state_id": 1753,
      "country_id": 107
    },
    {
      "id": 136851,
      "name": "Карбонера",
      "name_default": "Carbonera",
      "native": "Carbone",
      "type": "adm3",
      "level": null,
      "parent_id": null,
      "population": 4276,
      "latitude": "45.69182000",
      "longitude": "12.28255000",
      "timezone": "Europe/Rome",
      "wikiDataId": "Q583609",
      "country_code": "IT",
      "state_code": "34",
      "state_id": 1753,
      "country_id": 107
    },
    {
      "id": 136854,
      "name": "Карцери",
      "name_default": "Carceri",
      "native": "Carceri",
      "type": "adm3",
      "level": null,
      "parent_id": null,
      "population": 748,
      "latitude": "45.19508000",
      "longitude": "11.62115000",
      "timezone": "Europe/Rome",
      "wikiDataId": "Q583609",
      "country_code": "IT",
      "state_code": "34",
      "state_id": 1753,
      "country_id": 107
    },
    {
      "id": 136893,
      "name": "Карминьяно ди Брента",
      "name_default": "Carmignano di Brenta",
      "native": "Carmignano di Brenta",
      "type": "adm3",
      "level": null,
      "parent_id": null,
      "population": 7383,
      "latitude": "45.62578000",
      "longitude": "11.70599000",
      "timezone": "Europe/Rome",
      "wikiDataId": "Q18467565",
      "country_code": "IT",
      "state_code": "34",
      "state_id": 1753,
      "country_id": 107
    },
    {
      "id": 136912,
      "name": "Карпесика",
      "name_default": "Carpesica",
      "native": "Carpesica",
      "type": "city",
      "level": null,
      "parent_id": null,
      "population": 1155,
      "latitude": "45.95335000",
      "longitude": "12.29126000",
      "timezone": "Europe/Rome",
      "wikiDataId": "Q3660665",
      "country_code": "IT",
      "state_code": "34",
      "state_id": 1753,
      "country_id": 107
    },
    {
      "id": 136925,
      "name": "Каррара Сан Джорджио",
      "name_default": "Carrara San Giorgio",
      "native": "Carrara San Giorgio",
      "type": "adm3",
      "level": null,
      "parent_id": null,
      "population": 8101,
      "latitude": "45.29259000",
      "longitude": "11.81841000",
      "timezone": "Europe/Rome",
      "wikiDataId": "Q18497575",
      "country_code": "IT",
      "state_code": "34",
      "state_id": 1753,
      "country_id": 107
    },
    {
      "id": 136934,
      "name": "Карре",
      "name_default": "Carrè",
      "native": "Carrè",
      "type": "adm3",
      "level": null,
      "parent_id": null,
      "population": 3504,
      "latitude": "45.74880000",
      "longitude": "11.45779000",
      "timezone": "Europe/Rome",
      "wikiDataId": "Q18461230",
      "country_code": "IT",
      "state_code": "34",
      "state_id": 1753,
      "country_id": 107
    },
    {
      "id": 136938,
      "name": "Картильяно",
      "name_default": "Cartigliano",
      "native": "Cartigliano",
      "type": "adm3",
      "level": null,
      "parent_id": null,
      "population": 3666,
      "latitude": "45.71300000",
      "longitude": "11.69560000",
      "timezone": "Europe/Rome",
      "wikiDataId": "Q18452794",
      "country_code": "IT",
      "state_code": "34",
      "state_id": 1753,
      "country_id": 107
    },
    {
      "id": 136942,
      "name": "Картура",
      "name_default": "Cartura",
      "native": "Carto",
      "type": "adm3",
      "level": null,
      "parent_id": null,
      "population": 2094,
      "latitude": "45.26839000",
      "longitude": "11.85681000",
      "timezone": "Europe/Rome",
      "wikiDataId": "Q18452794",
      "country_code": "IT",
      "state_code": "34",
      "state_id": 1753,
      "country_id": 107
    },
    {
      "id": 136955,
      "name": "Касакорба",
      "name_default": "Casacorba",
      "native": "Casacorba",
      "type": "city",
      "level": null,
      "parent_id": null,
      "population": 1124,
      "latitude": "45.65944000",
      "longitude": "12.03889000",
      "timezone": "Europe/Rome",
      "wikiDataId": "Q3661381",
      "country_code": "IT",
      "state_code": "34",
      "state_id": 1753,
      "country_id": 107
    },
    {
      "id": 136979,
      "name": "Casale di Scodosia",
      "name_default": "Casale di Scodosia",
      "native": "Casale di Scodosia",
      "type": "adm3",
      "level": null,
      "parent_id": null,
      "population": 4647,
      "latitude": "45.19225000",
      "longitude": "11.47442000",
      "timezone": "Europe/Rome",
      "wikiDataId": "Q18442111",
      "country_code": "IT",
      "state_code": "34",
      "state_id": 1753,
      "country_id": 107
    },
    {
      "id": 136980,
      "name": "Casale sul Sile",
      "name_default": "Casale sul Sile",
      "native": "Casale sul Sile",
      "type": "adm3",
      "level": null,
      "parent_id": null,
      "population": 7951,
      "latitude": "45.59638000",
      "longitude": "12.32655000",
      "timezone": "Europe/Rome",
      "wikiDataId": "Q18442111",
      "country_code": "IT",
      "state_code": "34",
      "state_id": 1753,
      "country_id": 107
    },
    {
      "id": 136984,
      "name": "Казалеоне",
      "name_default": "Casaleone",
      "native": "Casaleone",
      "type": "adm3",
      "level": null,
      "parent_id": null,
      "population": 5554,
      "latitude": "45.16821000",
      "longitude": "11.19401000",
      "timezone": "Europe/Rome",
      "wikiDataId": "Q18442111",
      "country_code": "IT",
      "state_code": "34",
      "state_id": 1753,
      "country_id": 107
    },
    {
      "id": 137008,
      "name": "Казальсеруго",
      "name_default": "Casalserugo",
      "native": "Casalserugo",
      "type": "adm3",
      "level": null,
      "parent_id": null,
      "population": 3919,
      "latitude": "45.31549000",
      "longitude": "11.91232000",
      "timezone": "Europe/Rome",
      "wikiDataId": "Q3661449",
      "country_code": "IT",
      "state_code": "34",
      "state_id": 1753,
      "country_id": 107
    },
    {
      "id": 137059,
      "name": "Казелле",
      "name_default": "Caselle",
      "native": "Caselle",
      "type": "city",
      "level": null,
      "parent_id": null,
      "population": 2307,
      "latitude": "45.74965000",
      "longitude": "11.98004000",
      "timezone": "Europe/Rome",
      "wikiDataId": "Q18501464",
      "country_code": "IT",
      "state_code": "34",
      "state_id": 1753,
      "country_id": 107
    },
    {
      "id": 137068,
      "name": "Казье",
      "name_default": "Casier",
      "native": "Armadietto",
      "type": "city",
      "level": null,
      "parent_id": null,
      "population": 3508,
      "latitude": "45.64229000",
      "longitude": "12.29328000",
      "timezone": "Europe/Rome",
      "wikiDataId": "Q3661732",
      "country_code": "IT",
      "state_code": "34",
      "state_id": 1753,
      "country_id": 107
    },
    {
      "id": 137085,
      "name": "Касони",
      "name_default": "Casoni",
      "native": "Compiti a casa",
      "type": "city",
      "level": null,
      "parent_id": null,
      "population": 2509,
      "latitude": "45.75943000",
      "longitude": "11.81045000",
      "timezone": "Europe/Rome",
      "wikiDataId": "Q13212147",
      "country_code": "IT",
      "state_code": "34",
      "state_id": 1753,
      "country_id": 107
    },
    {
      "id": 137114,
      "name": "Кассола",
      "name_default": "Cassola",
      "native": "Padella",
      "type": "adm3",
      "level": null,
      "parent_id": null,
      "population": 3825,
      "latitude": "45.73360000",
      "longitude": "11.79940000",
      "timezone": "Europe/Rome",
      "wikiDataId": "Q3662014",
      "country_code": "IT",
      "state_code": "34",
      "state_id": 1753,
      "country_id": 107
    },
    {
      "id": 137116,
      "name": "Кастаньяро",
      "name_default": "Castagnaro",
      "native": "Castagnaro",
      "type": "adm3",
      "level": null,
      "parent_id": null,
      "population": 2764,
      "latitude": "45.11795000",
      "longitude": "11.40911000",
      "timezone": "Europe/Rome",
      "wikiDataId": "Q3662014",
      "country_code": "IT",
      "state_code": "34",
      "state_id": 1753,
      "country_id": 107
    },
    {
      "id": 137120,
      "name": "Кастаньоле",
      "name_default": "Castagnole",
      "native": "Castagnole",
      "type": "city",
      "level": null,
      "parent_id": null,
      "population": 2983,
      "latitude": "45.68852000",
      "longitude": "12.18260000",
      "timezone": "Europe/Rome",
      "wikiDataId": "Q3662063",
      "country_code": "IT",
      "state_code": "34",
      "state_id": 1753,
      "country_id": 107
    },
    {
      "id": 137176,
      "name": "Кастельбальдо",
      "name_default": "Castelbaldo",
      "native": "Castelbaldo",
      "type": "adm3",
      "level": null,
      "parent_id": null,
      "population": 1420,
      "latitude": "45.12226000",
      "longitude": "11.45517000",
      "timezone": "Europe/Rome",
      "wikiDataId": "Q18461236",
      "country_code": "IT",
      "state_code": "34",
      "state_id": 1753,
      "country_id": 107
    },
    {
      "id": 137187,
      "name": "Кастелькукко",
      "name_default": "Castelcucco",
      "native": "Castelcucco",
      "type": "adm3",
      "level": null,
      "parent_id": null,
      "population": 1667,
      "latitude": "45.83024000",
      "longitude": "11.88296000",
      "timezone": "Europe/Rome",
      "wikiDataId": "Q3662204",
      "country_code": "IT",
      "state_code": "34",
      "state_id": 1753,
      "country_id": 107
    },
    {
      "id": 137198,
      "name": "Кастельфранко Венето",
      "name_default": "Castelfranco Veneto",
      "native": "Castelfranco Veneto",
      "type": "adm3",
      "level": null,
      "parent_id": null,
      "population": 25545,
      "latitude": "45.67146000",
      "longitude": "11.92755000",
      "timezone": "Europe/Rome",
      "wikiDataId": "Q3662204",
      "country_code": "IT",
      "state_code": "34",
      "state_id": 1753,
      "country_id": 107
    },
    {
      "id": 137202,
      "name": "Кастельгомберто",
      "name_default": "Castelgomberto",
      "native": "Castelgomberto",
      "type": "adm3",
      "level": null,
      "parent_id": null,
      "population": 4166,
      "latitude": "45.58267000",
      "longitude": "11.39007000",
      "timezone": "Europe/Rome",
      "wikiDataId": "Q52072",
      "country_code": "IT",
      "state_code": "34",
      "state_id": 1753,
      "country_id": 107
    },
    {
      "id": 137204,
      "name": "Кастельгульельмо",
      "name_default": "Castelguglielmo",
      "native": "Meteo in Castelguglielmelmo",
      "type": "adm3",
      "level": null,
      "parent_id": null,
      "population": 833,
      "latitude": "45.02539000",
      "longitude": "11.53690000",
      "timezone": "Europe/Rome",
      "wikiDataId": "Q52072",
      "country_code": "IT",
      "state_code": "34",
      "state_id": 1753,
      "country_id": 107
    },
    {
      "id": 137262,
      "name": "Кастелло ди Годего",
      "name_default": "Castello di Godego",
      "native": "Castello di Godego",
      "type": "adm3",
      "level": null,
      "parent_id": null,
      "population": 3311,
      "latitude": "45.69270000",
      "longitude": "11.87998000",
      "timezone": "Europe/Rome",
      "wikiDataId": "Q18478844",
      "country_code": "IT",
      "state_code": "34",
      "state_id": 1753,
      "country_id": 107
    },
    {
      "id": 137270,
      "name": "Кастельмасса",
      "name_default": "Castelmassa",
      "native": "Nella casta",
      "type": "adm3",
      "level": null,
      "parent_id": null,
      "population": 3988,
      "latitude": "45.01826000",
      "longitude": "11.31505000",
      "timezone": "Europe/Rome",
      "wikiDataId": "Q18471990",
      "country_code": "IT",
      "state_code": "34",
      "state_id": 1753,
      "country_id": 107
    },
    {
      "id": 137274,
      "name": "Кастельминио",
      "name_default": "Castelminio",
      "native": "Castelminio",
      "type": "city",
      "level": null,
      "parent_id": null,
      "population": 2539,
      "latitude": "45.64493000",
      "longitude": "11.98734000",
      "timezone": "Europe/Rome",
      "wikiDataId": "Q3663000",
      "country_code": "IT",
      "state_code": "34",
      "state_id": 1753,
      "country_id": 107
    },
    {
      "id": 137277,
      "name": "Кастельново",
      "name_default": "Castelnovo",
      "native": "Castelnovo",
      "type": "city",
      "level": null,
      "parent_id": null,
      "population": 3229,
      "latitude": "45.61557000",
      "longitude": "11.45938000",
      "timezone": "Europe/Rome",
      "wikiDataId": "Q18506114",
      "country_code": "IT",
      "state_code": "34",
      "state_id": 1753,
      "country_id": 107
    },
    {
      "id": 137278,
      "name": "Кастельново Барьяно",
      "name_default": "Castelnovo Bariano",
      "native": "Castelnovo Bariano",
      "type": "adm3",
      "level": null,
      "parent_id": null,
      "population": 1234,
      "latitude": "45.02738000",
      "longitude": "11.28760000",
      "timezone": "Europe/Rome",
      "wikiDataId": "Q18506114",
      "country_code": "IT",
      "state_code": "34",
      "state_id": 1753,
      "country_id": 107
    },
    {
      "id": 137297,
      "name": "Кастельнуово-дель-Гарда",
      "name_default": "Castelnuovo del Garda",
      "native": "Castelnuovo del Garda",
      "type": "adm3",
      "level": null,
      "parent_id": null,
      "population": 5341,
      "latitude": "45.43878000",
      "longitude": "10.75978000",
      "timezone": "Europe/Rome",
      "wikiDataId": "Q3663015",
      "country_code": "IT",
      "state_code": "34",
      "state_id": 1753,
      "country_id": 107
    },
    {
      "id": 137362,
      "name": "Кастион",
      "name_default": "Castion",
      "native": "Castione",
      "type": "city",
      "level": null,
      "parent_id": null,
      "population": 2357,
      "latitude": "46.12147000",
      "longitude": "12.23507000",
      "timezone": "Europe/Rome",
      "wikiDataId": "Q3663071",
      "country_code": "IT",
      "state_code": "34",
      "state_id": 1753,
      "country_id": 107
    },
    {
      "id": 137411,
      "name": "Кавайон Веронезе",
      "name_default": "Cavajon Veronese",
      "native": "Cavajon Veronese",
      "type": "adm3",
      "level": null,
      "parent_id": null,
      "population": 3502,
      "latitude": "45.54009000",
      "longitude": "10.77048000",
      "timezone": "Europe/Rome",
      "wikiDataId": "Q18429260",
      "country_code": "IT",
      "state_code": "34",
      "state_id": 1753,
      "country_id": 107
    },
    {
      "id": 137412,
      "name": "Кавалькаселье",
      "name_default": "Cavalcaselle",
      "native": "Cavalcaselle",
      "type": "city",
      "level": null,
      "parent_id": null,
      "population": 2557,
      "latitude": "45.43695000",
      "longitude": "10.72652000",
      "timezone": "Europe/Rome",
      "wikiDataId": "Q18504337",
      "country_code": "IT",
      "state_code": "34",
      "state_id": 1753,
      "country_id": 107
    },
    {
      "id": 137419,
      "name": "Каваллино",
      "name_default": "Cavallino",
      "native": "Cavallino",
      "type": "city",
      "level": null,
      "parent_id": null,
      "population": 2881,
      "latitude": "45.47456000",
      "longitude": "12.54855000",
      "timezone": "Europe/Rome",
      "wikiDataId": "Q18503180",
      "country_code": "IT",
      "state_code": "34",
      "state_id": 1753,
      "country_id": 107
    },
    {
      "id": 137424,
      "name": "Каварзере",
      "name_default": "Cavarzere",
      "native": "Cavarzere",
      "type": "adm3",
      "level": null,
      "parent_id": null,
      "population": 8992,
      "latitude": "45.13518000",
      "longitude": "12.08453000",
      "timezone": "Europe/Rome",
      "wikiDataId": "Q18503180",
      "country_code": "IT",
      "state_code": "34",
      "state_id": 1753,
      "country_id": 107
    },
    {
      "id": 137425,
      "name": "Кавазо дель Томба",
      "name_default": "Cavaso del Tomba",
      "native": "Cavaso del Tomba",
      "type": "adm3",
      "level": null,
      "parent_id": null,
      "population": 2911,
      "latitude": "45.86071000",
      "longitude": "11.89840000",
      "timezone": "Europe/Rome",
      "wikiDataId": "Q18503180",
      "country_code": "IT",
      "state_code": "34",
      "state_id": 1753,
      "country_id": 107
    },
    {
      "id": 137437,
      "name": "Кавино",
      "name_default": "Cavino",
      "native": "Cavino",
      "type": "city",
      "level": null,
      "parent_id": null,
      "population": 1701,
      "latitude": "45.51709000",
      "longitude": "11.88466000",
      "timezone": "Europe/Rome",
      "wikiDataId": "Q2123346",
      "country_code": "IT",
      "state_code": "34",
      "state_id": 1753,
      "country_id": 107
    },
    {
      "id": 137447,
      "name": "Cazzago-Ex Polo",
      "name_default": "Cazzago-Ex Polo",
      "native": "Cazzago-Ex Polo",
      "type": "city",
      "level": null,
      "parent_id": null,
      "population": 4226,
      "latitude": "45.44159000",
      "longitude": "12.07406000",
      "timezone": "Europe/Rome",
      "wikiDataId": "Q18503192",
      "country_code": "IT",
      "state_code": "34",
      "state_id": 1753,
      "country_id": 107
    },
    {
      "id": 137449,
      "name": "Каццано ди Траминья",
      "name_default": "Cazzano di Tramigna",
      "native": "Cazzano di Tramigna",
      "type": "adm3",
      "level": null,
      "parent_id": null,
      "population": 851,
      "latitude": "45.47309000",
      "longitude": "11.20289000",
      "timezone": "Europe/Rome",
      "wikiDataId": "Q18503192",
      "country_code": "IT",
      "state_code": "34",
      "state_id": 1753,
      "country_id": 107
    },
    {
      "id": 137460,
      "name": "Чеджия",
      "name_default": "Ceggia",
      "native": "Ceggia",
      "type": "adm3",
      "level": null,
      "parent_id": null,
      "population": 6095,
      "latitude": "45.68700000",
      "longitude": "12.64228000",
      "timezone": "Europe/Rome",
      "wikiDataId": "Q18473176",
      "country_code": "IT",
      "state_code": "34",
      "state_id": 1753,
      "country_id": 107
    },
    {
      "id": 137463,
      "name": "Celat-San Tomaso Agordino",
      "name_default": "Celat-San Tomaso Agordino",
      "native": "Celat-San Tomaso Agordino",
      "type": "adm3",
      "level": null,
      "parent_id": null,
      "population": 80,
      "latitude": "46.38072000",
      "longitude": "11.97439000",
      "timezone": "Europe/Rome",
      "wikiDataId": "Q18496305",
      "country_code": "IT",
      "state_code": "34",
      "state_id": 1753,
      "country_id": 107
    },
    {
      "id": 137483,
      "name": "Целлор",
      "name_default": "Cellore",
      "native": "Manzo",
      "type": "city",
      "level": null,
      "parent_id": null,
      "population": 1207,
      "latitude": "45.48646000",
      "longitude": "11.17831000",
      "timezone": "Europe/Rome",
      "wikiDataId": "Q3664290",
      "country_code": "IT",
      "state_code": "34",
      "state_id": 1753,
      "country_id": 107
    },
    {
      "id": 137489,
      "name": "Ченчениге Агордино",
      "name_default": "Cencenighe Agordino",
      "native": "Cencenighe Agordino",
      "type": "adm3",
      "level": null,
      "parent_id": null,
      "population": 1213,
      "latitude": "46.35184000",
      "longitude": "11.96823000",
      "timezone": "Europe/Rome",
      "wikiDataId": "Q18466935",
      "country_code": "IT",
      "state_code": "34",
      "state_id": 1753,
      "country_id": 107
    },
    {
      "id": 137490,
      "name": "Сендон",
      "name_default": "Cendon",
      "native": "Un centesimo",
      "type": "city",
      "level": null,
      "parent_id": null,
      "population": 1068,
      "latitude": "45.63804000",
      "longitude": "12.32505000",
      "timezone": "Europe/Rome",
      "wikiDataId": "Q1820913",
      "country_code": "IT",
      "state_code": "34",
      "state_id": 1753,
      "country_id": 107
    },
    {
      "id": 137492,
      "name": "Ченезелли",
      "name_default": "Ceneselli",
      "native": "Ceneselli",
      "type": "adm3",
      "level": null,
      "parent_id": null,
      "population": 934,
      "latitude": "45.01377000",
      "longitude": "11.36936000",
      "timezone": "Europe/Rome",
      "wikiDataId": "Q1820913",
      "country_code": "IT",
      "state_code": "34",
      "state_id": 1753,
      "country_id": 107
    },
    {
      "id": 137501,
      "name": "Центральный",
      "name_default": "Centrale",
      "native": "Centrale",
      "type": "city",
      "level": null,
      "parent_id": null,
      "population": 1231,
      "latitude": "45.72737000",
      "longitude": "11.48031000",
      "timezone": "Europe/Rome",
      "wikiDataId": "Q18506133",
      "country_code": "IT",
      "state_code": "34",
      "state_id": 1753,
      "country_id": 107
    },
    {
      "id": 137530,
      "name": "Цереа",
      "name_default": "Cerea",
      "native": "chiesto",
      "type": "adm3",
      "level": null,
      "parent_id": null,
      "population": 12869,
      "latitude": "45.18936000",
      "longitude": "11.21661000",
      "timezone": "Europe/Rome",
      "wikiDataId": "Q18492542",
      "country_code": "IT",
      "state_code": "34",
      "state_id": 1753,
      "country_id": 107
    },
    {
      "id": 137531,
      "name": "Середа-Коцца Корнедо",
      "name_default": "Cereda-Cozza Cornedo",
      "native": "Cereda-Cozza Cornedo",
      "type": "city",
      "level": null,
      "parent_id": null,
      "population": 1465,
      "latitude": "45.60181000",
      "longitude": "11.36740000",
      "timezone": "Europe/Rome",
      "wikiDataId": "Q18506142",
      "country_code": "IT",
      "state_code": "34",
      "state_id": 1753,
      "country_id": 107
    },
    {
      "id": 137532,
      "name": "Череньяно",
      "name_default": "Ceregnano",
      "native": "Ceregnano",
      "type": "adm3",
      "level": null,
      "parent_id": null,
      "population": 1253,
      "latitude": "45.04811000",
      "longitude": "11.86792000",
      "timezone": "Europe/Rome",
      "wikiDataId": "Q18506142",
      "country_code": "IT",
      "state_code": "34",
      "state_id": 1753,
      "country_id": 107
    },
    {
      "id": 137574,
      "name": "Серро Веронезе",
      "name_default": "Cerro Veronese",
      "native": "Cerro Veronese",
      "type": "adm3",
      "level": null,
      "parent_id": null,
      "population": 1978,
      "latitude": "45.57449000",
      "longitude": "11.04159000",
      "timezone": "Europe/Rome",
      "wikiDataId": "Q18427252",
      "country_code": "IT",
      "state_code": "34",
      "state_id": 1753,
      "country_id": 107
    },
    {
      "id": 137583,
      "name": "Черварезе Санта-Кроче",
      "name_default": "Cervarese Santa Croce",
      "native": "Cervarese Santa Croce",
      "type": "adm3",
      "level": null,
      "parent_id": null,
      "population": 1026,
      "latitude": "45.42439000",
      "longitude": "11.68790000",
      "timezone": "Europe/Rome",
      "wikiDataId": "Q18473289",
      "country_code": "IT",
      "state_code": "34",
      "state_id": 1753,
      "country_id": 107
    },
    {
      "id": 137608,
      "name": "Чезароло",
      "name_default": "Cesarolo",
      "native": "Cesarolo",
      "type": "city",
      "level": null,
      "parent_id": null,
      "population": 1651,
      "latitude": "45.71884000",
      "longitude": "13.01555000",
      "timezone": "Europe/Rome",
      "wikiDataId": "Q18503199",
      "country_code": "IT",
      "state_code": "34",
      "state_id": 1753,
      "country_id": 107
    },
    {
      "id": 137615,
      "name": "Чезиомаджоре",
      "name_default": "Cesiomaggiore",
      "native": "Cesiomaggiore",
      "type": "adm3",
      "level": null,
      "parent_id": null,
      "population": 843,
      "latitude": "46.08675000",
      "longitude": "11.98539000",
      "timezone": "Europe/Rome",
      "wikiDataId": "Q18503199",
      "country_code": "IT",
      "state_code": "34",
      "state_id": 1753,
      "country_id": 107
    },
    {
      "id": 137616,
      "name": "Чессальто",
      "name_default": "Cessalto",
      "native": "Cessalto",
      "type": "adm3",
      "level": null,
      "parent_id": null,
      "population": 1734,
      "latitude": "45.71356000",
      "longitude": "12.61302000",
      "timezone": "Europe/Rome",
      "wikiDataId": "Q18503199",
      "country_code": "IT",
      "state_code": "34",
      "state_id": 1753,
      "country_id": 107
    },
    {
      "id": 137641,
      "name": "Чиампа",
      "name_default": "Chiampo",
      "native": "Chiampo",
      "type": "adm3",
      "level": null,
      "parent_id": null,
      "population": 12531,
      "latitude": "45.54746000",
      "longitude": "11.28285000",
      "timezone": "Europe/Rome",
      "wikiDataId": "Q18495325",
      "country_code": "IT",
      "state_code": "34",
      "state_id": 1753,
      "country_id": 107
    },
    {
      "id": 137650,
      "name": "Кьярано",
      "name_default": "Chiarano",
      "native": "Chiarano",
      "type": "adm3",
      "level": null,
      "parent_id": null,
      "population": 1639,
      "latitude": "45.72959000",
      "longitude": "12.57166000",
      "timezone": "Europe/Rome",
      "wikiDataId": "Q18462653",
      "country_code": "IT",
      "state_code": "34",
      "state_id": 1753,
      "country_id": 107
    },
    {
      "id": 137677,
      "name": "Кьоджа",
      "name_default": "Chioggia",
      "native": "Chioggia",
      "type": "adm3",
      "level": null,
      "parent_id": null,
      "population": 47559,
      "latitude": "45.21857000",
      "longitude": "12.27774000",
      "timezone": "Europe/Rome",
      "wikiDataId": "Q18490144",
      "country_code": "IT",
      "state_code": "34",
      "state_id": 1753,
      "country_id": 107
    },
    {
      "id": 137684,
      "name": "Кьюппано",
      "name_default": "Chiuppano",
      "native": "Chiuppano",
      "type": "adm3",
      "level": null,
      "parent_id": null,
      "population": 2528,
      "latitude": "45.76300000",
      "longitude": "11.45777000",
      "timezone": "Europe/Rome",
      "wikiDataId": "Q2586177",
      "country_code": "IT",
      "state_code": "34",
      "state_id": 1753,
      "country_id": 107
    },
    {
      "id": 137703,
      "name": "Чиано",
      "name_default": "Ciano",
      "native": "Ciano",
      "type": "city",
      "level": null,
      "parent_id": null,
      "population": 1594,
      "latitude": "45.82389000",
      "longitude": "12.05417000",
      "timezone": "Europe/Rome",
      "wikiDataId": "Q18501543",
      "country_code": "IT",
      "state_code": "34",
      "state_id": 1753,
      "country_id": 107
    },
    {
      "id": 137706,
      "name": "Чибиана",
      "name_default": "Cibiana",
      "native": "Cibian",
      "type": "adm3",
      "level": null,
      "parent_id": null,
      "population": 156,
      "latitude": "46.38856000",
      "longitude": "12.28658000",
      "timezone": "Europe/Rome",
      "wikiDataId": "Q18496335",
      "country_code": "IT",
      "state_code": "34",
      "state_id": 1753,
      "country_id": 107
    },
    {
      "id": 137720,
      "name": "Чимадольмо",
      "name_default": "Cimadolmo",
      "native": "Cialalo",
      "type": "adm3",
      "level": null,
      "parent_id": null,
      "population": 1504,
      "latitude": "45.78524000",
      "longitude": "12.36510000",
      "timezone": "Europe/Rome",
      "wikiDataId": "Q2132286",
      "country_code": "IT",
      "state_code": "34",
      "state_id": 1753,
      "country_id": 107
    },
    {
      "id": 137740,
      "name": "Чинто Каомаджоре",
      "name_default": "Cinto Caomaggiore",
      "native": "Cinto Caomaggiore",
      "type": "adm3",
      "level": null,
      "parent_id": null,
      "population": 2448,
      "latitude": "45.82758000",
      "longitude": "12.78126000",
      "timezone": "Europe/Rome",
      "wikiDataId": "Q18432235",
      "country_code": "IT",
      "state_code": "34",
      "state_id": 1753,
      "country_id": 107
    },
    {
      "id": 137758,
      "name": "Cismon del Grappa",
      "name_default": "Cismon del Grappa",
      "native": "Cismon del Grappa",
      "type": "adm3",
      "level": null,
      "parent_id": null,
      "population": 592,
      "latitude": "45.92026000",
      "longitude": "11.72816000",
      "timezone": "Europe/Rome",
      "wikiDataId": "Q18461630",
      "country_code": "IT",
      "state_code": "34",
      "state_id": 1753,
      "country_id": 107
    },
    {
      "id": 137759,
      "name": "Чисон ди Вальмарино",
      "name_default": "Cison di Valmarino",
      "native": "Cison di Valmarino",
      "type": "adm3",
      "level": null,
      "parent_id": null,
      "population": 1178,
      "latitude": "45.96694000",
      "longitude": "12.14267000",
      "timezone": "Europe/Rome",
      "wikiDataId": "Q18461630",
      "country_code": "IT",
      "state_code": "34",
      "state_id": 1753,
      "country_id": 107
    },
    {
      "id": 137765,
      "name": "Читтаделла",
      "name_default": "Cittadella",
      "native": "Cittadella",
      "type": "adm3",
      "level": null,
      "parent_id": null,
      "population": 14421,
      "latitude": "45.64523000",
      "longitude": "11.78453000",
      "timezone": "Europe/Rome",
      "wikiDataId": "Q18461630",
      "country_code": "IT",
      "state_code": "34",
      "state_id": 1753,
      "country_id": 107
    },
    {
      "id": 137829,
      "name": "Кодевиго",
      "name_default": "Codevigo",
      "native": "Codevigo",
      "type": "adm3",
      "level": null,
      "parent_id": null,
      "population": 1555,
      "latitude": "45.26628000",
      "longitude": "12.09961000",
      "timezone": "Europe/Rome",
      "wikiDataId": "Q3682036",
      "country_code": "IT",
      "state_code": "34",
      "state_id": 1753,
      "country_id": 107
    },
    {
      "id": 137833,
      "name": "Кодиверно",
      "name_default": "Codiverno",
      "native": "Codiverno",
      "type": "city",
      "level": null,
      "parent_id": null,
      "population": 1948,
      "latitude": "45.47583000",
      "longitude": "11.94556000",
      "timezone": "Europe/Rome",
      "wikiDataId": "Q3682217",
      "country_code": "IT",
      "state_code": "34",
      "state_id": 1753,
      "country_id": 107
    },
    {
      "id": 137836,
      "name": "Кодонье",
      "name_default": "Codognè",
      "native": "Codognè",
      "type": "adm3",
      "level": null,
      "parent_id": null,
      "population": 2840,
      "latitude": "45.86047000",
      "longitude": "12.41284000",
      "timezone": "Europe/Rome",
      "wikiDataId": "Q18487492",
      "country_code": "IT",
      "state_code": "34",
      "state_id": 1753,
      "country_id": 107
    },
    {
      "id": 137843,
      "name": "Когольо дель Ченджо",
      "name_default": "Cogollo del Cengio",
      "native": "Cogollo del Cengio",
      "type": "adm3",
      "level": null,
      "parent_id": null,
      "population": 3115,
      "latitude": "45.78397000",
      "longitude": "11.42527000",
      "timezone": "Europe/Rome",
      "wikiDataId": "Q30024888",
      "country_code": "IT",
      "state_code": "34",
      "state_id": 1753,
      "country_id": 107
    },
    {
      "id": 137846,
      "name": "Пол Сан Мартино",
      "name_default": "Col San Martino",
      "native": "Col San Martino",
      "type": "adm3",
      "level": null,
      "parent_id": null,
      "population": 8425,
      "latitude": "45.90020000",
      "longitude": "12.11575000",
      "timezone": "Europe/Rome",
      "wikiDataId": "Q778645",
      "country_code": "IT",
      "state_code": "34",
      "state_id": 1753,
      "country_id": 107
    },
    {
      "id": 137932,
      "name": "Кола",
      "name_default": "Colà",
      "native": "Colà",
      "type": "city",
      "level": null,
      "parent_id": null,
      "population": 1107,
      "latitude": "45.47428000",
      "longitude": "10.74257000",
      "timezone": "Europe/Rome",
      "wikiDataId": "Q1113069",
      "country_code": "IT",
      "state_code": "34",
      "state_id": 1753,
      "country_id": 107
    },
    {
      "id": 137865,
      "name": "Колле Санта Лючия",
      "name_default": "Colle Santa Lucia",
      "native": "Colle Santa Lucia",
      "type": "adm3",
      "level": null,
      "parent_id": null,
      "population": 343,
      "latitude": "46.44852000",
      "longitude": "12.01399000",
      "timezone": "Europe/Rome",
      "wikiDataId": "Q18454527",
      "country_code": "IT",
      "state_code": "34",
      "state_id": 1753,
      "country_id": 107
    },
    {
      "id": 137867,
      "name": "Колле Умберто",
      "name_default": "Colle Umberto",
      "native": "Colle Umberto",
      "type": "adm3",
      "level": null,
      "parent_id": null,
      "population": 1233,
      "latitude": "45.94238000",
      "longitude": "12.34228000",
      "timezone": "Europe/Rome",
      "wikiDataId": "Q18454537",
      "country_code": "IT",
      "state_code": "34",
      "state_id": 1753,
      "country_id": 107
    },
    {
      "id": 137912,
      "name": "Колонья Венета",
      "name_default": "Cologna Veneta",
      "native": "Cologna Veneta",
      "type": "adm3",
      "level": null,
      "parent_id": null,
      "population": 4807,
      "latitude": "45.30777000",
      "longitude": "11.38032000",
      "timezone": "Europe/Rome",
      "wikiDataId": "Q18428153",
      "country_code": "IT",
      "state_code": "34",
      "state_id": 1753,
      "country_id": 107
    },