{
  "locale": "uk",
  "country": {
    "id": 85,
    "code": "GR",
    "iso3": "GRC",
    "numeric_code": "300",
    "name": "Греція",
    "name_default": "Greece",
    "native": "Ελλάδα",
    "capital": "Athens",
    "phonecode": "30",
    "currency": "EUR",
    "currency_name": "Euro",
    "currency_symbol": "€",
    "tld": ".gr",
    "population": 10400720,
    "gdp": 267348,
    "region": "Europe",
    "region_id": 4,
    "subregion": "Southern Europe",
    "subregion_id": 16,
    "nationality": "Greek, Hellenic",
    "timezones": [
      {
        "zoneName": "Europe/Athens",
        "gmtOffset": 7200,
        "gmtOffsetName": "UTC+02:00",
        "abbreviation": "EET",
        "tzName": "Eastern European Time"
      }
    ],
    "latitude": "39.00000000",
    "longitude": "22.00000000",
    "emoji": "🇬🇷",
    "emojiU": "U+1F1EC U+1F1F7"
  },
  "state": {
    "id": 2120,
    "code": "A2",
    "iso2": "A2",
    "iso3166_2": "GR-A2",
    "fips_code": "ESYE11",
    "name": "Східна Аттика",
    "name_default": "East Attica",
    "native": "Ανατολική Αττική",
    "type": "regional unit",
    "level": "2",
    "parent_id": "2122",
    "population": 518755,
    "latitude": "37.97158270",
    "longitude": "23.97678540",
    "timezone": "Europe/Athens",
    "wikiDataId": "Q211934",
    "country_code": "GR"
  },
  "cities": [
    {
      "id": 53375,
      "name": "Святий Афанасіос",
      "name_default": "Ágios Athanásios",
      "native": "Άγιος Αθανάσιος",
      "type": "city",
      "level": null,
      "parent_id": null,
      "population": 3419,
      "latitude": "41.07463000",
      "longitude": "24.24545000",
      "timezone": "Europe/Athens",
      "wikiDataId": "Q12180002",
      "country_code": "GR",
      "state_code": "A2",
      "state_id": 2120,
      "country_id": 85
    },
    {
      "id": 154260,
      "name": "Агіос Ефстратіос",
      "name_default": "Agios Efstratios",
      "native": "Άγιος Ευστράτιος",
      "type": "adm3",
      "level": null,
      "parent_id": null,
      "population": 489,
      "latitude": "39.53910500",
      "longitude": "24.98451130",
      "timezone": "Europe/Athens",
      "wikiDataId": "Q12875609",
      "country_code": "GR",
      "state_code": "A2",
      "state_id": 2120,
      "country_id": 85
    },
    {
      "id": 52440,
      "name": "Александруполіс",
      "name_default": "Alexandroupoli",
      "native": "Αλεξανδρούπολη",
      "type": "adm2",
      "level": null,
      "parent_id": null,
      "population": 52979,
      "latitude": "40.84995000",
      "longitude": "25.87644000",
      "timezone": "Europe/Athens",
      "wikiDataId": "Q190847",
      "country_code": "GR",
      "state_code": "A2",
      "state_id": 2120,
      "country_id": 85
    },
    {
      "id": 52456,
      "name": "Мигдалини",
      "name_default": "Amygdaleónas",
      "native": "Αμυγδαλεώνας",
      "type": "city",
      "level": null,
      "parent_id": null,
      "population": 2647,
      "latitude": "40.96346000",
      "longitude": "24.36007000",
      "timezone": "Europe/Athens",
      "wikiDataId": "Q3154319",
      "country_code": "GR",
      "state_code": "A2",
      "state_id": 2120,
      "country_id": 85
    },
    {
      "id": 53398,
      "name": "Аратос",
      "name_default": "Áratos",
      "native": "Άρατος",
      "type": "city",
      "level": null,
      "parent_id": null,
      "population": 1152,
      "latitude": "41.08139000",
      "longitude": "25.55186000",
      "timezone": "Europe/Athens",
      "wikiDataId": "Q4784439",
      "country_code": "GR",
      "state_code": "A2",
      "state_id": 2120,
      "country_id": 85
    },
    {
      "id": 52502,
      "name": "Арісві",
      "name_default": "Arísvi",
      "native": "Αρίσβι",
      "type": "city",
      "level": null,
      "parent_id": null,
      "population": 883,
      "latitude": "41.07000000",
      "longitude": "25.59041000",
      "timezone": "Europe/Athens",
      "wikiDataId": "Q624641",
      "country_code": "GR",
      "state_code": "A2",
      "state_id": 2120,
      "country_id": 85
    },
    {
      "id": 52497,
      "name": "Арріана",
      "name_default": "Arrianá",
      "native": "Αρριάνα",
      "type": "city",
      "level": null,
      "parent_id": null,
      "population": 1112,
      "latitude": "41.08131000",
      "longitude": "25.69494000",
      "timezone": "Europe/Athens",
      "wikiDataId": "Q21779010",
      "country_code": "GR",
      "state_code": "A2",
      "state_id": 2120,
      "country_id": 85
    },
    {
      "id": 53408,
      "name": "Авато",
      "name_default": "Ávato",
      "native": "Άβατο",
      "type": "city",
      "level": null,
      "parent_id": null,
      "population": 1357,
      "latitude": "40.96279000",
      "longitude": "24.80441000",
      "timezone": "Europe/Athens",
      "wikiDataId": "Q4827843",
      "country_code": "GR",
      "state_code": "A2",
      "state_id": 2120,
      "country_id": 85
    },
    {
      "id": 154252,
      "name": "Хіос",
      "name_default": "Chios",
      "native": "Χίος",
      "type": "city",
      "level": null,
      "parent_id": null,
      "population": 27015,
      "latitude": "38.37451400",
      "longitude": "26.08940520",
      "timezone": "Europe/Athens",
      "wikiDataId": "Q16332718",
      "country_code": "GR",
      "state_code": "A2",
      "state_id": 2120,
      "country_id": 85
    },
    {
      "id": 52535,
      "name": "Хорісті",
      "name_default": "Choristí",
      "native": "Χορίστι",
      "type": "city",
      "level": null,
      "parent_id": null,
      "population": 2512,
      "latitude": "41.13056000",
      "longitude": "24.20843000",
      "timezone": "Europe/Athens",
      "wikiDataId": "Q1247513",
      "country_code": "GR",
      "state_code": "A2",
      "state_id": 2120,
      "country_id": 85
    },
    {
      "id": 52538,
      "name": "Хрисохорі",
      "name_default": "Chrysochóri",
      "native": "Χρυσοχώρι",
      "type": "city",
      "level": null,
      "parent_id": null,
      "population": 1711,
      "latitude": "40.93328000",
      "longitude": "24.71088000",
      "timezone": "Europe/Athens",
      "wikiDataId": "Q1076595",
      "country_code": "GR",
      "state_code": "A2",
      "state_id": 2120,
      "country_id": 85
    },
    {
      "id": 52539,
      "name": "Хрисуполіс",
      "name_default": "Chrysoúpolis",
      "native": "Χρυσούπολις",
      "type": "adm3",
      "level": null,
      "parent_id": null,
      "population": 8885,
      "latitude": "40.98556000",
      "longitude": "24.69389000",
      "timezone": "Europe/Athens",
      "wikiDataId": "Q2007855",
      "country_code": "GR",
      "state_code": "A2",
      "state_id": 2120,
      "country_id": 85
    },
    {
      "id": 52555,
      "name": "Дідімотейхо",
      "name_default": "Didymóteicho",
      "native": "Διδυμότειχο",
      "type": "adm3",
      "level": null,
      "parent_id": null,
      "population": 8611,
      "latitude": "41.34806000",
      "longitude": "26.49611000",
      "timezone": "Europe/Athens",
      "wikiDataId": "Q932648",
      "country_code": "GR",
      "state_code": "A2",
      "state_id": 2120,
      "country_id": 85
    },
    {
      "id": 52565,
      "name": "Драма",
      "name_default": "Dráma",
      "native": "Δράμα",
      "type": "adm2",
      "level": null,
      "parent_id": null,
      "population": 44257,
      "latitude": "41.15283000",
      "longitude": "24.14730000",
      "timezone": "Europe/Athens",
      "wikiDataId": "Q212841",
      "country_code": "GR",
      "state_code": "A2",
      "state_id": 2120,
      "country_id": 85
    },
    {
      "id": 52571,
      "name": "Ехінос",
      "name_default": "Echínos",
      "native": "Εχίνος",
      "type": "city",
      "level": null,
      "parent_id": null,
      "population": 2210,
      "latitude": "41.27558000",
      "longitude": "24.97237000",
      "timezone": "Europe/Athens",
      "wikiDataId": "Q269251",
      "country_code": "GR",
      "state_code": "A2",
      "state_id": 2120,
      "country_id": 85
    },
    {
      "id": 52576,
      "name": "Елайохорі",
      "name_default": "Elaiochóri",
      "native": "Ελαιοχώρι",
      "type": "city",
      "level": null,
      "parent_id": null,
      "population": 1195,
      "latitude": "40.82030000",
      "longitude": "24.24373000",
      "timezone": "Europe/Athens",
      "wikiDataId": "Q683126",
      "country_code": "GR",
      "state_code": "A2",
      "state_id": 2120,
      "country_id": 85
    },
    {
      "id": 52579,
      "name": "Елефтерес",
      "name_default": "Eleftherés",
      "native": "Ελευθερές",
      "type": "city",
      "level": null,
      "parent_id": null,
      "population": 1303,
      "latitude": "40.84666000",
      "longitude": "24.25431000",
      "timezone": "Europe/Athens",
      "wikiDataId": "Q2464206",
      "country_code": "GR",
      "state_code": "A2",
      "state_id": 2120,
      "country_id": 85
    },
    {
      "id": 52578,
      "name": "Елефтероуполіс",
      "name_default": "Eleftheroúpolis",
      "native": "Ελευθερούπολη",
      "type": "adm3",
      "level": null,
      "parent_id": null,
      "population": 4360,
      "latitude": "40.91389000",
      "longitude": "24.25139000",
      "timezone": "Europe/Athens",
      "wikiDataId": "Q2418571",
      "country_code": "GR",
      "state_code": "A2",
      "state_id": 2120,
      "country_id": 85
    },
    {
      "id": 53418,
      "name": "Евлало",
      "name_default": "Évlalo",
      "native": "Έβλαλο",
      "type": "adm3",
      "level": null,
      "parent_id": null,
      "population": 0,
      "latitude": "40.98333000",
      "longitude": "24.80000000",
      "timezone": "Europe/Athens",
      "wikiDataId": "Q5418527",
      "country_code": "GR",
      "state_code": "A2",
      "state_id": 2120,
      "country_id": 85
    },
    {
      "id": 52616,
      "name": "Ферес",
      "name_default": "Féres",
      "native": "Φέρες",
      "type": "city",
      "level": null,
      "parent_id": null,
      "population": 5403,
      "latitude": "40.89305000",
      "longitude": "26.17234000",
      "timezone": "Europe/Athens",
      "wikiDataId": "Q943354",
      "country_code": "GR",
      "state_code": "A2",
      "state_id": 2120,
      "country_id": 85
    },
    {
      "id": 52603,
      "name": "Філліра",
      "name_default": "Fillýra",
      "native": "Φιλύρα",
      "type": "adm3",
      "level": null,
      "parent_id": null,
      "population": 1041,
      "latitude": "41.11667000",
      "longitude": "25.63333000",
      "timezone": "Europe/Athens",
      "wikiDataId": "Q2466188",
      "country_code": "GR",
      "state_code": "A2",
      "state_id": 2120,
      "country_id": 85
    },
    {
      "id": 52610,
      "name": "Фотолівос",
      "name_default": "Fotolívos",
      "native": "Φωτολίβος",
      "type": "city",
      "level": null,
      "parent_id": null,
      "population": 1844,
      "latitude": "41.06013000",
      "longitude": "24.04724000",
      "timezone": "Europe/Athens",
      "wikiDataId": "Q25081740",
      "country_code": "GR",
      "state_code": "A2",
      "state_id": 2120,
      "country_id": 85
    },
    {
      "id": 154259,
      "name": "Фурной Корсеон",
      "name_default": "Fournoi Korseon",
      "native": "Φούρνοι Κορσεών",
      "type": "city",
      "level": null,
      "parent_id": null,
      "population": null,
      "latitude": "37.57978470",
      "longitude": "26.31761320",
      "timezone": "Europe/Athens",
      "wikiDataId": "Q12875802",
      "country_code": "GR",
      "state_code": "A2",
      "state_id": 2120,
      "country_id": 85
    },
    {
      "id": 52612,
      "name": "Фтелія",
      "name_default": "Fteliá",
      "native": "Φτελιά",
      "type": "city",
      "level": null,
      "parent_id": null,
      "population": 1006,
      "latitude": "41.08266000",
      "longitude": "24.18968000",
      "timezone": "Europe/Athens",
      "wikiDataId": "Q5506812",
      "country_code": "GR",
      "state_code": "A2",
      "state_id": 2120,
      "country_id": 85
    },
    {
      "id": 52632,
      "name": "Дженіссея",
      "name_default": "Genisséa",
      "native": "Γενισέα",
      "type": "adm3",
      "level": null,
      "parent_id": null,
      "population": 1935,
      "latitude": "41.06165000",
      "longitude": "24.96248000",
      "timezone": "Europe/Athens",
      "wikiDataId": "Q3659157",
      "country_code": "GR",
      "state_code": "A2",
      "state_id": 2120,
      "country_id": 85
    },
    {
      "id": 53420,
      "name": "Іасмос",
      "name_default": "Íasmos",
      "native": "Ίασμος",
      "type": "adm3",
      "level": null,
      "parent_id": null,
      "population": 2319,
      "latitude": "41.12747000",
      "longitude": "25.18573000",
      "timezone": "Europe/Athens",
      "wikiDataId": "Q16632494",
      "country_code": "GR",
      "state_code": "A2",
      "state_id": 2120,
      "country_id": 85
    },
    {
      "id": 154253,
      "name": "Ікарія",
      "name_default": "Ikaria",
      "native": "Ικαρία",
      "type": "city",
      "level": null,
      "parent_id": null,
      "population": 10175,
      "latitude": "37.59739620",
      "longitude": "25.94166430",
      "timezone": "Europe/Athens",
      "wikiDataId": "Q1239974",
      "country_code": "GR",
      "state_code": "A2",
      "state_id": 2120,
      "country_id": 85
    },
    {
      "id": 52661,
      "name": "Іліокентіма",
      "name_default": "Iliokentima",
      "native": "Ηλιοκέντημα",
      "type": "city",
      "level": null,
      "parent_id": null,
      "population": 1405,
      "latitude": "40.94931000",
      "longitude": "24.78859000",
      "timezone": "Europe/Athens",
      "wikiDataId": "Q213874",
      "country_code": "GR",
      "state_code": "A2",
      "state_id": 2120,
      "country_id": 85
    },
    {
      "id": 52679,
      "name": "Калампакі",
      "name_default": "Kalampáki",
      "native": "Καλαμπάκι",
      "type": "adm3",
      "level": null,
      "parent_id": null,
      "population": 3514,
      "latitude": "41.05000000",
      "longitude": "24.18333000",
      "timezone": "Europe/Athens",
      "wikiDataId": "Q2712273",
      "country_code": "GR",
      "state_code": "A2",
      "state_id": 2120,
      "country_id": 85
    },
    {
      "id": 52690,
      "name": "Калі Врісі",
      "name_default": "Kalí Vrýsi",
      "native": "Καλή Βρύση",
      "type": "city",
      "level": null,
      "parent_id": null,
      "population": 1163,
      "latitude": "41.14653000",
      "longitude": "23.90667000",
      "timezone": "Europe/Athens",
      "wikiDataId": "Q3405567",
      "country_code": "GR",
      "state_code": "A2",
      "state_id": 2120,
      "country_id": 85
    },
    {
      "id": 52683,
      "name": "Калліфітос",
      "name_default": "Kallífytos",
      "native": "Καλλίφυτος",
      "type": "city",
      "level": null,
      "parent_id": null,
      "population": 1201,
      "latitude": "41.17280000",
      "longitude": "24.21527000",
      "timezone": "Europe/Athens",
      "wikiDataId": "Q626774",
      "country_code": "GR",
      "state_code": "A2",
      "state_id": 2120,
      "country_id": 85
    },
    {
      "id": 52691,
      "name": "Калос Агрос",
      "name_default": "Kalós Agrós",
      "native": "Καλός Αγρός",
      "type": "city",
      "level": null,
      "parent_id": null,
      "population": 1275,
      "latitude": "41.10543000",
      "longitude": "24.08570000",
      "timezone": "Europe/Athens",
      "wikiDataId": "Q12078952",
      "country_code": "GR",
      "state_code": "A2",
      "state_id": 2120,
      "country_id": 85
    },
    {
      "id": 52696,
      "name": "Камаріотісса",
      "name_default": "Kamariótissa",
      "native": "Καμαριώτισσα",
      "type": "city",
      "level": null,
      "parent_id": null,
      "population": 1067,
      "latitude": "40.47501000",
      "longitude": "25.47456000",
      "timezone": "Europe/Athens",
      "wikiDataId": "Q1722850",
      "country_code": "GR",
      "state_code": "A2",
      "state_id": 2120,
      "country_id": 85
    },
    {
      "id": 52723,
      "name": "Кастанієс",
      "name_default": "Kastaniés",
      "native": "Καστανιές",
      "type": "city",
      "level": null,
      "parent_id": null,
      "population": 1214,
      "latitude": "41.64551000",
      "longitude": "26.47676000",
      "timezone": "Europe/Athens",
      "wikiDataId": "Q3558218",
      "country_code": "GR",
      "state_code": "A2",
      "state_id": 2120,
      "country_id": 85
    },
    {
      "id": 52815,
      "name": "Като Неврокопі",
      "name_default": "Káto Nevrokópi",
      "native": "Κάτω Νευροκόπι",
      "type": "adm3",
      "level": null,
      "parent_id": null,
      "population": 0,
      "latitude": "41.35000000",
      "longitude": "23.86667000",
      "timezone": "Europe/Athens",
      "wikiDataId": "Q3409187",
      "country_code": "GR",
      "state_code": "A2",
      "state_id": 2120,
      "country_id": 85
    },
    {
      "id": 52735,
      "name": "Кавала",
      "name_default": "Kavála",
      "native": "Καβάλα",
      "type": "adm2",
      "level": null,
      "parent_id": null,
      "population": 52082,
      "latitude": "40.93959000",
      "longitude": "24.40687000",
      "timezone": "Europe/Athens",
      "wikiDataId": "Q187352",
      "country_code": "GR",
      "state_code": "A2",
      "state_id": 2120,
      "country_id": 85
    },
    {
      "id": 52737,
      "name": "Кавілі",
      "name_default": "Kavýli",
      "native": "Καβίλη",
      "type": "city",
      "level": null,
      "parent_id": null,
      "population": 1531,
      "latitude": "41.56225000",
      "longitude": "26.51470000",
      "timezone": "Europe/Athens",
      "wikiDataId": "Q3558285",
      "country_code": "GR",
      "state_code": "A2",
      "state_id": 2120,
      "country_id": 85
    },
    {
      "id": 52739,
      "name": "Керамоті",
      "name_default": "Keramotí",
      "native": "Κεραμωτή",
      "type": "city",
      "level": null,
      "parent_id": null,
      "population": 1231,
      "latitude": "40.85591000",
      "longitude": "24.70595000",
      "timezone": "Europe/Athens",
      "wikiDataId": "Q1739185",
      "country_code": "GR",
      "state_code": "A2",
      "state_id": 2120,
      "country_id": 85
    },
    {
      "id": 52748,
      "name": "Кіммерія",
      "name_default": "Kimméria",
      "native": "Κιμμέρια",
      "type": "city",
      "level": null,
      "parent_id": null,
      "population": 3639,
      "latitude": "41.14788000",
      "longitude": "24.93869000",
      "timezone": "Europe/Athens",
      "wikiDataId": "Q3555734",
      "country_code": "GR",
      "state_code": "A2",
      "state_id": 2120,
      "country_id": 85
    },
    {
      "id": 52755,
      "name": "Коккінохома",
      "name_default": "Kokkinóchoma",
      "native": "Κοκκινόχωμα",
      "type": "city",
      "level": null,
      "parent_id": null,
      "population": 1284,
      "latitude": "40.92690000",
      "longitude": "24.30805000",
      "timezone": "Europe/Athens",
      "wikiDataId": "Q1549738",
      "country_code": "GR",
      "state_code": "A2",
      "state_id": 2120,
      "country_id": 85
    },
    {
      "id": 52762,
      "name": "Комотіні",
      "name_default": "Komotiní",
      "native": "Κομοτηνή",
      "type": "adm1",
      "level": null,
      "parent_id": null,
      "population": 51732,
      "latitude": "41.11917000",
      "longitude": "25.40535000",
      "timezone": "Europe/Athens",
      "wikiDataId": "Q208403",
      "country_code": "GR",
      "state_code": "A2",
      "state_id": 2120,
      "country_id": 85
    },
    {
      "id": 52785,
      "name": "Крінідес",
      "name_default": "Krinídes",
      "native": "Κρηνίδες",
      "type": "city",
      "level": null,
      "parent_id": null,
      "population": 2925,
      "latitude": "41.01396000",
      "longitude": "24.29647000",
      "timezone": "Europe/Athens",
      "wikiDataId": "Q771125",
      "country_code": "GR",
      "state_code": "A2",
      "state_id": 2120,
      "country_id": 85
    },
    {
      "id": 52798,
      "name": "Кіпрінос",
      "name_default": "Kyprínos",
      "native": "Κύπριος",
      "type": "city",
      "level": null,
      "parent_id": null,
      "population": 1095,
      "latitude": "41.57542000",
      "longitude": "26.22905000",
      "timezone": "Europe/Athens",
      "wikiDataId": "Q747508",
      "country_code": "GR",
      "state_code": "A2",
      "state_id": 2120,
      "country_id": 85
    },
    {
      "id": 52829,
      "name": "Кірія",
      "name_default": "Kýria",
      "native": "Κυρία",
      "type": "city",
      "level": null,
      "parent_id": null,
      "population": 1611,
      "latitude": "41.09900000",
      "longitude": "24.28915000",
      "timezone": "Europe/Athens",
      "wikiDataId": "Q3395585",
      "country_code": "GR",
      "state_code": "A2",
      "state_id": 2120,
      "country_id": 85
    },
    {
      "id": 52834,
      "name": "Лагос",
      "name_default": "Lagós",
      "native": "Λάγκος",
      "type": "city",
      "level": null,
      "parent_id": null,
      "population": 1536,
      "latitude": "41.45102000",
      "longitude": "26.46067000",
      "timezone": "Europe/Athens",
      "wikiDataId": "Q3565344",
      "country_code": "GR",
      "state_code": "A2",
      "state_id": 2120,
      "country_id": 85
    },
    {
      "id": 52876,
      "name": "Лавара",
      "name_default": "Lávara",
      "native": "Λαβάρα",
      "type": "city",
      "level": null,
      "parent_id": null,
      "population": 1447,
      "latitude": "41.26957000",
      "longitude": "26.38522000",
      "timezone": "Europe/Athens",
      "wikiDataId": "Q1805894",
      "country_code": "GR",
      "state_code": "A2",
      "state_id": 2120,
      "country_id": 85
    },
    {
      "id": 154254,
      "name": "Лемнос",
      "name_default": "Lemnos",
      "native": "Λήμνος",
      "type": "city",
      "level": null,
      "parent_id": null,
      "population": null,
      "latitude": "39.90904130",
      "longitude": "25.07552530",
      "timezone": "Europe/Athens",
      "wikiDataId": "Q655612",
      "country_code": "GR",
      "state_code": "A2",
      "state_id": 2120,
      "country_id": 85
    },
    {
      "id": 154255,
      "name": "Лесбос",
      "name_default": "Lesbos",
      "native": "Λέσβος",
      "type": "city",
      "level": null,
      "parent_id": null,
      "population": null,
      "latitude": "39.17107260",
      "longitude": "25.04098590",
      "timezone": "Europe/Athens",
      "wikiDataId": "Q11723838",
      "country_code": "GR",
      "state_code": "A2",
      "state_id": 2120,
      "country_id": 85
    },
    {
      "id": 52853,
      "name": "Ліменарія",
      "name_default": "Limenária",
      "native": "Λιμενάρια",
      "type": "city",
      "level": null,
      "parent_id": null,
      "population": 2351,
      "latitude": "40.62741000",
      "longitude": "24.57650000",
      "timezone": "Europe/Athens",
      "wikiDataId": "Q1014258",
      "country_code": "GR",
      "state_code": "A2",
      "state_id": 2120,
      "country_id": 85
    },
    {
      "id": 52882,
      "name": "Лікейо",
      "name_default": "Lýkeio",
      "native": "Λύκειο",
      "type": "city",
      "level": null,
      "parent_id": null,
      "population": 998,
      "latitude": "41.06413000",
      "longitude": "25.68570000",
      "timezone": "Europe/Athens",
      "wikiDataId": "Q3740106",
      "country_code": "GR",
      "state_code": "A2",
      "state_id": 2120,
      "country_id": 85
    },
    {
      "id": 52935,
      "name": "Мікрополіс",
      "name_default": "Mikrópolis",
      "native": "Μικρόπολις",
      "type": "city",
      "level": null,
      "parent_id": null,
      "population": 1094,
      "latitude": "41.19351000",
      "longitude": "23.81570000",
      "timezone": "Europe/Athens",
      "wikiDataId": "Q985630",
      "country_code": "GR",
      "state_code": "A2",
      "state_id": 2120,
      "country_id": 85
    },
    {
      "id": 52959,
      "name": "Мікі",
      "name_default": "Mýki",
      "native": "Μίκι",
      "type": "city",
      "level": null,
      "parent_id": null,
      "population": 1347,
      "latitude": "41.24384000",
      "longitude": "24.92084000",
      "timezone": "Europe/Athens",
      "wikiDataId": "Q16322844",
      "country_code": "GR",
      "state_code": "A2",
      "state_id": 2120,
      "country_id": 85
    },
    {
      "id": 154261,
      "name": "Мітілена",
      "name_default": "Mytilene",
      "native": "Μυτιλήνη",
      "type": "city",
      "level": null,
      "parent_id": null,
      "population": 1176,
      "latitude": "39.09953820",
      "longitude": "26.51545290",
      "timezone": "Europe/Athens",
      "wikiDataId": "Q16737235",
      "country_code": "GR",
      "state_code": "A2",
      "state_id": 2120,
      "country_id": 85
    },
    {
      "id": 53011,
      "name": "Неа Іракліца",
      "name_default": "Néa Iraklítsa",
      "native": "Νέα Ηρακλίτσα",
      "type": "city",
      "level": null,
      "parent_id": null,
      "population": 1596,
      "latitude": "40.86442000",
      "longitude": "24.31650000",
      "timezone": "Europe/Athens",
      "wikiDataId": "Q12249458",
      "country_code": "GR",
      "state_code": "A2",
      "state_id": 2120,
      "country_id": 85
    },
    {
      "id": 53013,
      "name": "Неа Карвалі",
      "name_default": "Néa Karváli",
      "native": "Νέα Καρβάλη",
      "type": "city",
      "level": null,
      "parent_id": null,
      "population": 1925,
      "latitude": "40.96148000",
      "longitude": "24.51132000",
      "timezone": "Europe/Athens",
      "wikiDataId": "Q1722488",
      "country_code": "GR",
      "state_code": "A2",
      "state_id": 2120,
      "country_id": 85
    },
    {
      "id": 53014,
      "name": "Неа Кар'я",
      "name_default": "Néa Karyá",
      "native": "Νέα Καρυά",
      "type": "city",
      "level": null,
      "parent_id": null,
      "population": 1302,
      "latitude": "40.90621000",
      "longitude": "24.70726000",
      "timezone": "Europe/Athens",
      "wikiDataId": "Q1722488",
      "country_code": "GR",
      "state_code": "A2",
      "state_id": 2120,
      "country_id": 85
    },
    {
      "id": 53031,
      "name": "Неа-Перамос",
      "name_default": "Néa Péramos",
      "native": "Νέα Πέραμος",
      "type": "city",
      "level": null,
      "parent_id": null,
      "population": 3502,
      "latitude": "40.83854000",
      "longitude": "24.30130000",
      "timezone": "Europe/Athens",
      "wikiDataId": "Q3555810",
      "country_code": "GR",
      "state_code": "A2",
      "state_id": 2120,
      "country_id": 85
    },
    {
      "id": 53040,
      "name": "Неа Вісса",
      "name_default": "Néa Výssa",
      "native": "Νέα Βύσσα",
      "type": "city",
      "level": null,
      "parent_id": null,
      "population": 2673,
      "latitude": "41.58449000",
      "longitude": "26.54318000",
      "timezone": "Europe/Athens",
      "wikiDataId": "Q1014288",
      "country_code": "GR",
      "state_code": "A2",
      "state_id": 2120,
      "country_id": 85
    },
    {
      "id": 52967,
      "name": "Неохорі",
      "name_default": "Neochóri",
      "native": "Νεοχώρι",
      "type": "city",
      "level": null,
      "parent_id": null,
      "population": 1160,
      "latitude": "41.51131000",
      "longitude": "26.45740000",
      "timezone": "Europe/Athens",
      "wikiDataId": "Q6992141",
      "country_code": "GR",
      "state_code": "A2",
      "state_id": 2120,
      "country_id": 85
    },
    {
      "id": 52976,
      "name": "Нікісіані",
      "name_default": "Nikísiani",
      "native": "Νικήσιανη",
      "type": "city",
      "level": null,
      "parent_id": null,
      "population": 2236,
      "latitude": "40.94739000",
      "longitude": "24.14311000",
      "timezone": "Europe/Athens",
      "wikiDataId": "Q2272672",
      "country_code": "GR",
      "state_code": "A2",
      "state_id": 2120,
      "country_id": 85
    },
    {
      "id": 154257,
      "name": "Ойнуси",
      "name_default": "Oinousses",
      "native": "Οινούσσες",
      "type": "adm3",
      "level": null,
      "parent_id": null,
      "population": 792,
      "latitude": "38.51457460",
      "longitude": "26.21526900",
      "timezone": "Europe/Athens",
      "wikiDataId": "Q12875738",
      "country_code": "GR",
      "state_code": "A2",
      "state_id": 2120,
      "country_id": 85
    },
    {
      "id": 53062,
      "name": "Орестіяда",
      "name_default": "Orestiáda",
      "native": "Ορεστιάδα",
      "type": "adm3",
      "level": null,
      "parent_id": null,
      "population": 18164,
      "latitude": "41.50306000",
      "longitude": "26.52972000",
      "timezone": "Europe/Athens",
      "wikiDataId": "Q992228",
      "country_code": "GR",
      "state_code": "A2",
      "state_id": 2120,
      "country_id": 85
    },
    {
      "id": 53161,
      "name": "Пахні",
      "name_default": "Páchni",
      "native": "Πάχνη",
      "type": "city",
      "level": null,
      "parent_id": null,
      "population": 1028,
      "latitude": "41.30506000",
      "longitude": "24.89438000",
      "timezone": "Europe/Athens",
      "wikiDataId": "Q2384736",
      "country_code": "GR",
      "state_code": "A2",
      "state_id": 2120,
      "country_id": 85
    },
    {
      "id": 53078,
      "name": "Палео Ціфлікі",
      "name_default": "Palaió Tsiflíki",
      "native": "Παλαιό Τσιφλίκι",
      "type": "city",
      "level": null,
      "parent_id": null,
      "population": 2195,
      "latitude": "40.90495000",
      "longitude": "24.35083000",
      "timezone": "Europe/Athens",
      "wikiDataId": "Q1014231",
      "country_code": "GR",
      "state_code": "A2",
      "state_id": 2120,
      "country_id": 85
    },
    {
      "id": 53071,
      "name": "Палеохори",
      "name_default": "Palaiochóri",
      "native": "Παλαιοχώρι",
      "type": "city",
      "level": null,
      "parent_id": null,
      "population": 1404,
      "latitude": "40.94338000",
      "longitude": "24.17747000",
      "timezone": "Europe/Athens",
      "wikiDataId": "Q1236193",
      "country_code": "GR",
      "state_code": "A2",
      "state_id": 2120,
      "country_id": 85
    },
    {
      "id": 53093,
      "name": "Паралія Офриніу",
      "name_default": "Paralía Ofryníou",
      "native": "Παραλία Οφρυνίου",
      "type": "city",
      "level": null,
      "parent_id": null,
      "population": 1220,
      "latitude": "40.76663000",
      "longitude": "23.90039000",
      "timezone": "Europe/Athens",
      "wikiDataId": "Q1229905",
      "country_code": "GR",
      "state_code": "A2",
      "state_id": 2120,
      "country_id": 85
    },
    {
      "id": 53096,
      "name": "Паранесті",
      "name_default": "Paranésti",
      "native": "Παρανέστι",
      "type": "adm3",
      "level": null,
      "parent_id": null,
      "population": 0,
      "latitude": "41.26667000",
      "longitude": "24.50000000",
      "timezone": "Europe/Athens",
      "wikiDataId": "Q957192",
      "country_code": "GR",
      "state_code": "A2",
      "state_id": 2120,
      "country_id": 85
    },
    {
      "id": 53173,
      "name": "Пеплос",
      "name_default": "Péplos",
      "native": "Πέπλος",
      "type": "city",
      "level": null,
      "parent_id": null,
      "population": 1037,
      "latitude": "40.95755000",
      "longitude": "26.26577000",
      "timezone": "Europe/Athens",
      "wikiDataId": "Q213679",
      "country_code": "GR",
      "state_code": "A2",
      "state_id": 2120,
      "country_id": 85
    },
    {
      "id": 53117,
      "name": "Петейнос",
      "name_default": "Peteinós",
      "native": "Πετεινός",
      "type": "city",
      "level": null,
      "parent_id": null,
      "population": 1014,
      "latitude": "41.10056000",
      "longitude": "24.89847000",
      "timezone": "Europe/Athens",
      "wikiDataId": "Q12200538",
      "country_code": "GR",
      "state_code": "A2",
      "state_id": 2120,
      "country_id": 85
    },
    {
      "id": 53118,
      "name": "Петрохорі",
      "name_default": "Petrochóri",
      "native": "Πετροχώρι",
      "type": "city",
      "level": null,
      "parent_id": null,
      "population": 1052,
      "latitude": "41.08742000",
      "longitude": "24.84092000",
      "timezone": "Europe/Athens",
      "wikiDataId": "Q12200538",
      "country_code": "GR",
      "state_code": "A2",
      "state_id": 2120,
      "country_id": 85
    },
    {
      "id": 53120,
      "name": "Петроусса",
      "name_default": "Petroússa",
      "native": "Πετρούσα",
      "type": "city",
      "level": null,
      "parent_id": null,
      "population": 1985,
      "latitude": "41.19470000",
      "longitude": "24.01731000",
      "timezone": "Europe/Athens",
      "wikiDataId": "Q1997297",
      "country_code": "GR",
      "state_code": "A2",
      "state_id": 2120,
      "country_id": 85
    },
    {
      "id": 53140,
      "name": "Потамія",
      "name_default": "Potamiá",
      "native": "Ποταμιά",
      "type": "city",
      "level": null,
      "parent_id": null,
      "population": 1274,
      "latitude": "40.71633000",
      "longitude": "24.72859000",
      "timezone": "Europe/Athens",
      "wikiDataId": "Q1418080",
      "country_code": "GR",
      "state_code": "A2",
      "state_id": 2120,
      "country_id": 85
    },
    {
      "id": 53150,
      "name": "Принос",
      "name_default": "Prínos",
      "native": "Πρίνος",
      "type": "city",
      "level": null,
      "parent_id": null,
      "population": 1160,
      "latitude": "40.74090000",
      "longitude": "24.57787000",
      "timezone": "Europe/Athens",
      "wikiDataId": "Q213898",
      "country_code": "GR",
      "state_code": "A2",
      "state_id": 2120,
      "country_id": 85
    },
    {
      "id": 53145,
      "name": "Просотсані",
      "name_default": "Prosotsáni",
      "native": "Προσοτσάνι",
      "type": "adm3",
      "level": null,
      "parent_id": null,
      "population": 4021,
      "latitude": "41.18333000",
      "longitude": "23.96667000",
      "timezone": "Europe/Athens",
      "wikiDataId": "Q1115715",
      "country_code": "GR",
      "state_code": "A2",
      "state_id": 2120,
      "country_id": 85
    },
    {
      "id": 154258,
      "name": "Псара",
      "name_default": "Psara",
      "native": "Ψαρά",
      "type": "adm3",
      "level": null,
      "parent_id": null,
      "population": 420,
      "latitude": "38.54144180",
      "longitude": "25.55847730",
      "timezone": "Europe/Athens",
      "wikiDataId": "Q16330107",
      "country_code": "GR",
      "state_code": "A2",
      "state_id": 2120,
      "country_id": 85
    },
    {
      "id": 53201,
      "name": "Різія",
      "name_default": "Rízia",
      "native": "Ρίζια",
      "type": "city",
      "level": null,
      "parent_id": null,
      "population": 1645,
      "latitude": "41.62490000",
      "longitude": "26.42771000",
      "timezone": "Europe/Athens",
      "wikiDataId": "Q3558311",
      "country_code": "GR",
      "state_code": "A2",
      "state_id": 2120,
      "country_id": 85
    },
    {
      "id": 154256,
      "name": "Самос",
      "name_default": "Samos",
      "native": "Σάμος",
      "type": "city",
      "level": null,
      "parent_id": null,
      "population": 5900,
      "latitude": "37.71356740",
      "longitude": "25.63515040",
      "timezone": "Europe/Athens",
      "wikiDataId": "Q11723844",
      "country_code": "GR",
      "state_code": "A2",
      "state_id": 2120,
      "country_id": 85
    },
    {
      "id": 53205,
      "name": "Самотракі",
      "name_default": "Samothráki",
      "native": "Σαμοθράκη",
      "type": "adm3",
      "level": null,
      "parent_id": null,
      "population": 719,
      "latitude": "40.47333000",
      "longitude": "25.52222000",
      "timezone": "Europe/Athens",
      "wikiDataId": "Q21406482",
      "country_code": "GR",
      "state_code": "A2",
      "state_id": 2120,
      "country_id": 85
    },
    {
      "id": 53264,
      "name": "Сапес",
      "name_default": "Sápes",
      "native": "Σάπες",
      "type": "adm3",
      "level": null,
      "parent_id": null,
      "population": 4506,
      "latitude": "41.02861000",
      "longitude": "25.69306000",
      "timezone": "Europe/Athens",
      "wikiDataId": "Q2643560",
      "country_code": "GR",
      "state_code": "A2",
      "state_id": 2120,
      "country_id": 85
    },
    {
      "id": 53266,
      "name": "Селеро",
      "name_default": "Sélero",
      "native": "Σελέρο",
      "type": "city",
      "level": null,
      "parent_id": null,
      "population": 1954,
      "latitude": "41.13382000",
      "longitude": "24.99408000",
      "timezone": "Europe/Athens",
      "wikiDataId": "Q3384116",
      "country_code": "GR",
      "state_code": "A2",
      "state_id": 2120,
      "country_id": 85
    },
    {
      "id": 53216,
      "name": "Сітагрої",
      "name_default": "Sitagroí",
      "native": "Σιταγροί",
      "type": "city",
      "level": null,
      "parent_id": null,
      "population": 1105,
      "latitude": "41.11067000",
      "longitude": "24.02755000",
      "timezone": "Europe/Athens",
      "wikiDataId": "Q2405927",
      "country_code": "GR",
      "state_code": "A2",
      "state_id": 2120,
      "country_id": 85
    },
    {
      "id": 53230,
      "name": "Смінті",
      "name_default": "Smínthi",
      "native": "Σμίνθι",
      "type": "adm3",
      "level": null,
      "parent_id": null,
      "population": 402,
      "latitude": "41.23333000",
      "longitude": "24.86667000",
      "timezone": "Europe/Athens",
      "wikiDataId": "Q7544797",
      "country_code": "GR",
      "state_code": "A2",
      "state_id": 2120,
      "country_id": 85
    },
    {
      "id": 53235,
      "name": "Суфлі",
      "name_default": "Souflí",
      "native": "Σουφλί",
      "type": "adm3",
      "level": null,
      "parent_id": null,
      "population": 4149,
      "latitude": "41.19194000",
      "longitude": "26.29944000",
      "timezone": "Europe/Athens",
      "wikiDataId": "Q1014206",
      "country_code": "GR",
      "state_code": "A2",
      "state_id": 2120,
      "country_id": 85
    },
    {
      "id": 53282,
      "name": "Тасос",
      "name_default": "Thásos",
      "native": "Θάσος",
      "type": "adm3",
      "level": null,
      "parent_id": null,
      "population": 3331,
      "latitude": "40.77806000",
      "longitude": "24.70944000",
      "timezone": "Europe/Athens",
      "wikiDataId": "Q557754",
      "country_code": "GR",
      "state_code": "A2",
      "state_id": 2120,
      "country_id": 85
    },
    {
      "id": 53298,
      "name": "Тихеро",
      "name_default": "Tycheró",
      "native": "Τυχερό",
      "type": "city",
      "level": null,
      "parent_id": null,
      "population": 2029,
      "latitude": "41.02878000",
      "longitude": "26.29455000",
      "timezone": "Europe/Athens",
      "wikiDataId": "Q779647",
      "country_code": "GR",
      "state_code": "A2",
      "state_id": 2120,
      "country_id": 85
    },
    {
      "id": 53345,
      "name": "Волакас",
      "name_default": "Vólakas",
      "native": "Βόλακας",
      "type": "city",
      "level": null,
      "parent_id": null,
      "population": 1225,
      "latitude": "41.31661000",
      "longitude": "24.00215000",
      "timezone": "Europe/Athens",
      "wikiDataId": "Q2275334",
      "country_code": "GR",
      "state_code": "A2",
      "state_id": 2120,
      "country_id": 85
    },
    {
      "id": 154262,
      "name": "Західний Лесбос",
      "name_default": "West Lesbos",
      "native": "Δυτική Λέσβος",
      "type": "city",
      "level": null,
      "parent_id": null,
      "population": null,
      "latitude": "39.17605250",
      "longitude": "25.89404220",
      "timezone": "Europe/Athens",
      "wikiDataId": "Q65234114",
      "country_code": "GR",
      "state_code": "A2",
      "state_id": 2120,
      "country_id": 85
    },
    {
      "id": 53353,
      "name": "Ксанті",
      "name_default": "Xánthi",
      "native": "Ξάνθη",
      "type": "adm2",
      "level": null,
      "parent_id": null,
      "population": 58760,
      "latitude": "41.13488000",
      "longitude": "24.88800000",
      "timezone": "Europe/Athens",
      "wikiDataId": "Q210296",
      "country_code": "GR",
      "state_code": "A2",
      "state_id": 2120,
      "country_id": 85
    },
    {
      "id": 53350,
      "name": "Ксіропотамос",
      "name_default": "Xiropótamos",
      "native": "Ξηροπόταμος",
      "type": "city",
      "level": null,
      "parent_id": null,
      "population": 2670,
      "latitude": "41.19206000",
      "longitude": "24.10385000",
      "timezone": "Europe/Athens",
      "wikiDataId": "Q3395958",
      "country_code": "GR",
      "state_code": "A2",
      "state_id": 2120,
      "country_id": 85
    },
    {
      "id": 53351,
      "name": "Ксилаґані",
      "name_default": "Xylaganí",
      "native": "Ξυλαγανή",
      "type": "city",
      "level": null,
      "parent_id": null,
      "population": 1445,
      "latitude": "40.97437000",
      "longitude": "25.42022000",
      "timezone": "Europe/Athens",
      "wikiDataId": "Q3555860",
      "country_code": "GR",
      "state_code": "A2",
      "state_id": 2120,
      "country_id": 85
    },
    {
      "id": 53365,
      "name": "Зигос",
      "name_default": "Zygós",
      "native": "Ζυγός",
      "type": "city",
      "level": null,
      "parent_id": null,
      "population": 1209,
      "latitude": "41.01320000",
      "longitude": "24.38132000",
      "timezone": "Europe/Athens",
      "wikiDataId": "Q8075892",
      "country_code": "GR",
      "state_code": "A2",
      "state_id": 2120,
      "country_id": 85
    }
  ]
}
