{
  "locale": "ar",
  "country": {
    "id": 219,
    "code": "TH",
    "iso3": "THA",
    "numeric_code": "764",
    "name": "تايلاند",
    "name_default": "Thailand",
    "native": "ประเทศไทย",
    "capital": "Bangkok",
    "phonecode": "66",
    "currency": "THB",
    "currency_name": "Thai baht",
    "currency_symbol": "฿",
    "tld": ".th",
    "population": 65859640,
    "gdp": 546224,
    "region": "Asia",
    "region_id": 3,
    "subregion": "South-Eastern Asia",
    "subregion_id": 13,
    "nationality": "Thai",
    "timezones": [
      {
        "zoneName": "Asia/Bangkok",
        "gmtOffset": 25200,
        "gmtOffsetName": "UTC+07:00",
        "abbreviation": "ICT",
        "tzName": "Indochina Time"
      }
    ],
    "latitude": "15.00000000",
    "longitude": "100.00000000",
    "emoji": "🇹🇭",
    "emojiU": "U+1F1F9 U+1F1ED"
  },
  "state": {
    "id": 3511,
    "code": "71",
    "iso2": "71",
    "iso3166_2": "TH-71",
    "fips_code": "50",
    "name": "كانشانابوري",
    "name_default": "Kanchanaburi",
    "native": "กาญจนบุรี",
    "type": "province",
    "level": null,
    "parent_id": null,
    "population": 25651,
    "latitude": "14.03420660",
    "longitude": "99.52561130",
    "timezone": "Asia/Bangkok",
    "wikiDataId": "Q275740",
    "country_code": "TH"
  },
  "cities": [
    {
      "id": 105252,
      "name": "أمفو بو فلوي",
      "name_default": "Amphoe Bo Phloi",
      "native": "อำเภอบ่อพลอย",
      "type": "district",
      "level": null,
      "parent_id": null,
      "population": null,
      "latitude": "14.38723000",
      "longitude": "99.44990000",
      "timezone": "Asia/Bangkok",
      "wikiDataId": "Q475278",
      "country_code": "TH",
      "state_code": "71",
      "state_id": 3511,
      "country_id": 219
    },
    {
      "id": 105730,
      "name": "أمفو فانوم ثوان",
      "name_default": "Amphoe Phanom Thuan",
      "native": "อำเภอพนมทวน",
      "type": "district",
      "level": null,
      "parent_id": null,
      "population": null,
      "latitude": "14.15941000",
      "longitude": "99.66904000",
      "timezone": "Asia/Bangkok",
      "wikiDataId": "Q476381",
      "country_code": "TH",
      "state_code": "71",
      "state_id": 3511,
      "country_id": 219
    },
    {
      "id": 106188,
      "name": "أمفوي سانجلا بوري",
      "name_default": "Amphoe Sangkhla Buri",
      "native": "อำเภอสังขละบุรี",
      "type": "district",
      "level": null,
      "parent_id": null,
      "population": null,
      "latitude": "15.19337000",
      "longitude": "98.52791000",
      "timezone": "Asia/Bangkok",
      "wikiDataId": "Q476635",
      "country_code": "TH",
      "state_code": "71",
      "state_id": 3511,
      "country_id": 219
    },
    {
      "id": 106278,
      "name": "أمفوي ثا ماكا",
      "name_default": "Amphoe Tha Maka",
      "native": "อำเภอท่ามะกา",
      "type": "district",
      "level": null,
      "parent_id": null,
      "population": null,
      "latitude": "13.94665000",
      "longitude": "99.77900000",
      "timezone": "Asia/Bangkok",
      "wikiDataId": "Q476837",
      "country_code": "TH",
      "state_code": "71",
      "state_id": 3511,
      "country_id": 219
    },
    {
      "id": 106279,
      "name": "أمفوي ثا موانج",
      "name_default": "Amphoe Tha Muang",
      "native": "อำเภอท่าม่วง",
      "type": "district",
      "level": null,
      "parent_id": null,
      "population": null,
      "latitude": "13.90947000",
      "longitude": "99.61540000",
      "timezone": "Asia/Bangkok",
      "wikiDataId": "Q476839",
      "country_code": "TH",
      "state_code": "71",
      "state_id": 3511,
      "country_id": 219
    },
    {
      "id": 106452,
      "name": "بو فلوي",
      "name_default": "Bo Phloi",
      "native": "บ่อพลอย",
      "type": "adm2",
      "level": null,
      "parent_id": null,
      "population": 16786,
      "latitude": "14.32517000",
      "longitude": "99.51467000",
      "timezone": "Asia/Bangkok",
      "wikiDataId": "Q28735553",
      "country_code": "TH",
      "state_code": "71",
      "state_id": 3511,
      "country_id": 219
    },
    {
      "id": 105319,
      "name": "أمفو دان ماخام تيا",
      "name_default": "Dan Makham Tia",
      "native": "อำเภอด่านมะขามเตี้ย",
      "type": "district",
      "level": null,
      "parent_id": null,
      "population": null,
      "latitude": "13.83422000",
      "longitude": "99.34125000",
      "timezone": "Asia/Bangkok",
      "wikiDataId": "Q475445",
      "country_code": "TH",
      "state_code": "71",
      "state_id": 3511,
      "country_id": 219
    },
    {
      "id": 105353,
      "name": "أمفوي هواي كراشاو",
      "name_default": "Huai Krachao",
      "native": "อำเภอห้วยกระเจา",
      "type": "district",
      "level": null,
      "parent_id": null,
      "population": null,
      "latitude": "14.34056000",
      "longitude": "99.67633000",
      "timezone": "Asia/Bangkok",
      "wikiDataId": "Q475538",
      "country_code": "TH",
      "state_code": "71",
      "state_id": 3511,
      "country_id": 219
    },
    {
      "id": 106510,
      "name": "كانشانابوري",
      "name_default": "Kanchanaburi",
      "native": "กาญจนบุรี",
      "type": "adm1",
      "level": null,
      "parent_id": null,
      "population": 63699,
      "latitude": "14.00412000",
      "longitude": "99.54832000",
      "timezone": "Asia/Bangkok",
      "wikiDataId": "Q239121",
      "country_code": "TH",
      "state_code": "71",
      "state_id": 3511,
      "country_id": 219
    },
    {
      "id": 105484,
      "name": "أمفوي لاو خوان",
      "name_default": "Lao Khwan",
      "native": "อำเภอเลาขวัญ",
      "type": "district",
      "level": null,
      "parent_id": null,
      "population": null,
      "latitude": "14.59488000",
      "longitude": "99.68338000",
      "timezone": "Asia/Bangkok",
      "wikiDataId": "Q475895",
      "country_code": "TH",
      "state_code": "71",
      "state_id": 3511,
      "country_id": 219
    },
    {
      "id": 105544,
      "name": "أمفوي موينج كانشانابوري",
      "name_default": "Mueang Kanchanaburi",
      "native": "อำเภอเมืองกาญจนบุรี",
      "type": "district",
      "level": null,
      "parent_id": null,
      "population": null,
      "latitude": "14.06987000",
      "longitude": "99.32769000",
      "timezone": "Asia/Bangkok",
      "wikiDataId": "Q476021",
      "country_code": "TH",
      "state_code": "71",
      "state_id": 3511,
      "country_id": 219
    },
    {
      "id": 105677,
      "name": "أمفو نونغ برو",
      "name_default": "Nong Prue",
      "native": "อำเภอหนองปรือ",
      "type": "district",
      "level": null,
      "parent_id": null,
      "population": null,
      "latitude": "14.67801000",
      "longitude": "99.41075000",
      "timezone": "Asia/Bangkok",
      "wikiDataId": "Q476273",
      "country_code": "TH",
      "state_code": "71",
      "state_id": 3511,
      "country_id": 219
    },
    {
      "id": 106624,
      "name": "فانوم ثوان",
      "name_default": "Phanom Thuan",
      "native": "พนมทวน",
      "type": "adm2",
      "level": null,
      "parent_id": null,
      "population": 12469,
      "latitude": "14.13031000",
      "longitude": "99.69858000",
      "timezone": "Asia/Bangkok",
      "wikiDataId": "Q28735558",
      "country_code": "TH",
      "state_code": "71",
      "state_id": 3511,
      "country_id": 219
    },
    {
      "id": 105826,
      "name": "أمفو ساي يوك",
      "name_default": "Sai Yok",
      "native": "อำเภอไทรโยค",
      "type": "district",
      "level": null,
      "parent_id": null,
      "population": null,
      "latitude": "14.25652000",
      "longitude": "98.93372000",
      "timezone": "Asia/Bangkok",
      "wikiDataId": "Q476592",
      "country_code": "TH",
      "state_code": "71",
      "state_id": 3511,
      "country_id": 219
    },
    {
      "id": 106685,
      "name": "سانكلا بوري",
      "name_default": "Sangkhla Buri",
      "native": "สังขละบุรี",
      "type": "adm2",
      "level": null,
      "parent_id": null,
      "population": 10000,
      "latitude": "15.15553000",
      "longitude": "98.45361000",
      "timezone": "Asia/Bangkok",
      "wikiDataId": "Q28721656",
      "country_code": "TH",
      "state_code": "71",
      "state_id": 3511,
      "country_id": 219
    },
    {
      "id": 106225,
      "name": "أمفو سي سوات",
      "name_default": "Si Sawat",
      "native": "อำเภอศรีสวัสดิ์",
      "type": "district",
      "level": null,
      "parent_id": null,
      "population": null,
      "latitude": "14.67254000",
      "longitude": "99.12992000",
      "timezone": "Asia/Bangkok",
      "wikiDataId": "Q476718",
      "country_code": "TH",
      "state_code": "71",
      "state_id": 3511,
      "country_id": 219
    },
    {
      "id": 106722,
      "name": "ثا ماكا",
      "name_default": "Tha Maka",
      "native": "ท่ามะกา",
      "type": "city",
      "level": null,
      "parent_id": null,
      "population": 52907,
      "latitude": "13.90000000",
      "longitude": "99.76667000",
      "timezone": "Asia/Bangkok",
      "wikiDataId": "Q12005687",
      "country_code": "TH",
      "state_code": "71",
      "state_id": 3511,
      "country_id": 219
    },
    {
      "id": 106723,
      "name": "ثا موانج",
      "name_default": "Tha Muang",
      "native": "ท่าม่วง",
      "type": "adm2",
      "level": null,
      "parent_id": null,
      "population": 26746,
      "latitude": "13.96118000",
      "longitude": "99.64122000",
      "timezone": "Asia/Bangkok",
      "wikiDataId": "Q28735554",
      "country_code": "TH",
      "state_code": "71",
      "state_id": 3511,
      "country_id": 219
    },
    {
      "id": 106309,
      "name": "أمفوي ثونغ فا فوم",
      "name_default": "Thong Pha Phum",
      "native": "อำเภอทองผาภูมิ",
      "type": "district",
      "level": null,
      "parent_id": null,
      "population": null,
      "latitude": "14.83277000",
      "longitude": "98.69233000",
      "timezone": "Asia/Bangkok",
      "wikiDataId": "Q476925",
      "country_code": "TH",
      "state_code": "71",
      "state_id": 3511,
      "country_id": 219
    }
  ]
}
