{
  "locale": "ru",
  "country": {
    "id": 173,
    "code": "PE",
    "iso3": "PER",
    "numeric_code": "604",
    "name": "Перу",
    "name_default": "Peru",
    "native": "Perú",
    "capital": "Lima",
    "phonecode": "51",
    "currency": "PEN",
    "currency_name": "Peruvian sol",
    "currency_symbol": "S/.",
    "tld": ".pe",
    "population": 34350244,
    "gdp": 303293,
    "region": "Americas",
    "region_id": 2,
    "subregion": "South America",
    "subregion_id": 8,
    "nationality": "Peruvian",
    "timezones": [
      {
        "zoneName": "America/Lima",
        "gmtOffset": -18000,
        "gmtOffsetName": "UTC-05:00",
        "abbreviation": "PET",
        "tzName": "Peru Time"
      }
    ],
    "latitude": "-10.00000000",
    "longitude": "-76.00000000",
    "emoji": "🇵🇪",
    "emojiU": "U+1F1F5 U+1F1EA"
  },
  "state": {
    "id": 3681,
    "code": "ARE",
    "iso2": "ARE",
    "iso3166_2": "PE-ARE",
    "fips_code": "04",
    "name": "Арекипа",
    "name_default": "Arequipa",
    "native": "Arequipa",
    "type": "region",
    "level": null,
    "parent_id": null,
    "population": null,
    "latitude": "-16.39886670",
    "longitude": "-71.53696070",
    "timezone": "America/Lima",
    "wikiDataId": "Q205068",
    "country_code": "PE"
  },
  "cities": [
    {
      "id": 80555,
      "name": "Акари",
      "name_default": "Acarí",
      "native": "Acarí",
      "type": "city",
      "level": null,
      "parent_id": null,
      "population": 4445,
      "latitude": "-15.42393000",
      "longitude": "-74.61361000",
      "timezone": "America/Lima",
      "wikiDataId": "Q25247498",
      "country_code": "PE",
      "state_code": "ARE",
      "state_id": 3681,
      "country_id": 173
    },
    {
      "id": 80561,
      "name": "Арекипа",
      "name_default": "Arequipa",
      "native": "Arequipa",
      "type": "adm1",
      "level": null,
      "parent_id": null,
      "population": 1008290,
      "latitude": "-16.39889000",
      "longitude": "-71.53500000",
      "timezone": "America/Lima",
      "wikiDataId": "Q159273",
      "country_code": "PE",
      "state_code": "ARE",
      "state_id": 3681,
      "country_id": 173
    },
    {
      "id": 80588,
      "name": "Камана",
      "name_default": "Camaná",
      "native": "Camaná",
      "type": "city",
      "level": null,
      "parent_id": null,
      "population": 16434,
      "latitude": "-16.62375000",
      "longitude": "-72.71055000",
      "timezone": "America/Lima",
      "wikiDataId": "Q1028011",
      "country_code": "PE",
      "state_code": "ARE",
      "state_id": 3681,
      "country_id": 173
    },
    {
      "id": 80598,
      "name": "Коло",
      "name_default": "Ccolo",
      "native": "Ccolo",
      "type": "city",
      "level": null,
      "parent_id": null,
      "population": 3857,
      "latitude": "-15.50611000",
      "longitude": "-71.49184000",
      "timezone": "America/Lima",
      "wikiDataId": "Q3312424",
      "country_code": "PE",
      "state_code": "ARE",
      "state_id": 3681,
      "country_id": 173
    },
    {
      "id": 80619,
      "name": "Чивай",
      "name_default": "Chivay",
      "native": "Chivay",
      "type": "adm3",
      "level": null,
      "parent_id": null,
      "population": 4543,
      "latitude": "-15.63833000",
      "longitude": "-71.60111000",
      "timezone": "America/Lima",
      "wikiDataId": "Q2351933",
      "country_code": "PE",
      "state_code": "ARE",
      "state_id": 3681,
      "country_id": 173
    },
    {
      "id": 80627,
      "name": "Кокачакра",
      "name_default": "Cocachacra",
      "native": "Cocaquacra",
      "type": "adm3",
      "level": null,
      "parent_id": null,
      "population": 8347,
      "latitude": "-17.08833000",
      "longitude": "-71.75750000",
      "timezone": "America/Lima",
      "wikiDataId": "Q3344173",
      "country_code": "PE",
      "state_code": "ARE",
      "state_id": 3681,
      "country_id": 173
    },
    {
      "id": 80634,
      "name": "Котауаси",
      "name_default": "Cotahuasi",
      "native": "Cotahuasi",
      "type": "adm3",
      "level": null,
      "parent_id": null,
      "population": 0,
      "latitude": "-15.21306000",
      "longitude": "-72.88861000",
      "timezone": "America/Lima",
      "wikiDataId": "Q2638258",
      "country_code": "PE",
      "state_code": "ARE",
      "state_id": 3681,
      "country_id": 173
    },
    {
      "id": 80655,
      "name": "Уаранканте",
      "name_default": "Huarancante",
      "native": "Kaurancante",
      "type": "city",
      "level": null,
      "parent_id": null,
      "population": 4638,
      "latitude": "-15.76803000",
      "longitude": "-71.45952000",
      "timezone": "America/Lima",
      "wikiDataId": "Q723677",
      "country_code": "PE",
      "state_code": "ARE",
      "state_id": 3681,
      "country_id": 173
    },
    {
      "id": 80657,
      "name": "Уаричанкара",
      "name_default": "Huarichancara",
      "native": "Huarichancara",
      "type": "city",
      "level": null,
      "parent_id": null,
      "population": 4445,
      "latitude": "-15.63972000",
      "longitude": "-71.06111000",
      "timezone": "America/Lima",
      "wikiDataId": "Q793809",
      "country_code": "PE",
      "state_code": "ARE",
      "state_id": 3681,
      "country_id": 173
    },
    {
      "id": 80673,
      "name": "Джатун Оркочири",
      "name_default": "Jatun Orcochiri",
      "native": "Gran Orcochiri",
      "type": "city",
      "level": null,
      "parent_id": null,
      "population": 4358,
      "latitude": "-15.75003000",
      "longitude": "-71.34641000",
      "timezone": "America/Lima",
      "wikiDataId": "Q1000341",
      "country_code": "PE",
      "state_code": "ARE",
      "state_id": 3681,
      "country_id": 173
    },
    {
      "id": 80677,
      "name": "Джаюн",
      "name_default": "Jayune",
      "native": "Jayune",
      "type": "city",
      "level": null,
      "parent_id": null,
      "population": 4256,
      "latitude": "-15.56277000",
      "longitude": "-71.30312000",
      "timezone": "America/Lima",
      "wikiDataId": "Q917434",
      "country_code": "PE",
      "state_code": "ARE",
      "state_id": 3681,
      "country_id": 173
    },
    {
      "id": 80704,
      "name": "Ллонгасора",
      "name_default": "Llongasora",
      "native": "Barco",
      "type": "city",
      "level": null,
      "parent_id": null,
      "population": 4753,
      "latitude": "-15.63951000",
      "longitude": "-71.29921000",
      "timezone": "America/Lima",
      "wikiDataId": "Q3344864",
      "country_code": "PE",
      "state_code": "ARE",
      "state_id": 3681,
      "country_id": 173
    },
    {
      "id": 80705,
      "name": "Ллута",
      "name_default": "Lluta",
      "native": "Lluta",
      "type": "adm3",
      "level": null,
      "parent_id": null,
      "population": 5998,
      "latitude": "-16.01472000",
      "longitude": "-72.01417000",
      "timezone": "America/Lima",
      "wikiDataId": "Q3344864",
      "country_code": "PE",
      "state_code": "ARE",
      "state_id": 3681,
      "country_id": 173
    },
    {
      "id": 80717,
      "name": "Мольендо",
      "name_default": "Mollendo",
      "native": "Mollendo",
      "type": "adm3",
      "level": null,
      "parent_id": null,
      "population": 28305,
      "latitude": "-17.02306000",
      "longitude": "-72.01472000",
      "timezone": "America/Lima",
      "wikiDataId": "Q2351948",
      "country_code": "PE",
      "state_code": "ARE",
      "state_id": 3681,
      "country_id": 173
    },
    {
      "id": 80733,
      "name": "Оркопампа",
      "name_default": "Orcopampa",
      "native": "Orcopampa",
      "type": "adm3",
      "level": null,
      "parent_id": null,
      "population": 5643,
      "latitude": "-15.26611000",
      "longitude": "-72.34167000",
      "timezone": "America/Lima",
      "wikiDataId": "Q916382",
      "country_code": "PE",
      "state_code": "ARE",
      "state_id": 3681,
      "country_id": 173
    },
    {
      "id": 80777,
      "name": "Провинция Арекипа",
      "name_default": "Provincia de Arequipa",
      "native": "Provincia de Arequipa",
      "type": "city",
      "level": null,
      "parent_id": null,
      "population": 583,
      "latitude": "-16.33333000",
      "longitude": "-71.50000000",
      "timezone": "America/Lima",
      "wikiDataId": "Q601118",
      "country_code": "PE",
      "state_code": "ARE",
      "state_id": 3681,
      "country_id": 173
    },
    {
      "id": 80789,
      "name": "Provincia de Camaná",
      "name_default": "Provincia de Camaná",
      "native": "Provincia de Camaná",
      "type": "city",
      "level": null,
      "parent_id": null,
      "population": 59370,
      "latitude": "-16.41667000",
      "longitude": "-72.83333000",
      "timezone": "America/Lima",
      "wikiDataId": "Q1784851",
      "country_code": "PE",
      "state_code": "ARE",
      "state_id": 3681,
      "country_id": 173
    },
    {
      "id": 80795,
      "name": "Provincia de Caravelí",
      "name_default": "Provincia de Caravelí",
      "native": "Provincia de Caravelí",
      "type": "adm3",
      "level": null,
      "parent_id": null,
      "population": 41346,
      "latitude": "-15.58333000",
      "longitude": "-74.00000000",
      "timezone": "America/Lima",
      "wikiDataId": "Q1779727",
      "country_code": "PE",
      "state_code": "ARE",
      "state_id": 3681,
      "country_id": 173
    },
    {
      "id": 80798,
      "name": "Провинция Кастилия",
      "name_default": "Provincia de Castilla",
      "native": "Provincia de Castilla",
      "type": "city",
      "level": null,
      "parent_id": null,
      "population": 33629,
      "latitude": "-15.58333000",
      "longitude": "-72.41667000",
      "timezone": "America/Lima",
      "wikiDataId": "Q614628",
      "country_code": "PE",
      "state_code": "ARE",
      "state_id": 3681,
      "country_id": 173
    },
    {
      "id": 80800,
      "name": "Провинция Кайльома",
      "name_default": "Provincia de Caylloma",
      "native": "Provincia de Caylloma",
      "type": "adm3",
      "level": null,
      "parent_id": null,
      "population": 86771,
      "latitude": "-15.66667000",
      "longitude": "-71.58333000",
      "timezone": "America/Lima",
      "wikiDataId": "Q1806435",
      "country_code": "PE",
      "state_code": "ARE",
      "state_id": 3681,
      "country_id": 173
    },
    {
      "id": 80812,
      "name": "Provincia de Condesuyos",
      "name_default": "Provincia de Condesuyos",
      "native": "Provincia de Condesuyos",
      "type": "city",
      "level": null,
      "parent_id": null,
      "population": 16118,
      "latitude": "-15.58333000",
      "longitude": "-72.83333000",
      "timezone": "America/Lima",
      "wikiDataId": "Q1814253",
      "country_code": "PE",
      "state_code": "ARE",
      "state_id": 3681,
      "country_id": 173
    },
    {
      "id": 80845,
      "name": "Провинция Айлей",
      "name_default": "Provincia de Islay",
      "native": "Provincia de Islay",
      "type": "city",
      "level": null,
      "parent_id": null,
      "population": 52034,
      "latitude": "-17.00000000",
      "longitude": "-71.83333000",
      "timezone": "America/Lima",
      "wikiDataId": "Q1779688",
      "country_code": "PE",
      "state_code": "ARE",
      "state_id": 3681,
      "country_id": 173
    },
    {
      "id": 80851,
      "name": "Provincia de La Unión",
      "name_default": "Provincia de La Unión",
      "native": "Provincia de La Unión",
      "type": "adm3",
      "level": null,
      "parent_id": null,
      "population": 12827,
      "latitude": "-15.00000000",
      "longitude": "-72.83333000",
      "timezone": "America/Lima",
      "wikiDataId": "Q1779698",
      "country_code": "PE",
      "state_code": "ARE",
      "state_id": 3681,
      "country_id": 173
    },
    {
      "id": 80914,
      "name": "Пукара",
      "name_default": "Pucara",
      "native": "Pucara",
      "type": "city",
      "level": null,
      "parent_id": null,
      "population": 4335,
      "latitude": "-15.97993000",
      "longitude": "-71.45988000",
      "timezone": "America/Lima",
      "wikiDataId": "Q217071",
      "country_code": "PE",
      "state_code": "ARE",
      "state_id": 3681,
      "country_id": 173
    },
    {
      "id": 80923,
      "name": "Пунта-де-Бомбон",
      "name_default": "Punta de Bombón",
      "native": "Punta de Bombón",
      "type": "adm3",
      "level": null,
      "parent_id": null,
      "population": 6336,
      "latitude": "-17.17190000",
      "longitude": "-71.79240000",
      "timezone": "America/Lima",
      "wikiDataId": "Q232842",
      "country_code": "PE",
      "state_code": "ARE",
      "state_id": 3681,
      "country_id": 173
    },
    {
      "id": 81012,
      "name": "Вискачане",
      "name_default": "Vizcachane",
      "native": "Vizcachane",
      "type": "city",
      "level": null,
      "parent_id": null,
      "population": 4407,
      "latitude": "-15.80861000",
      "longitude": "-71.20111000",
      "timezone": "America/Lima",
      "wikiDataId": "Q3344843",
      "country_code": "PE",
      "state_code": "ARE",
      "state_id": 3681,
      "country_id": 173
    },
    {
      "id": 81020,
      "name": "Юра",
      "name_default": "Yura",
      "native": "Yura",
      "type": "adm3",
      "level": null,
      "parent_id": null,
      "population": 5686,
      "latitude": "-16.25223000",
      "longitude": "-71.67969000",
      "timezone": "America/Lima",
      "wikiDataId": "Q2306609",
      "country_code": "PE",
      "state_code": "ARE",
      "state_id": 3681,
      "country_id": 173
    }
  ]
}
