{
  "locale": "uk",
  "country": {
    "id": 233,
    "code": "US",
    "iso3": "USA",
    "numeric_code": "840",
    "name": "Сполучені Штати",
    "name_default": "United States",
    "native": "United States",
    "capital": "Washington",
    "phonecode": "1",
    "currency": "USD",
    "currency_name": "United States dollar",
    "currency_symbol": "$",
    "tld": ".us",
    "population": 340110988,
    "gdp": 30507217,
    "region": "Americas",
    "region_id": 2,
    "subregion": "Northern America",
    "subregion_id": 6,
    "nationality": "American",
    "timezones": [
      {
        "zoneName": "America/Adak",
        "gmtOffset": -36000,
        "gmtOffsetName": "UTC-10:00",
        "abbreviation": "HST",
        "tzName": "Hawaii–Aleutian Standard Time"
      },
      {
        "zoneName": "America/Anchorage",
        "gmtOffset": -32400,
        "gmtOffsetName": "UTC-09:00",
        "abbreviation": "AKST",
        "tzName": "Alaska Standard Time"
      },
      {
        "zoneName": "America/Boise",
        "gmtOffset": -25200,
        "gmtOffsetName": "UTC-07:00",
        "abbreviation": "MST",
        "tzName": "Mountain Standard Time (North America"
      },
      {
        "zoneName": "America/Chicago",
        "gmtOffset": -21600,
        "gmtOffsetName": "UTC-06:00",
        "abbreviation": "CST",
        "tzName": "Central Standard Time (North America"
      },
      {
        "zoneName": "America/Denver",
        "gmtOffset": -25200,
        "gmtOffsetName": "UTC-07:00",
        "abbreviation": "MST",
        "tzName": "Mountain Standard Time (North America"
      },
      {
        "zoneName": "America/Detroit",
        "gmtOffset": -18000,
        "gmtOffsetName": "UTC-05:00",
        "abbreviation": "EST",
        "tzName": "Eastern Standard Time (North America"
      },
      {
        "zoneName": "America/Indiana/Indianapolis",
        "gmtOffset": -18000,
        "gmtOffsetName": "UTC-05:00",
        "abbreviation": "EST",
        "tzName": "Eastern Standard Time (North America"
      },
      {
        "zoneName": "America/Indiana/Knox",
        "gmtOffset": -21600,
        "gmtOffsetName": "UTC-06:00",
        "abbreviation": "CST",
        "tzName": "Central Standard Time (North America"
      },
      {
        "zoneName": "America/Indiana/Marengo",
        "gmtOffset": -18000,
        "gmtOffsetName": "UTC-05:00",
        "abbreviation": "EST",
        "tzName": "Eastern Standard Time (North America"
      },
      {
        "zoneName": "America/Indiana/Petersburg",
        "gmtOffset": -18000,
        "gmtOffsetName": "UTC-05:00",
        "abbreviation": "EST",
        "tzName": "Eastern Standard Time (North America"
      },
      {
        "zoneName": "America/Indiana/Tell_City",
        "gmtOffset": -21600,
        "gmtOffsetName": "UTC-06:00",
        "abbreviation": "CST",
        "tzName": "Central Standard Time (North America"
      },
      {
        "zoneName": "America/Indiana/Vevay",
        "gmtOffset": -18000,
        "gmtOffsetName": "UTC-05:00",
        "abbreviation": "EST",
        "tzName": "Eastern Standard Time (North America"
      },
      {
        "zoneName": "America/Indiana/Vincennes",
        "gmtOffset": -18000,
        "gmtOffsetName": "UTC-05:00",
        "abbreviation": "EST",
        "tzName": "Eastern Standard Time (North America"
      },
      {
        "zoneName": "America/Indiana/Winamac",
        "gmtOffset": -18000,
        "gmtOffsetName": "UTC-05:00",
        "abbreviation": "EST",
        "tzName": "Eastern Standard Time (North America"
      },
      {
        "zoneName": "America/Juneau",
        "gmtOffset": -32400,
        "gmtOffsetName": "UTC-09:00",
        "abbreviation": "AKST",
        "tzName": "Alaska Standard Time"
      },
      {
        "zoneName": "America/Kentucky/Louisville",
        "gmtOffset": -18000,
        "gmtOffsetName": "UTC-05:00",
        "abbreviation": "EST",
        "tzName": "Eastern Standard Time (North America"
      },
      {
        "zoneName": "America/Kentucky/Monticello",
        "gmtOffset": -18000,
        "gmtOffsetName": "UTC-05:00",
        "abbreviation": "EST",
        "tzName": "Eastern Standard Time (North America"
      },
      {
        "zoneName": "America/Los_Angeles",
        "gmtOffset": -28800,
        "gmtOffsetName": "UTC-08:00",
        "abbreviation": "PST",
        "tzName": "Pacific Standard Time (North America"
      },
      {
        "zoneName": "America/Menominee",
        "gmtOffset": -21600,
        "gmtOffsetName": "UTC-06:00",
        "abbreviation": "CST",
        "tzName": "Central Standard Time (North America"
      },
      {
        "zoneName": "America/Metlakatla",
        "gmtOffset": -32400,
        "gmtOffsetName": "UTC-09:00",
        "abbreviation": "AKST",
        "tzName": "Alaska Standard Time"
      },
      {
        "zoneName": "America/New_York",
        "gmtOffset": -18000,
        "gmtOffsetName": "UTC-05:00",
        "abbreviation": "EST",
        "tzName": "Eastern Standard Time (North America"
      },
      {
        "zoneName": "America/Nome",
        "gmtOffset": -32400,
        "gmtOffsetName": "UTC-09:00",
        "abbreviation": "AKST",
        "tzName": "Alaska Standard Time"
      },
      {
        "zoneName": "America/North_Dakota/Beulah",
        "gmtOffset": -21600,
        "gmtOffsetName": "UTC-06:00",
        "abbreviation": "CST",
        "tzName": "Central Standard Time (North America"
      },
      {
        "zoneName": "America/North_Dakota/Center",
        "gmtOffset": -21600,
        "gmtOffsetName": "UTC-06:00",
        "abbreviation": "CST",
        "tzName": "Central Standard Time (North America"
      },
      {
        "zoneName": "America/North_Dakota/New_Salem",
        "gmtOffset": -21600,
        "gmtOffsetName": "UTC-06:00",
        "abbreviation": "CST",
        "tzName": "Central Standard Time (North America"
      },
      {
        "zoneName": "America/Phoenix",
        "gmtOffset": -25200,
        "gmtOffsetName": "UTC-07:00",
        "abbreviation": "MST",
        "tzName": "Mountain Standard Time (North America"
      },
      {
        "zoneName": "America/Sitka",
        "gmtOffset": -32400,
        "gmtOffsetName": "UTC-09:00",
        "abbreviation": "AKST",
        "tzName": "Alaska Standard Time"
      },
      {
        "zoneName": "America/Yakutat",
        "gmtOffset": -32400,
        "gmtOffsetName": "UTC-09:00",
        "abbreviation": "AKST",
        "tzName": "Alaska Standard Time"
      },
      {
        "zoneName": "Pacific/Honolulu",
        "gmtOffset": -36000,
        "gmtOffsetName": "UTC-10:00",
        "abbreviation": "HST",
        "tzName": "Hawaii–Aleutian Standard Time"
      }
    ],
    "latitude": "38.00000000",
    "longitude": "-97.00000000",
    "emoji": "🇺🇸",
    "emojiU": "U+1F1FA U+1F1F8"
  },
  "state": {
    "id": 4851,
    "code": "OH",
    "iso2": "OH",
    "iso3166_2": "US-OH",
    "fips_code": "39",
    "name": "Огайо",
    "name_default": "Ohio",
    "native": "Ohio",
    "type": "state",
    "level": null,
    "parent_id": null,
    "population": 11883304,
    "latitude": "40.22535690",
    "longitude": "-82.68813950",
    "timezone": "America/New_York",
    "wikiDataId": "Q1397",
    "country_code": "US"
  },
  "cities": [
    {
      "id": 141096,
      "name": "Ада",
      "name_default": "Ada",
      "native": "Ada",
      "type": "city",
      "level": null,
      "parent_id": null,
      "population": 5811,
      "latitude": "40.76950000",
      "longitude": "-83.82271000",
      "timezone": "America/New_York",
      "wikiDataId": "Q1934356",
      "country_code": "US",
      "state_code": "OH",
      "state_id": 4851,
      "country_id": 233
    },
    {
      "id": 141097,
      "name": "Округ Адамс",
      "name_default": "Adams County",
      "native": "Adams County",
      "type": "county",
      "level": null,
      "parent_id": null,
      "population": 20613,
      "latitude": "38.84551000",
      "longitude": "-83.47215000",
      "timezone": "America/New_York",
      "wikiDataId": "Q109969",
      "country_code": "US",
      "state_code": "OH",
      "state_id": 4851,
      "country_id": 233
    },
    {
      "id": 141098,
      "name": "Акрон",
      "name_default": "Akron",
      "native": "Akron",
      "type": "adm2",
      "level": null,
      "parent_id": null,
      "population": 197542,
      "latitude": "41.08144000",
      "longitude": "-81.51901000",
      "timezone": "America/New_York",
      "wikiDataId": "Q163132",
      "country_code": "US",
      "state_code": "OH",
      "state_id": 4851,
      "country_id": 233
    },
    {
      "id": 141099,
      "name": "Округ Аллен",
      "name_default": "Allen",
      "native": "Allen County",
      "type": "county",
      "level": null,
      "parent_id": null,
      "population": 37873,
      "latitude": "40.77152000",
      "longitude": "-84.10578000",
      "timezone": "America/New_York",
      "wikiDataId": "Q485577",
      "country_code": "US",
      "state_code": "OH",
      "state_id": 4851,
      "country_id": 233
    },
    {
      "id": 141100,
      "name": "Альянс",
      "name_default": "Alliance",
      "native": "Alliance",
      "type": "city",
      "level": null,
      "parent_id": null,
      "population": 22055,
      "latitude": "40.91534000",
      "longitude": "-81.10593000",
      "timezone": "America/New_York",
      "wikiDataId": "Q985230",
      "country_code": "US",
      "state_code": "OH",
      "state_id": 4851,
      "country_id": 233
    },
    {
      "id": 141101,
      "name": "Амберлі",
      "name_default": "Amberley",
      "native": "Amberley",
      "type": "city",
      "level": null,
      "parent_id": null,
      "population": 3840,
      "latitude": "39.20478000",
      "longitude": "-84.42800000",
      "timezone": "America/New_York",
      "wikiDataId": "Q2673467",
      "country_code": "US",
      "state_code": "OH",
      "state_id": 4851,
      "country_id": 233
    },
    {
      "id": 141102,
      "name": "Амелія",
      "name_default": "Amelia",
      "native": "Amelia",
      "type": "city",
      "level": null,
      "parent_id": null,
      "population": 4932,
      "latitude": "39.02840000",
      "longitude": "-84.21771000",
      "timezone": "America/New_York",
      "wikiDataId": "Q943559",
      "country_code": "US",
      "state_code": "OH",
      "state_id": 4851,
      "country_id": 233
    },
    {
      "id": 141103,
      "name": "Амхерст",
      "name_default": "Amherst",
      "native": "Amherst",
      "type": "city",
      "level": null,
      "parent_id": null,
      "population": 12135,
      "latitude": "41.39782000",
      "longitude": "-82.22238000",
      "timezone": "America/New_York",
      "wikiDataId": "Q2232720",
      "country_code": "US",
      "state_code": "OH",
      "state_id": 4851,
      "country_id": 233
    },
    {
      "id": 141104,
      "name": "Андовер",
      "name_default": "Andover",
      "native": "Andover",
      "type": "city",
      "level": null,
      "parent_id": null,
      "population": 1119,
      "latitude": "41.60672000",
      "longitude": "-80.57230000",
      "timezone": "America/New_York",
      "wikiDataId": "Q2646414",
      "country_code": "US",
      "state_code": "OH",
      "state_id": 4851,
      "country_id": 233
    },
    {
      "id": 141105,
      "name": "Анна",
      "name_default": "Anna",
      "native": "Anna",
      "type": "city",
      "level": null,
      "parent_id": null,
      "population": 1470,
      "latitude": "40.39449000",
      "longitude": "-84.17272000",
      "timezone": "America/New_York",
      "wikiDataId": "Q2303540",
      "country_code": "US",
      "state_code": "OH",
      "state_id": 4851,
      "country_id": 233
    },
    {
      "id": 141106,
      "name": "Ансонія",
      "name_default": "Ansonia",
      "native": "Ansonia",
      "type": "city",
      "level": null,
      "parent_id": null,
      "population": 1150,
      "latitude": "40.21449000",
      "longitude": "-84.63690000",
      "timezone": "America/New_York",
      "wikiDataId": "Q2279267",
      "country_code": "US",
      "state_code": "OH",
      "state_id": 4851,
      "country_id": 233
    },
    {
      "id": 141107,
      "name": "Антверпен",
      "name_default": "Antwerp",
      "native": "Antwerp",
      "type": "city",
      "level": null,
      "parent_id": null,
      "population": 1676,
      "latitude": "41.18144000",
      "longitude": "-84.74051000",
      "timezone": "America/New_York",
      "wikiDataId": "Q2668866",
      "country_code": "US",
      "state_code": "OH",
      "state_id": 4851,
      "country_id": 233
    },
    {
      "id": 141108,
      "name": "Еппл-Крік",
      "name_default": "Apple Creek",
      "native": "Apple Creek",
      "type": "city",
      "level": null,
      "parent_id": null,
      "population": 1188,
      "latitude": "40.75172000",
      "longitude": "-81.83930000",
      "timezone": "America/New_York",
      "wikiDataId": "Q1816973",
      "country_code": "US",
      "state_code": "OH",
      "state_id": 4851,
      "country_id": 233
    },
    {
      "id": 141109,
      "name": "Еппл-Веллі",
      "name_default": "Apple Valley",
      "native": "Apple Valley",
      "type": "city",
      "level": null,
      "parent_id": null,
      "population": 5058,
      "latitude": "40.43890000",
      "longitude": "-82.35391000",
      "timezone": "America/New_York",
      "wikiDataId": "Q1816973",
      "country_code": "US",
      "state_code": "OH",
      "state_id": 4851,
      "country_id": 233
    },
    {
      "id": 141110,
      "name": "Арканум",
      "name_default": "Arcanum",
      "native": "Secret",
      "type": "city",
      "level": null,
      "parent_id": null,
      "population": 2347,
      "latitude": "39.99005000",
      "longitude": "-84.55329000",
      "timezone": "America/New_York",
      "wikiDataId": "Q2668825",
      "country_code": "US",
      "state_code": "OH",
      "state_id": 4851,
      "country_id": 233
    },
    {
      "id": 141111,
      "name": "Арчболд",
      "name_default": "Archbold",
      "native": "Archbold",
      "type": "city",
      "level": null,
      "parent_id": null,
      "population": 4516,
      "latitude": "41.52144000",
      "longitude": "-84.30717000",
      "timezone": "America/New_York",
      "wikiDataId": "Q632471",
      "country_code": "US",
      "state_code": "OH",
      "state_id": 4851,
      "country_id": 233
    },
    {
      "id": 141112,
      "name": "Арлінгтон",
      "name_default": "Arlington",
      "native": "Arlington",
      "type": "city",
      "level": null,
      "parent_id": null,
      "population": 1453,
      "latitude": "40.89366000",
      "longitude": "-83.65021000",
      "timezone": "America/New_York",
      "wikiDataId": "Q690513",
      "country_code": "US",
      "state_code": "OH",
      "state_id": 4851,
      "country_id": 233
    },
    {
      "id": 141113,
      "name": "Ашленд",
      "name_default": "Ashland",
      "native": "Ashland",
      "type": "adm2",
      "level": null,
      "parent_id": null,
      "population": 21360,
      "latitude": "40.86867000",
      "longitude": "-82.31822000",
      "timezone": "America/New_York",
      "wikiDataId": "Q725573",
      "country_code": "US",
      "state_code": "OH",
      "state_id": 4851,
      "country_id": 233
    },
    {
      "id": 141114,
      "name": "Округ Ашленд",
      "name_default": "Ashland County",
      "native": "Ashland County",
      "type": "county",
      "level": null,
      "parent_id": null,
      "population": 16027,
      "latitude": "40.84602000",
      "longitude": "-82.27069000",
      "timezone": "America/New_York",
      "wikiDataId": "Q403544",
      "country_code": "US",
      "state_code": "OH",
      "state_id": 4851,
      "country_id": 233
    },
    {
      "id": 141115,
      "name": "Ешлі",
      "name_default": "Ashley",
      "native": "Ashley",
      "type": "city",
      "level": null,
      "parent_id": null,
      "population": 1361,
      "latitude": "40.40895000",
      "longitude": "-82.95546000",
      "timezone": "America/New_York",
      "wikiDataId": "Q2039183",
      "country_code": "US",
      "state_code": "OH",
      "state_id": 4851,
      "country_id": 233
    },
    {
      "id": 141116,
      "name": "Аштабула",
      "name_default": "Ashtabula",
      "native": "Ashtabula",
      "type": "city",
      "level": null,
      "parent_id": null,
      "population": 17975,
      "latitude": "41.86505000",
      "longitude": "-80.78981000",
      "timezone": "America/New_York",
      "wikiDataId": "Q726287",
      "country_code": "US",
      "state_code": "OH",
      "state_id": 4851,
      "country_id": 233
    },
    {
      "id": 141117,
      "name": "Округ Аштабула",
      "name_default": "Ashtabula County",
      "native": "Ashtabula County",
      "type": "county",
      "level": null,
      "parent_id": null,
      "population": 97574,
      "latitude": "41.89638000",
      "longitude": "-80.75901000",
      "timezone": "America/New_York",
      "wikiDataId": "Q336322",
      "country_code": "US",
      "state_code": "OH",
      "state_id": 4851,
      "country_id": 233
    },
    {
      "id": 141118,
      "name": "Ешвілл",
      "name_default": "Ashville",
      "native": "Ashville",
      "type": "city",
      "level": null,
      "parent_id": null,
      "population": 4190,
      "latitude": "39.71562000",
      "longitude": "-82.95296000",
      "timezone": "America/New_York",
      "wikiDataId": "Q726559",
      "country_code": "US",
      "state_code": "OH",
      "state_id": 4851,
      "country_id": 233
    },
    {
      "id": 141119,
      "name": "Афіни",
      "name_default": "Athens",
      "native": "Athens",
      "type": "adm2",
      "level": null,
      "parent_id": null,
      "population": 25044,
      "latitude": "39.32924000",
      "longitude": "-82.10126000",
      "timezone": "America/New_York",
      "wikiDataId": "Q755420",
      "country_code": "US",
      "state_code": "OH",
      "state_id": 4851,
      "country_id": 233
    },
    {
      "id": 141120,
      "name": "Округ Афіни",
      "name_default": "Athens County",
      "native": "Athens County",
      "type": "county",
      "level": null,
      "parent_id": null,
      "population": 62431,
      "latitude": "39.33386000",
      "longitude": "-82.04513000",
      "timezone": "America/New_York",
      "wikiDataId": "Q485588",
      "country_code": "US",
      "state_code": "OH",
      "state_id": 4851,
      "country_id": 233
    },
    {
      "id": 141121,
      "name": "Округ Оглейз",
      "name_default": "Auglaize",
      "native": "Auglaize County",
      "type": "county",
      "level": null,
      "parent_id": null,
      "population": 46422,
      "latitude": "40.56091000",
      "longitude": "-84.22174000",
      "timezone": "America/New_York",
      "wikiDataId": "Q372364",
      "country_code": "US",
      "state_code": "OH",
      "state_id": 4851,
      "country_id": 233
    },
    {
      "id": 141122,
      "name": "Аврора",
      "name_default": "Aurora",
      "native": "Aurora",
      "type": "city",
      "level": null,
      "parent_id": null,
      "population": 15838,
      "latitude": "41.31755000",
      "longitude": "-81.34539000",
      "timezone": "America/New_York",
      "wikiDataId": "Q777153",
      "country_code": "US",
      "state_code": "OH",
      "state_id": 4851,
      "country_id": 233
    },
    {
      "id": 141123,
      "name": "Остінтаун",
      "name_default": "Austintown",
      "native": "Austintown",
      "type": "city",
      "level": null,
      "parent_id": null,
      "population": 29677,
      "latitude": "41.10172000",
      "longitude": "-80.76452000",
      "timezone": "America/New_York",
      "wikiDataId": "Q769864",
      "country_code": "US",
      "state_code": "OH",
      "state_id": 4851,
      "country_id": 233
    },
    {
      "id": 141124,
      "name": "Ейвон",
      "name_default": "Avon",
      "native": "Avon",
      "type": "city",
      "level": null,
      "parent_id": null,
      "population": 22544,
      "latitude": "41.45171000",
      "longitude": "-82.03542000",
      "timezone": "America/New_York",
      "wikiDataId": "Q791271",
      "country_code": "US",
      "state_code": "OH",
      "state_id": 4851,
      "country_id": 233
    },
    {
      "id": 141125,
      "name": "Центр Ейвону",
      "name_default": "Avon Center",
      "native": "Avon Center",
      "type": "city",
      "level": null,
      "parent_id": null,
      "population": 15724,
      "latitude": "41.45976000",
      "longitude": "-82.01959000",
      "timezone": "America/New_York",
      "wikiDataId": "Q791271",
      "country_code": "US",
      "state_code": "OH",
      "state_id": 4851,
      "country_id": 233
    },
    {
      "id": 141126,
      "name": "Озеро Ейвон",
      "name_default": "Avon Lake",
      "native": "Avon Lake",
      "type": "city",
      "level": null,
      "parent_id": null,
      "population": 25206,
      "latitude": "41.50532000",
      "longitude": "-82.02820000",
      "timezone": "America/New_York",
      "wikiDataId": "Q791279",
      "country_code": "US",
      "state_code": "OH",
      "state_id": 4851,
      "country_id": 233
    },
    {
      "id": 141127,
      "name": "Бейнбрідж",
      "name_default": "Bainbridge",
      "native": "Bainbridge",
      "type": "city",
      "level": null,
      "parent_id": null,
      "population": 3267,
      "latitude": "41.38644000",
      "longitude": "-81.33955000",
      "timezone": "America/New_York",
      "wikiDataId": "Q2088307",
      "country_code": "US",
      "state_code": "OH",
      "state_id": 4851,
      "country_id": 233
    },
    {
      "id": 141128,
      "name": "Боллвілл",
      "name_default": "Ballville",
      "native": "Ballville",
      "type": "city",
      "level": null,
      "parent_id": null,
      "population": 2976,
      "latitude": "41.32783000",
      "longitude": "-83.13214000",
      "timezone": "America/New_York",
      "wikiDataId": "Q2088307",
      "country_code": "US",
      "state_code": "OH",
      "state_id": 4851,
      "country_id": 233
    },
    {
      "id": 141129,
      "name": "Балтимор",
      "name_default": "Baltimore",
      "native": "Baltimore",
      "type": "city",
      "level": null,
      "parent_id": null,
      "population": 2981,
      "latitude": "39.84534000",
      "longitude": "-82.60072000",
      "timezone": "America/New_York",
      "wikiDataId": "Q1889293",
      "country_code": "US",
      "state_code": "OH",
      "state_id": 4851,
      "country_id": 233
    },
    {
      "id": 141130,
      "name": "Барбертон",
      "name_default": "Barberton",
      "native": "Barberton",
      "type": "city",
      "level": null,
      "parent_id": null,
      "population": 25191,
      "latitude": "41.01283000",
      "longitude": "-81.60512000",
      "timezone": "America/New_York",
      "wikiDataId": "Q807830",
      "country_code": "US",
      "state_code": "OH",
      "state_id": 4851,
      "country_id": 233
    },
    {
      "id": 141131,
      "name": "Барнсвілл",
      "name_default": "Barnesville",
      "native": "Barnesville",
      "type": "city",
      "level": null,
      "parent_id": null,
      "population": 4125,
      "latitude": "39.98813000",
      "longitude": "-81.17650000",
      "timezone": "America/New_York",
      "wikiDataId": "Q808468",
      "country_code": "US",
      "state_code": "OH",
      "state_id": 4851,
      "country_id": 233
    },
    {
      "id": 141132,
      "name": "Батавія",
      "name_default": "Batavia",
      "native": "Batavia",
      "type": "adm2",
      "level": null,
      "parent_id": null,
      "population": 1648,
      "latitude": "39.07701000",
      "longitude": "-84.17688000",
      "timezone": "America/New_York",
      "wikiDataId": "Q586282",
      "country_code": "US",
      "state_code": "OH",
      "state_id": 4851,
      "country_id": 233
    },
    {
      "id": 141133,
      "name": "Бей Вілледж",
      "name_default": "Bay Village",
      "native": "Bay Village",
      "type": "city",
      "level": null,
      "parent_id": null,
      "population": 16163,
      "latitude": "41.48477000",
      "longitude": "-81.92208000",
      "timezone": "America/New_York",
      "wikiDataId": "Q812092",
      "country_code": "US",
      "state_code": "OH",
      "state_id": 4851,
      "country_id": 233
    },
    {
      "id": 141134,
      "name": "Біч-Сіті",
      "name_default": "Beach City",
      "native": "Beach City",
      "type": "city",
      "level": null,
      "parent_id": null,
      "population": 940,
      "latitude": "40.65312000",
      "longitude": "-81.58096000",
      "timezone": "America/New_York",
      "wikiDataId": "Q1934678",
      "country_code": "US",
      "state_code": "OH",
      "state_id": 4851,
      "country_id": 233
    },
    {
      "id": 141135,
      "name": "Бічвуд",
      "name_default": "Beachwood",
      "native": "Beachwood",
      "type": "city",
      "level": null,
      "parent_id": null,
      "population": 14040,
      "latitude": "41.46450000",
      "longitude": "-81.50873000",
      "timezone": "America/New_York",
      "wikiDataId": "Q812890",
      "country_code": "US",
      "state_code": "OH",
      "state_id": 4851,
      "country_id": 233
    },
    {
      "id": 141136,
      "name": "Біверкрік",
      "name_default": "Beavercreek",
      "native": "Beavercreek",
      "type": "city",
      "level": null,
      "parent_id": null,
      "population": 46549,
      "latitude": "39.70923000",
      "longitude": "-84.06327000",
      "timezone": "America/New_York",
      "wikiDataId": "Q2233290",
      "country_code": "US",
      "state_code": "OH",
      "state_id": 4851,
      "country_id": 233
    },
    {
      "id": 141137,
      "name": "Беккет Рідж",
      "name_default": "Beckett Ridge",
      "native": "Beckett Ridge",
      "type": "city",
      "level": null,
      "parent_id": null,
      "population": 9187,
      "latitude": "39.34700000",
      "longitude": "-84.43522000",
      "timezone": "America/New_York",
      "wikiDataId": "Q3313176",
      "country_code": "US",
      "state_code": "OH",
      "state_id": 4851,
      "country_id": 233
    },
    {
      "id": 141138,
      "name": "Бедфорд",
      "name_default": "Bedford",
      "native": "Bedford",
      "type": "city",
      "level": null,
      "parent_id": null,
      "population": 12747,
      "latitude": "41.39311000",
      "longitude": "-81.53651000",
      "timezone": "America/New_York",
      "wikiDataId": "Q813866",
      "country_code": "US",
      "state_code": "OH",
      "state_id": 4851,
      "country_id": 233
    },
    {
      "id": 141139,
      "name": "Бедфорд-Хайтс",
      "name_default": "Bedford Heights",
      "native": "Bedford Heights",
      "type": "city",
      "level": null,
      "parent_id": null,
      "population": 11020,
      "latitude": "41.41700000",
      "longitude": "-81.52734000",
      "timezone": "America/New_York",
      "wikiDataId": "Q206628",
      "country_code": "US",
      "state_code": "OH",
      "state_id": 4851,
      "country_id": 233
    },
    {
      "id": 141140,
      "name": "Стежки Бічвуд",
      "name_default": "Beechwood Trails",
      "native": "Beechwood Trails",
      "type": "city",
      "level": null,
      "parent_id": null,
      "population": 3020,
      "latitude": "40.02367000",
      "longitude": "-82.65072000",
      "timezone": "America/New_York",
      "wikiDataId": "Q431290",
      "country_code": "US",
      "state_code": "OH",
      "state_id": 4851,
      "country_id": 233
    },
    {
      "id": 141141,
      "name": "Беллер",
      "name_default": "Bellaire",
      "native": "Bellaire",
      "type": "city",
      "level": null,
      "parent_id": null,
      "population": 4189,
      "latitude": "40.01618000",
      "longitude": "-80.74231000",
      "timezone": "America/New_York",
      "wikiDataId": "Q1985364",
      "country_code": "US",
      "state_code": "OH",
      "state_id": 4851,
      "country_id": 233
    },
    {
      "id": 141142,
      "name": "Беллбрук",
      "name_default": "Bellbrook",
      "native": "Bellbrook",
      "type": "city",
      "level": null,
      "parent_id": null,
      "population": 7317,
      "latitude": "39.63562000",
      "longitude": "-84.07077000",
      "timezone": "America/New_York",
      "wikiDataId": "Q815826",
      "country_code": "US",
      "state_code": "OH",
      "state_id": 4851,
      "country_id": 233
    },
    {
      "id": 141143,
      "name": "Бельфонтен",
      "name_default": "Bellefontaine",
      "native": "Bellefontaine",
      "type": "adm2",
      "level": null,
      "parent_id": null,
      "population": 14115,
      "latitude": "40.36116000",
      "longitude": "-83.75966000",
      "timezone": "America/New_York",
      "wikiDataId": "Q815891",
      "country_code": "US",
      "state_code": "OH",
      "state_id": 4851,
      "country_id": 233
    },
    {
      "id": 141144,
      "name": "Бельвю",
      "name_default": "Bellevue",
      "native": "Bellevue",
      "type": "city",
      "level": null,
      "parent_id": null,
      "population": 8005,
      "latitude": "41.27366000",
      "longitude": "-82.84158000",
      "timezone": "America/New_York",
      "wikiDataId": "Q815964",
      "country_code": "US",
      "state_code": "OH",
      "state_id": 4851,
      "country_id": 233
    },
    {
      "id": 141145,
      "name": "Беллвілл",
      "name_default": "Bellville",
      "native": "Bellville",
      "type": "city",
      "level": null,
      "parent_id": null,
      "population": 1963,
      "latitude": "40.62006000",
      "longitude": "-82.51072000",
      "timezone": "America/New_York",
      "wikiDataId": "Q816072",
      "country_code": "US",
      "state_code": "OH",
      "state_id": 4851,
      "country_id": 233
    },
    {
      "id": 141146,
      "name": "Округ Белмонт",
      "name_default": "Belmont",
      "native": "Belmont County",
      "type": "county",
      "level": null,
      "parent_id": null,
      "population": 66497,
      "latitude": "40.01580000",
      "longitude": "-80.98854000",
      "timezone": "America/New_York",
      "wikiDataId": "Q485513",
      "country_code": "US",
      "state_code": "OH",
      "state_id": 4851,
      "country_id": 233
    },
    {
      "id": 141147,
      "name": "Белпре",
      "name_default": "Belpre",
      "native": "Belpre",
      "type": "city",
      "level": null,
      "parent_id": null,
      "population": 6728,
      "latitude": "39.27396000",
      "longitude": "-81.57290000",
      "timezone": "America/New_York",
      "wikiDataId": "Q816175",
      "country_code": "US",
      "state_code": "OH",
      "state_id": 4851,
      "country_id": 233
    },
    {
      "id": 141148,
      "name": "Береа",
      "name_default": "Berea",
      "native": "Berea",
      "type": "city",
      "level": null,
      "parent_id": null,
      "population": 18545,
      "latitude": "41.36616000",
      "longitude": "-81.85430000",
      "timezone": "America/New_York",
      "wikiDataId": "Q818897",
      "country_code": "US",
      "state_code": "OH",
      "state_id": 4851,
      "country_id": 233
    },
    {
      "id": 141149,
      "name": "Бетель",
      "name_default": "Bethel",
      "native": "Bethel",
      "type": "city",
      "level": null,
      "parent_id": null,
      "population": 2771,
      "latitude": "38.96368000",
      "longitude": "-84.08077000",
      "timezone": "America/New_York",
      "wikiDataId": "Q2669228",
      "country_code": "US",
      "state_code": "OH",
      "state_id": 4851,
      "country_id": 233
    },
    {
      "id": 141150,
      "name": "Бетесда",
      "name_default": "Bethesda",
      "native": "Bethesda",
      "type": "city",
      "level": null,
      "parent_id": null,
      "population": 1211,
      "latitude": "40.01618000",
      "longitude": "-81.07260000",
      "timezone": "America/New_York",
      "wikiDataId": "Q2392682",
      "country_code": "US",
      "state_code": "OH",
      "state_id": 4851,
      "country_id": 233
    },
    {
      "id": 141151,
      "name": "Беверлі",
      "name_default": "Beverly",
      "native": "Beverly",
      "type": "city",
      "level": null,
      "parent_id": null,
      "population": 1308,
      "latitude": "39.54785000",
      "longitude": "-81.63957000",
      "timezone": "America/New_York",
      "wikiDataId": "Q851740",
      "country_code": "US",
      "state_code": "OH",
      "state_id": 4851,
      "country_id": 233
    },
    {
      "id": 141152,
      "name": "Бекслі",
      "name_default": "Bexley",
      "native": "Bexley",
      "type": "city",
      "level": null,
      "parent_id": null,
      "population": 13928,
      "latitude": "39.96895000",
      "longitude": "-82.93768000",
      "timezone": "America/New_York",
      "wikiDataId": "Q1857734",
      "country_code": "US",
      "state_code": "OH",
      "state_id": 4851,
      "country_id": 233
    },
    {
      "id": 141153,
      "name": "Блеклік Естейтс",
      "name_default": "Blacklick Estates",
      "native": "Blacklick Estates",
      "type": "city",
      "level": null,
      "parent_id": null,
      "population": 8682,
      "latitude": "39.90506000",
      "longitude": "-82.86434000",
      "timezone": "America/New_York",
      "wikiDataId": "Q2841657",
      "country_code": "US",
      "state_code": "OH",
      "state_id": 4851,
      "country_id": 233
    },
    {
      "id": 141154,
      "name": "Бланчестер",
      "name_default": "Blanchester",
      "native": "White",
      "type": "city",
      "level": null,
      "parent_id": null,
      "population": 4224,
      "latitude": "39.29312000",
      "longitude": "-83.98882000",
      "timezone": "America/New_York",
      "wikiDataId": "Q527491",
      "country_code": "US",
      "state_code": "OH",
      "state_id": 4851,
      "country_id": 233
    },
    {
      "id": 141155,
      "name": "Блакитний попіл",
      "name_default": "Blue Ash",
      "native": "Blue Ash",
      "type": "city",
      "level": null,
      "parent_id": null,
      "population": 13394,
      "latitude": "39.23200000",
      "longitude": "-84.37827000",
      "timezone": "America/New_York",
      "wikiDataId": "Q885619",
      "country_code": "US",
      "state_code": "OH",
      "state_id": 4851,
      "country_id": 233
    },
    {
      "id": 141156,
      "name": "Блаффтон",
      "name_default": "Bluffton",
      "native": "Bluffton",
      "type": "city",
      "level": null,
      "parent_id": null,
      "population": 4161,
      "latitude": "40.89533000",
      "longitude": "-83.88883000",
      "timezone": "America/New_York",
      "wikiDataId": "Q282552",
      "country_code": "US",
      "state_code": "OH",
      "state_id": 4851,
      "country_id": 233
    },
    {
      "id": 141157,
      "name": "Бордмен",
      "name_default": "Boardman",
      "native": "Boardman",
      "type": "city",
      "level": null,
      "parent_id": null,
      "population": 35376,
      "latitude": "41.02423000",
      "longitude": "-80.66285000",
      "timezone": "America/New_York",
      "wikiDataId": "Q887556",
      "country_code": "US",
      "state_code": "OH",
      "state_id": 4851,
      "country_id": 233
    },
    {
      "id": 141158,
      "name": "Боліндейл",
      "name_default": "Bolindale",
      "native": "Bolindale",
      "type": "city",
      "level": null,
      "parent_id": null,
      "population": 2089,
      "latitude": "41.20728000",
      "longitude": "-80.77758000",
      "timezone": "America/New_York",
      "wikiDataId": "Q2416471",
      "country_code": "US",
      "state_code": "OH",
      "state_id": 4851,
      "country_id": 233
    },
    {
      "id": 141159,
      "name": "Бостон-Хайтс",
      "name_default": "Boston Heights",
      "native": "Boston Heights",
      "type": "city",
      "level": null,
      "parent_id": null,
      "population": 1402,
      "latitude": "41.26478000",
      "longitude": "-81.51317000",
      "timezone": "America/New_York",
      "wikiDataId": "Q2056836",
      "country_code": "US",
      "state_code": "OH",
      "state_id": 4851,
      "country_id": 233
    },
    {
      "id": 141160,
      "name": "Боткінс",
      "name_default": "Botkins",
      "native": "Botkins",
      "type": "city",
      "level": null,
      "parent_id": null,
      "population": 1155,
      "latitude": "40.46783000",
      "longitude": "-84.18050000",
      "timezone": "America/New_York",
      "wikiDataId": "Q512794",
      "country_code": "US",
      "state_code": "OH",
      "state_id": 4851,
      "country_id": 233
    },
    {
      "id": 141161,
      "name": "Боулінг-Грін",
      "name_default": "Bowling Green",
      "native": "Bowling Green",
      "type": "adm2",
      "level": null,
      "parent_id": null,
      "population": 30808,
      "latitude": "41.37477000",
      "longitude": "-83.65132000",
      "timezone": "America/New_York",
      "wikiDataId": "Q895459",
      "country_code": "US",
      "state_code": "OH",
      "state_id": 4851,
      "country_id": 233
    },
    {
      "id": 141162,
      "name": "Бредфорд",
      "name_default": "Bradford",
      "native": "Bradford",
      "type": "city",
      "level": null,
      "parent_id": null,
      "population": 1662,
      "latitude": "40.13227000",
      "longitude": "-84.43078000",
      "timezone": "America/New_York",
      "wikiDataId": "Q280278",
      "country_code": "US",
      "state_code": "OH",
      "state_id": 4851,
      "country_id": 233
    },
    {
      "id": 141163,
      "name": "Бреднер",
      "name_default": "Bradner",
      "native": "Bradner",
      "type": "city",
      "level": null,
      "parent_id": null,
      "population": 971,
      "latitude": "41.32422000",
      "longitude": "-83.43854000",
      "timezone": "America/New_York",
      "wikiDataId": "Q897084",
      "country_code": "US",
      "state_code": "OH",
      "state_id": 4851,
      "country_id": 233
    },
    {
      "id": 141164,
      "name": "Братенал",
      "name_default": "Bratenahl",
      "native": "Roast",
      "type": "city",
      "level": null,
      "parent_id": null,
      "population": 1430,
      "latitude": "41.54255000",
      "longitude": "-81.62624000",
      "timezone": "America/New_York",
      "wikiDataId": "Q899590",
      "country_code": "US",
      "state_code": "OH",
      "state_id": 4851,
      "country_id": 233
    },
    {
      "id": 141165,
      "name": "Брексвілл",
      "name_default": "Brecksville",
      "native": "Brecksville",
      "type": "city",
      "level": null,
      "parent_id": null,
      "population": 13635,
      "latitude": "41.31978000",
      "longitude": "-81.62679000",
      "timezone": "America/New_York",
      "wikiDataId": "Q904449",
      "country_code": "US",
      "state_code": "OH",
      "state_id": 4851,
      "country_id": 233
    },
    {
      "id": 141166,
      "name": "Бремен",
      "name_default": "Bremen",
      "native": "Bremen",
      "type": "city",
      "level": null,
      "parent_id": null,
      "population": 1479,
      "latitude": "39.70173000",
      "longitude": "-82.42682000",
      "timezone": "America/New_York",
      "wikiDataId": "Q282406",
      "country_code": "US",
      "state_code": "OH",
      "state_id": 4851,
      "country_id": 233
    },
    {
      "id": 141167,
      "name": "Брюстер",
      "name_default": "Brewster",
      "native": "Brewster",
      "type": "city",
      "level": null,
      "parent_id": null,
      "population": 1983,
      "latitude": "40.70700000",
      "longitude": "-81.59818000",
      "timezone": "America/New_York",
      "wikiDataId": "Q911453",
      "country_code": "US",
      "state_code": "OH",
      "state_id": 4851,
      "country_id": 233
    },
    {
      "id": 141168,
      "name": "Бріджпорт",
      "name_default": "Bridgeport",
      "native": "Bridgeport",
      "type": "city",
      "level": null,
      "parent_id": null,
      "population": 1582,
      "latitude": "40.06979000",
      "longitude": "-80.74008000",
      "timezone": "America/New_York",
      "wikiDataId": "Q2062947",
      "country_code": "US",
      "state_code": "OH",
      "state_id": 4851,
      "country_id": 233
    },
    {
      "id": 141169,
      "name": "Бріджтаун",
      "name_default": "Bridgetown",
      "native": "Bridgetown",
      "type": "city",
      "level": null,
      "parent_id": null,
      "population": 14407,
      "latitude": "39.15311000",
      "longitude": "-84.63717000",
      "timezone": "America/New_York",
      "wikiDataId": "Q4966785",
      "country_code": "US",
      "state_code": "OH",
      "state_id": 4851,
      "country_id": 233
    },
    {
      "id": 141170,
      "name": "Блискучий",
      "name_default": "Brilliant",
      "native": "Brilliant",
      "type": "city",
      "level": null,
      "parent_id": null,
      "population": 1482,
      "latitude": "40.26479000",
      "longitude": "-80.62619000",
      "timezone": "America/New_York",
      "wikiDataId": "Q826416",
      "country_code": "US",
      "state_code": "OH",
      "state_id": 4851,
      "country_id": 233
    },
    {
      "id": 141171,
      "name": "Брімфілд",
      "name_default": "Brimfield",
      "native": "Brimfield",
      "type": "city",
      "level": null,
      "parent_id": null,
      "population": 3694,
      "latitude": "41.10006000",
      "longitude": "-81.34650000",
      "timezone": "America/New_York",
      "wikiDataId": "Q2798238",
      "country_code": "US",
      "state_code": "OH",
      "state_id": 4851,
      "country_id": 233
    },
    {
      "id": 141172,
      "name": "Бродвью-Хайтс",
      "name_default": "Broadview Heights",
      "native": "Broadview Heights",
      "type": "city",
      "level": null,
      "parent_id": null,
      "population": 19936,
      "latitude": "41.31394000",
      "longitude": "-81.68513000",
      "timezone": "America/New_York",
      "wikiDataId": "Q1911269",
      "country_code": "US",
      "state_code": "OH",
      "state_id": 4851,
      "country_id": 233
    },
    {
      "id": 141173,
      "name": "Брук-Парк",
      "name_default": "Brook Park",
      "native": "Brook Park",
      "type": "city",
      "level": null,
      "parent_id": null,
      "population": 18595,
      "latitude": "41.39838000",
      "longitude": "-81.80458000",
      "timezone": "America/New_York",
      "wikiDataId": "Q928714",
      "country_code": "US",
      "state_code": "OH",
      "state_id": 4851,
      "country_id": 233
    },
    {
      "id": 141174,
      "name": "Центр Брукфілда",
      "name_default": "Brookfield Center",
      "native": "Brookfield Center",
      "type": "city",
      "level": null,
      "parent_id": null,
      "population": 1207,
      "latitude": "41.24061000",
      "longitude": "-80.55785000",
      "timezone": "America/New_York",
      "wikiDataId": "Q765529",
      "country_code": "US",
      "state_code": "OH",
      "state_id": 4851,
      "country_id": 233
    },
    {
      "id": 141175,
      "name": "Бруклін",
      "name_default": "Brooklyn",
      "native": "Brooklyn",
      "type": "city",
      "level": null,
      "parent_id": null,
      "population": 10899,
      "latitude": "41.43977000",
      "longitude": "-81.73541000",
      "timezone": "America/New_York",
      "wikiDataId": "Q929401",
      "country_code": "US",
      "state_code": "OH",
      "state_id": 4851,
      "country_id": 233
    },
    {
      "id": 141176,
      "name": "Бруклін-Хайтс",
      "name_default": "Brooklyn Heights",
      "native": "Brooklyn Heights",
      "type": "city",
      "level": null,
      "parent_id": null,
      "population": 1543,
      "latitude": "41.42533000",
      "longitude": "-81.68818000",
      "timezone": "America/New_York",
      "wikiDataId": "Q929578",
      "country_code": "US",
      "state_code": "OH",
      "state_id": 4851,
      "country_id": 233
    },
    {
      "id": 141177,
      "name": "Бруквілл",
      "name_default": "Brookville",
      "native": "Brookville",
      "type": "city",
      "level": null,
      "parent_id": null,
      "population": 5900,
      "latitude": "39.83672000",
      "longitude": "-84.41134000",
      "timezone": "America/New_York",
      "wikiDataId": "Q1925076",
      "country_code": "US",
      "state_code": "OH",
      "state_id": 4851,
      "country_id": 233
    },
    {
      "id": 141178,
      "name": "Округ Браун",
      "name_default": "Brown",
      "native": "Brown County",
      "type": "county",
      "level": null,
      "parent_id": null,
      "population": 268740,
      "latitude": "38.93405000",
      "longitude": "-83.86743000",
      "timezone": "America/New_York",
      "wikiDataId": "Q111575",
      "country_code": "US",
      "state_code": "OH",
      "state_id": 4851,
      "country_id": 233
    },
    {
      "id": 141179,
      "name": "Брансвік",
      "name_default": "Brunswick",
      "native": "Brunswick",
      "type": "city",
      "level": null,
      "parent_id": null,
      "population": 35426,
      "latitude": "41.23811000",
      "longitude": "-81.84180000",
      "timezone": "America/New_York",
      "wikiDataId": "Q263238",
      "country_code": "US",
      "state_code": "OH",
      "state_id": 4851,
      "country_id": 233
    },
    {
      "id": 141180,
      "name": "Браян",
      "name_default": "Bryan",
      "native": "Bryan",
      "type": "adm2",
      "level": null,
      "parent_id": null,
      "population": 8729,
      "latitude": "41.47477000",
      "longitude": "-84.55245000",
      "timezone": "America/New_York",
      "wikiDataId": "Q767752",
      "country_code": "US",
      "state_code": "OH",
      "state_id": 4851,
      "country_id": 233
    },
    {
      "id": 141181,
      "name": "Озеро Бакай",
      "name_default": "Buckeye Lake",
      "native": "Buckeye Lake",
      "type": "city",
      "level": null,
      "parent_id": null,
      "population": 2520,
      "latitude": "39.93368000",
      "longitude": "-82.47238000",
      "timezone": "America/New_York",
      "wikiDataId": "Q2668859",
      "country_code": "US",
      "state_code": "OH",
      "state_id": 4851,
      "country_id": 233
    },
    {
      "id": 141182,
      "name": "Букірус",
      "name_default": "Bucyrus",
      "native": "Bucyrus",
      "type": "adm2",
      "level": null,
      "parent_id": null,
      "population": 11916,
      "latitude": "40.80839000",
      "longitude": "-82.97546000",
      "timezone": "America/New_York",
      "wikiDataId": "Q993453",
      "country_code": "US",
      "state_code": "OH",
      "state_id": 4851,
      "country_id": 233
    },
    {
      "id": 141183,
      "name": "Берлінгтон",
      "name_default": "Burlington",
      "native": "Burlington",
      "type": "city",
      "level": null,
      "parent_id": null,
      "population": 2676,
      "latitude": "38.40730000",
      "longitude": "-82.53571000",
      "timezone": "America/New_York",
      "wikiDataId": "Q2000682",
      "country_code": "US",
      "state_code": "OH",
      "state_id": 4851,
      "country_id": 233
    },
    {
      "id": 141184,
      "name": "Бертон",
      "name_default": "Burton",
      "native": "Burton",
      "type": "city",
      "level": null,
      "parent_id": null,
      "population": 1461,
      "latitude": "41.47061000",
      "longitude": "-81.14510000",
      "timezone": "America/New_York",
      "wikiDataId": "Q1017116",
      "country_code": "US",
      "state_code": "OH",
      "state_id": 4851,
      "country_id": 233
    },
    {
      "id": 141185,
      "name": "Округ Батлер",
      "name_default": "Butler County",
      "native": "Butler County",
      "type": "county",
      "level": null,
      "parent_id": null,
      "population": 193763,
      "latitude": "39.43865000",
      "longitude": "-84.57566000",
      "timezone": "America/New_York",
      "wikiDataId": "Q485561",
      "country_code": "US",
      "state_code": "OH",
      "state_id": 4851,
      "country_id": 233
    },
    {
      "id": 141186,
      "name": "Байсвілл",
      "name_default": "Byesville",
      "native": "Byesville",
      "type": "city",
      "level": null,
      "parent_id": null,
      "population": 2364,
      "latitude": "39.96979000",
      "longitude": "-81.53651000",
      "timezone": "America/New_York",
      "wikiDataId": "Q2548846",
      "country_code": "US",
      "state_code": "OH",
      "state_id": 4851,
      "country_id": 233
    },
    {
      "id": 141187,
      "name": "Кадіс",
      "name_default": "Cadiz",
      "native": "Cadiz",
      "type": "adm2",
      "level": null,
      "parent_id": null,
      "population": 3051,
      "latitude": "40.27285000",
      "longitude": "-80.99676000",
      "timezone": "America/New_York",
      "wikiDataId": "Q1925015",
      "country_code": "US",
      "state_code": "OH",
      "state_id": 4851,
      "country_id": 233
    },
    {
      "id": 141188,
      "name": "Калькутта",
      "name_default": "Calcutta",
      "native": "Calcutta",
      "type": "city",
      "level": null,
      "parent_id": null,
      "population": 3742,
      "latitude": "40.67340000",
      "longitude": "-80.57646000",
      "timezone": "America/New_York",
      "wikiDataId": "Q2630411",
      "country_code": "US",
      "state_code": "OH",
      "state_id": 4851,
      "country_id": 233
    },
    {
      "id": 141189,
      "name": "Колдуелл",
      "name_default": "Caldwell",
      "native": "Caldwell",
      "type": "adm2",
      "level": null,
      "parent_id": null,
      "population": 1690,
      "latitude": "39.74785000",
      "longitude": "-81.51651000",
      "timezone": "America/New_York",
      "wikiDataId": "Q653835",
      "country_code": "US",
      "state_code": "OH",
      "state_id": 4851,
      "country_id": 233
    },
    {
      "id": 141190,
      "name": "Кембридж",
      "name_default": "Cambridge",
      "native": "Cambridge",
      "type": "adm2",
      "level": null,
      "parent_id": null,
      "population": 10402,
      "latitude": "40.03118000",
      "longitude": "-81.58846000",
      "timezone": "America/New_York",
      "wikiDataId": "Q249454",
      "country_code": "US",
      "state_code": "OH",
      "state_id": 4851,
      "country_id": 233
    },
    {
      "id": 141191,
      "name": "Камден",
      "name_default": "Camden",
      "native": "Cam",
      "type": "city",
      "level": null,
      "parent_id": null,
      "population": 1969,
      "latitude": "39.62894000",
      "longitude": "-84.64856000",
      "timezone": "America/New_York",
      "wikiDataId": "Q2668408",
      "country_code": "US",
      "state_code": "OH",
      "state_id": 4851,
      "country_id": 233
    },
    {
      "id": 141192,
      "name": "Кемпбелл",
      "name_default": "Campbell",
      "native": "Campbell",
      "type": "city",
      "level": null,
      "parent_id": null,
      "population": 7982,
      "latitude": "41.07839000",
      "longitude": "-80.59924000",
      "timezone": "America/New_York",
      "wikiDataId": "Q1925085",
      "country_code": "US",
      "state_code": "OH",
      "state_id": 4851,
      "country_id": 233
    },
    {
      "id": 141193,
      "name": "Канал Фултон",
      "name_default": "Canal Fulton",
      "native": "Canal Fulton",
      "type": "city",
      "level": null,
      "parent_id": null,
      "population": 5325,
      "latitude": "40.88978000",
      "longitude": "-81.59762000",
      "timezone": "America/New_York",
      "wikiDataId": "Q995730",
      "country_code": "US",
      "state_code": "OH",
      "state_id": 4851,
      "country_id": 233
    },
    {
      "id": 141194,
      "name": "Вінчестерський канал",
      "name_default": "Canal Winchester",
      "native": "Canal Winchester",
      "type": "city",
      "level": null,
      "parent_id": null,
      "population": 9107,
      "latitude": "39.84284000",
      "longitude": "-82.80462000",
      "timezone": "America/New_York",
      "wikiDataId": "Q1026010",
      "country_code": "US",
      "state_code": "OH",
      "state_id": 4851,
      "country_id": 233
    },
    {
      "id": 141195,
      "name": "Кенфілд",
      "name_default": "Canfield",
      "native": "Canfield",
      "type": "city",
      "level": null,
      "parent_id": null,
      "population": 7355,
      "latitude": "41.02506000",
      "longitude": "-80.76091000",
      "timezone": "America/New_York",
      "wikiDataId": "Q1924946",
      "country_code": "US",
      "state_code": "OH",
      "state_id": 4851,
      "country_id": 233
    },
    {
      "id": 141196,
      "name": "Кантон",
      "name_default": "Canton",
      "native": "Canton",
      "type": "adm2",
      "level": null,
      "parent_id": null,
      "population": 71885,
      "latitude": "40.79895000",
      "longitude": "-81.37845000",
      "timezone": "America/New_York",
      "wikiDataId": "Q491239",
      "country_code": "US",
      "state_code": "OH",
      "state_id": 4851,
      "country_id": 233
    },
    {
      "id": 141197,
      "name": "Кардінгтон",
      "name_default": "Cardington",
      "native": "Cardington",
      "type": "city",
      "level": null,
      "parent_id": null,
      "population": 2079,
      "latitude": "40.50062000",
      "longitude": "-82.89351000",
      "timezone": "America/New_York",
      "wikiDataId": "Q2461475",
      "country_code": "US",
      "state_code": "OH",
      "state_id": 4851,
      "country_id": 233
    },
    {
      "id": 141198,
      "name": "Кері",
      "name_default": "Carey",
      "native": "Carey",
      "type": "city",
      "level": null,
      "parent_id": null,
      "population": 3586,
      "latitude": "40.95256000",
      "longitude": "-83.38242000",
      "timezone": "America/New_York",
      "wikiDataId": "Q2666477",
      "country_code": "US",
      "state_code": "OH",
      "state_id": 4851,
      "country_id": 233
    },
    {
      "id": 141199,
      "name": "Карлайл",
      "name_default": "Carlisle",
      "native": "Carlisle",
      "type": "city",
      "level": null,
      "parent_id": null,
      "population": 5259,
      "latitude": "39.58200000",
      "longitude": "-84.32022000",
      "timezone": "America/New_York",
      "wikiDataId": "Q1004418",
      "country_code": "US",
      "state_code": "OH",
      "state_id": 4851,
      "country_id": 233
    },
    {
      "id": 141200,
      "name": "Округ Керролл",
      "name_default": "Carroll County",
      "native": "Carroll County",
      "type": "county",
      "level": null,
      "parent_id": null,
      "population": 26721,
      "latitude": "40.57959000",
      "longitude": "-81.08972000",
      "timezone": "America/New_York",
      "wikiDataId": "Q421970",
      "country_code": "US",
      "state_code": "OH",
      "state_id": 4851,
      "country_id": 233
    },
    {
      "id": 141201,
      "name": "Керролтон",
      "name_default": "Carrollton",
      "native": "Carrollton",
      "type": "adm2",
      "level": null,
      "parent_id": null,
      "population": 3137,
      "latitude": "40.57284000",
      "longitude": "-81.08565000",
      "timezone": "America/New_York",
      "wikiDataId": "Q998898",
      "country_code": "US",
      "state_code": "OH",
      "state_id": 4851,
      "country_id": 233
    },
    {
      "id": 141202,
      "name": "Седарвілл",
      "name_default": "Cedarville",
      "native": "Cedarville",
      "type": "city",
      "level": null,
      "parent_id": null,
      "population": 4177,
      "latitude": "39.74423000",
      "longitude": "-83.80854000",
      "timezone": "America/New_York",
      "wikiDataId": "Q1014183",
      "country_code": "US",
      "state_code": "OH",
      "state_id": 4851,
      "country_id": 233
    },
    {
      "id": 141203,
      "name": "Селіна",
      "name_default": "Celina",
      "native": "Celina",
      "type": "adm2",
      "level": null,
      "parent_id": null,
      "population": 10935,
      "latitude": "40.54894000",
      "longitude": "-84.57023000",
      "timezone": "America/New_York",
      "wikiDataId": "Q387861",
      "country_code": "US",
      "state_code": "OH",
      "state_id": 4851,
      "country_id": 233
    },
    {
      "id": 141204,
      "name": "Сентербург",
      "name_default": "Centerburg",
      "native": "Centerburg",
      "type": "city",
      "level": null,
      "parent_id": null,
      "population": 1690,
      "latitude": "40.30451000",
      "longitude": "-82.69628000",
      "timezone": "America/New_York",
      "wikiDataId": "Q2666466",
      "country_code": "US",
      "state_code": "OH",
      "state_id": 4851,
      "country_id": 233
    },
    {
      "id": 141205,
      "name": "Сентервілл",
      "name_default": "Centerville",
      "native": "Centerville",
      "type": "city",
      "level": null,
      "parent_id": null,
      "population": 23882,
      "latitude": "39.62839000",
      "longitude": "-84.15938000",
      "timezone": "America/New_York",
      "wikiDataId": "Q2375175",
      "country_code": "US",
      "state_code": "OH",
      "state_id": 4851,
      "country_id": 233
    },
    {
      "id": 141206,
      "name": "Водоспад Чагрін",
      "name_default": "Chagrin Falls",
      "native": "Chagrin Falls",
      "type": "city",
      "level": null,
      "parent_id": null,
      "population": 4188,
      "latitude": "41.43616000",
      "longitude": "-81.38650000",
      "timezone": "America/New_York",
      "wikiDataId": "Q534836",
      "country_code": "US",
      "state_code": "OH",
      "state_id": 4851,
      "country_id": 233
    },
    {
      "id": 141207,
      "name": "Округ Шампейн",
      "name_default": "Champaign County",
      "native": "Champaign County",
      "type": "county",
      "level": null,
      "parent_id": null,
      "population": 38714,
      "latitude": "40.13767000",
      "longitude": "-83.76950000",
      "timezone": "America/New_York",
      "wikiDataId": "Q389573",
      "country_code": "US",
      "state_code": "OH",
      "state_id": 4851,
      "country_id": 233
    },
    {
      "id": 141208,
      "name": "Чемпіон-Хайтс",
      "name_default": "Champion Heights",
      "native": "Champion Heights",
      "type": "city",
      "level": null,
      "parent_id": null,
      "population": 6498,
      "latitude": "41.28999000",
      "longitude": "-80.84595000",
      "timezone": "America/New_York",
      "wikiDataId": "Q2187816",
      "country_code": "US",
      "state_code": "OH",
      "state_id": 4851,
      "country_id": 233
    },
    {
      "id": 141209,
      "name": "Шардон",
      "name_default": "Chardon",
      "native": "Chardon",
      "type": "adm2",
      "level": null,
      "parent_id": null,
      "population": 5242,
      "latitude": "41.61422000",
      "longitude": "-81.14899000",
      "timezone": "America/New_York",
      "wikiDataId": "Q986306",
      "country_code": "US",
      "state_code": "OH",
      "state_id": 4851,
      "country_id": 233
    },
    {
      "id": 141210,
      "name": "Чонсі",
      "name_default": "Chauncey",
      "native": "Chauncey",
      "type": "city",
      "level": null,
      "parent_id": null,
      "population": 959,
      "latitude": "39.39785000",
      "longitude": "-82.12931000",
      "timezone": "America/New_York",
      "wikiDataId": "Q373237",
      "country_code": "US",
      "state_code": "OH",
      "state_id": 4851,
      "country_id": 233
    },
    {
      "id": 141211,
      "name": "Черрі-Гроув",
      "name_default": "Cherry Grove",
      "native": "Cherry Grove",
      "type": "city",
      "level": null,
      "parent_id": null,
      "population": 4378,
      "latitude": "39.07256000",
      "longitude": "-84.32188000",
      "timezone": "America/New_York",
      "wikiDataId": "Q1997794",
      "country_code": "US",
      "state_code": "OH",
      "state_id": 4851,
      "country_id": 233
    },
    {
      "id": 141212,
      "name": "Честерленд",
      "name_default": "Chesterland",
      "native": "Chesterland",
      "type": "city",
      "level": null,
      "parent_id": null,
      "population": 2521,
      "latitude": "41.52227000",
      "longitude": "-81.33789000",
      "timezone": "America/New_York",
      "wikiDataId": "Q3313474",
      "country_code": "US",
      "state_code": "OH",
      "state_id": 4851,
      "country_id": 233
    },
    {
      "id": 141213,
      "name": "Чевіот",
      "name_default": "Cheviot",
      "native": "Cheviot",
      "type": "city",
      "level": null,
      "parent_id": null,
      "population": 8658,
      "latitude": "39.15700000",
      "longitude": "-84.61328000",
      "timezone": "America/New_York",
      "wikiDataId": "Q2201160",
      "country_code": "US",
      "state_code": "OH",
      "state_id": 4851,
      "country_id": 233
    },
    {
      "id": 141214,
      "name": "Чіллікоте",
      "name_default": "Chillicothe",
      "native": "Chillicothe",
      "type": "adm2",
      "level": null,
      "parent_id": null,
      "population": 21727,
      "latitude": "39.33312000",
      "longitude": "-82.98240000",
      "timezone": "America/New_York",
      "wikiDataId": "Q988739",
      "country_code": "US",
      "state_code": "OH",
      "state_id": 4851,
      "country_id": 233
    },
    {
      "id": 141215,
      "name": "Озеро Чокто",
      "name_default": "Choctaw Lake",
      "native": "Choctaw Lake",
      "type": "city",
      "level": null,
      "parent_id": null,
      "population": 1546,
      "latitude": "39.96006000",
      "longitude": "-83.48492000",
      "timezone": "America/New_York",
      "wikiDataId": "Q2225829",
      "country_code": "US",
      "state_code": "OH",
      "state_id": 4851,
      "country_id": 233
    },
    {
      "id": 141216,
      "name": "Черчилль",
      "name_default": "Churchill",
      "native": "Churchill",
      "type": "city",
      "level": null,
      "parent_id": null,
      "population": 2149,
      "latitude": "41.16200000",
      "longitude": "-80.66480000",
      "timezone": "America/New_York",
      "wikiDataId": "Q616888",
      "country_code": "US",
      "state_code": "OH",
      "state_id": 4851,
      "country_id": 233
    },
    {
      "id": 141217,
      "name": "Цинциннаті",
      "name_default": "Cincinnati",
      "native": "Cincinnati",
      "type": "adm2",
      "level": null,
      "parent_id": null,
      "population": 311097,
      "latitude": "39.12711000",
      "longitude": "-84.51439000",
      "timezone": "America/New_York",
      "wikiDataId": "Q43196",
      "country_code": "US",
      "state_code": "OH",
      "state_id": 4851,
      "country_id": 233
    },
    {
      "id": 141218,
      "name": "Серклвілл",
      "name_default": "Circleville",
      "native": "Circleville",
      "type": "adm2",
      "level": null,
      "parent_id": null,
      "population": 13927,
      "latitude": "39.60062000",
      "longitude": "-82.94601000",
      "timezone": "America/New_York",
      "wikiDataId": "Q1007037",
      "country_code": "US",
      "state_code": "OH",
      "state_id": 4851,
      "country_id": 233
    },
    {
      "id": 141219,
      "name": "Округ Кларк",
      "name_default": "Clark County",
      "native": "Clark County",
      "type": "county",
      "level": null,
      "parent_id": null,
      "population": 503311,
      "latitude": "39.91678000",
      "longitude": "-83.78390000",
      "timezone": "America/New_York",
      "wikiDataId": "Q485558",
      "country_code": "US",
      "state_code": "OH",
      "state_id": 4851,
      "country_id": 233
    },
    {
      "id": 141220,
      "name": "Кларк-Фултон",
      "name_default": "Clark-Fulton",
      "native": "Clark-Fulton",
      "type": "city",
      "level": null,
      "parent_id": null,
      "population": 18185,
      "latitude": "41.46402000",
      "longitude": "-81.70979000",
      "timezone": "America/New_York",
      "wikiDataId": "Q5127124",
      "country_code": "US",
      "state_code": "OH",
      "state_id": 4851,
      "country_id": 233
    },
    {
      "id": 141221,
      "name": "Клейтон",
      "name_default": "Clayton",
      "native": "Clayton",
      "type": "city",
      "level": null,
      "parent_id": null,
      "population": 13146,
      "latitude": "39.86311000",
      "longitude": "-84.36050000",
      "timezone": "America/New_York",
      "wikiDataId": "Q1004062",
      "country_code": "US",
      "state_code": "OH",
      "state_id": 4851,
      "country_id": 233
    },
    {
      "id": 141222,
      "name": "Округ Клермонт",
      "name_default": "Clermont",
      "native": "Clermont County",
      "type": "county",
      "level": null,
      "parent_id": null,
      "population": 208601,
      "latitude": "39.04743000",
      "longitude": "-84.15192000",
      "timezone": "America/New_York",
      "wikiDataId": "Q485582",
      "country_code": "US",
      "state_code": "OH",
      "state_id": 4851,
      "country_id": 233
    },
    {
      "id": 141223,
      "name": "Клівленд",
      "name_default": "Cleveland",
      "native": "Cleveland",
      "type": "adm2",
      "level": null,
      "parent_id": null,
      "population": 365379,
      "latitude": "41.49950000",
      "longitude": "-81.69541000",
      "timezone": "America/New_York",
      "wikiDataId": "Q37320",
      "country_code": "US",
      "state_code": "OH",
      "state_id": 4851,
      "country_id": 233
    },
    {
      "id": 141224,
      "name": "Клівленд-Хайтс",
      "name_default": "Cleveland Heights",
      "native": "Cleveland Heights",
      "type": "city",
      "level": null,
      "parent_id": null,
      "population": 45312,
      "latitude": "41.52005000",
      "longitude": "-81.55624000",
      "timezone": "America/New_York",
      "wikiDataId": "Q248922",
      "country_code": "US",
      "state_code": "OH",
      "state_id": 4851,
      "country_id": 233
    },
    {
      "id": 141225,
      "name": "Клівленд",
      "name_default": "Cleves",
      "native": "Cleves",
      "type": "city",
      "level": null,
      "parent_id": null,
      "population": 3414,
      "latitude": "39.16172000",
      "longitude": "-84.74912000",
      "timezone": "America/New_York",
      "wikiDataId": "Q667720",
      "country_code": "US",
      "state_code": "OH",
      "state_id": 4851,
      "country_id": 233
    },
    {
      "id": 141226,
      "name": "Клінтон",
      "name_default": "Clinton",
      "native": "Clinton",
      "type": "city",
      "level": null,
      "parent_id": null,
      "population": 1214,
      "latitude": "40.92672000",
      "longitude": "-81.63040000",
      "timezone": "America/New_York",
      "wikiDataId": "Q1101670",
      "country_code": "US",
      "state_code": "OH",
      "state_id": 4851,
      "country_id": 233
    },
    {
      "id": 141227,
      "name": "Округ Клінтон",
      "name_default": "Clinton County",
      "native": "Clinton County",
      "type": "county",
      "level": null,
      "parent_id": null,
      "population": 37450,
      "latitude": "39.41498000",
      "longitude": "-83.80838000",
      "timezone": "America/New_York",
      "wikiDataId": "Q113875",
      "country_code": "US",
      "state_code": "OH",
      "state_id": 4851,
      "country_id": 233
    },
    {
      "id": 141228,
      "name": "Клайд",
      "name_default": "Clyde",
      "native": "Clyde",
      "type": "city",
      "level": null,
      "parent_id": null,
      "population": 6294,
      "latitude": "41.30422000",
      "longitude": "-82.97519000",
      "timezone": "America/New_York",
      "wikiDataId": "Q177572",
      "country_code": "US",
      "state_code": "OH",
      "state_id": 4851,
      "country_id": 233
    },
    {
      "id": 141229,
      "name": "Вугільний гай",
      "name_default": "Coal Grove",
      "native": "Coal Grove",
      "type": "city",
      "level": null,
      "parent_id": null,
      "population": 1889,
      "latitude": "38.50341000",
      "longitude": "-82.64711000",
      "timezone": "America/New_York",
      "wikiDataId": "Q2351912",
      "country_code": "US",
      "state_code": "OH",
      "state_id": 4851,
      "country_id": 233
    },
    {
      "id": 141230,
      "name": "Колдвотер",
      "name_default": "Coldwater",
      "native": "Coldwater",
      "type": "city",
      "level": null,
      "parent_id": null,
      "population": 4774,
      "latitude": "40.47977000",
      "longitude": "-84.62829000",
      "timezone": "America/New_York",
      "wikiDataId": "Q1025998",
      "country_code": "US",
      "state_code": "OH",
      "state_id": 4851,
      "country_id": 233
    },
    {
      "id": 141231,
      "name": "Коллінвуд",
      "name_default": "Collinwood",
      "native": "Collinwood",
      "type": "city",
      "level": null,
      "parent_id": null,
      "population": 34220,
      "latitude": "41.55838000",
      "longitude": "-81.56929000",
      "timezone": "America/New_York",
      "wikiDataId": "Q5147468",
      "country_code": "US",
      "state_code": "OH",
      "state_id": 4851,
      "country_id": 233
    },
    {
      "id": 141232,
      "name": "Колумбіана",
      "name_default": "Columbiana",
      "native": "Columbiana",
      "type": "city",
      "level": null,
      "parent_id": null,
      "population": 6559,
      "latitude": "40.88839000",
      "longitude": "-80.69396000",
      "timezone": "America/New_York",
      "wikiDataId": "Q998858",
      "country_code": "US",
      "state_code": "OH",
      "state_id": 4851,
      "country_id": 233
    },
    {
      "id": 141233,
      "name": "Округ Колумбіана",
      "name_default": "Columbiana County",
      "native": "Columbiana County",
      "type": "county",
      "level": null,
      "parent_id": null,
      "population": 101877,
      "latitude": "40.76843000",
      "longitude": "-80.77719000",
      "timezone": "America/New_York",
      "wikiDataId": "Q421960",
      "country_code": "US",
      "state_code": "OH",
      "state_id": 4851,
      "country_id": 233
    },
    {
      "id": 141234,
      "name": "Колумбус",
      "name_default": "Columbus",
      "native": "Columbus",
      "type": "adm1",
      "level": null,
      "parent_id": null,
      "population": 913175,
      "latitude": "39.96118000",
      "longitude": "-82.99879000",
      "timezone": "America/New_York",
      "wikiDataId": "Q16567",
      "country_code": "US",
      "state_code": "OH",
      "state_id": 4851,
      "country_id": 233
    },
    {
      "id": 141235,
      "name": "Колумбус Гроув",
      "name_default": "Columbus Grove",
      "native": "Columbus Grove",
      "type": "city",
      "level": null,
      "parent_id": null,
      "population": 2160,
      "latitude": "40.91950000",
      "longitude": "-84.05689000",
      "timezone": "America/New_York",
      "wikiDataId": "Q2501955",
      "country_code": "US",
      "state_code": "OH",
      "state_id": 4851,
      "country_id": 233
    },
    {
      "id": 141236,
      "name": "Комерційний пункт",
      "name_default": "Commercial Point",
      "native": "Commercial Point",
      "type": "city",
      "level": null,
      "parent_id": null,
      "population": 1611,
      "latitude": "39.76840000",
      "longitude": "-83.05713000",
      "timezone": "America/New_York",
      "wikiDataId": "Q2045631",
      "country_code": "US",
      "state_code": "OH",
      "state_id": 4851,
      "country_id": 233
    },
    {
      "id": 141237,
      "name": "Конно",
      "name_default": "Conneaut",
      "native": "Conneaut",
      "type": "city",
      "level": null,
      "parent_id": null,
      "population": 12318,
      "latitude": "41.94756000",
      "longitude": "-80.55424000",
      "timezone": "America/New_York",
      "wikiDataId": "Q868777",
      "country_code": "US",
      "state_code": "OH",
      "state_id": 4851,
      "country_id": 233
    },
    {
      "id": 141238,
      "name": "Континентальний",
      "name_default": "Continental",
      "native": "Continental",
      "type": "city",
      "level": null,
      "parent_id": null,
      "population": 1102,
      "latitude": "41.10033000",
      "longitude": "-84.26634000",
      "timezone": "America/New_York",
      "wikiDataId": "Q2081833",
      "country_code": "US",
      "state_code": "OH",
      "state_id": 4851,
      "country_id": 233
    },
    {
      "id": 141239,
      "name": "Конвой",
      "name_default": "Convoy",
      "native": "Convoy",
      "type": "city",
      "level": null,
      "parent_id": null,
      "population": 1012,
      "latitude": "40.91672000",
      "longitude": "-84.70274000",
      "timezone": "America/New_York",
      "wikiDataId": "Q2668820",
      "country_code": "US",
      "state_code": "OH",
      "state_id": 4851,
      "country_id": 233
    },
    {
      "id": 141240,
      "name": "Коплі",
      "name_default": "Copley",
      "native": "Copley",
      "type": "city",
      "level": null,
      "parent_id": null,
      "population": 13641,
      "latitude": "41.09894000",
      "longitude": "-81.64457000",
      "timezone": "America/New_York",
      "wikiDataId": "Q2668820",
      "country_code": "US",
      "state_code": "OH",
      "state_id": 4851,
      "country_id": 233
    },
    {
      "id": 141241,
      "name": "Кортленд",
      "name_default": "Cortland",
      "native": "Cortland",
      "type": "city",
      "level": null,
      "parent_id": null,
      "population": 7105,
      "latitude": "41.33033000",
      "longitude": "-80.72536000",
      "timezone": "America/New_York",
      "wikiDataId": "Q2231996",
      "country_code": "US",
      "state_code": "OH",
      "state_id": 4851,
      "country_id": 233
    },
    {
      "id": 141242,
      "name": "Кошоктон",
      "name_default": "Coshocton",
      "native": "Coshocton",
      "type": "adm2",
      "level": null,
      "parent_id": null,
      "population": 11050,
      "latitude": "40.27202000",
      "longitude": "-81.85958000",
      "timezone": "America/New_York",
      "wikiDataId": "Q991020",
      "country_code": "US",
      "state_code": "OH",
      "state_id": 4851,
      "country_id": 233
    },
    {
      "id": 141243,
      "name": "Округ Кошоктон",
      "name_default": "Coshocton County",
      "native": "Coshocton County",
      "type": "county",
      "level": null,
      "parent_id": null,
      "population": 36612,
      "latitude": "40.30164000",
      "longitude": "-81.92001000",
      "timezone": "America/New_York",
      "wikiDataId": "Q485532",
      "country_code": "US",
      "state_code": "OH",
      "state_id": 4851,
      "country_id": 233
    },
    {
      "id": 141244,
      "name": "Коведейл",
      "name_default": "Covedale",
      "native": "Covedale",
      "type": "city",
      "level": null,
      "parent_id": null,
      "population": 6447,
      "latitude": "39.12117000",
      "longitude": "-84.60633000",
      "timezone": "America/New_York",
      "wikiDataId": "Q2581413",
      "country_code": "US",
      "state_code": "OH",
      "state_id": 4851,
      "country_id": 233
    },
    {
      "id": 141245,
      "name": "Ковінгтон",
      "name_default": "Covington",
      "native": "Covington",
      "type": "city",
      "level": null,
      "parent_id": null,
      "population": 2625,
      "latitude": "40.11727000",
      "longitude": "-84.35384000",
      "timezone": "America/New_York",
      "wikiDataId": "Q2668811",
      "country_code": "US",
      "state_code": "OH",
      "state_id": 4851,
      "country_id": 233
    },
    {
      "id": 141246,
      "name": "Крейг-Біч",
      "name_default": "Craig Beach",
      "native": "Craig Beach",
      "type": "city",
      "level": null,
      "parent_id": null,
      "population": 1076,
      "latitude": "41.11700000",
      "longitude": "-80.98342000",
      "timezone": "America/New_York",
      "wikiDataId": "Q2235290",
      "country_code": "US",
      "state_code": "OH",
      "state_id": 4851,
      "country_id": 233
    },
    {
      "id": 141247,
      "name": "Округ Кроуфорд",
      "name_default": "Crawford",
      "native": "Crawford County",
      "type": "county",
      "level": null,
      "parent_id": null,
      "population": 16113,
      "latitude": "40.85077000",
      "longitude": "-82.91978000",
      "timezone": "America/New_York",
      "wikiDataId": "Q403777",
      "country_code": "US",
      "state_code": "OH",
      "state_id": 4851,
      "country_id": 233
    },
    {
      "id": 141248,
      "name": "Крестлайн",
      "name_default": "Crestline",
      "native": "Crestline",
      "type": "city",
      "level": null,
      "parent_id": null,
      "population": 4525,
      "latitude": "40.78756000",
      "longitude": "-82.73657000",
      "timezone": "America/New_York",
      "wikiDataId": "Q577383",
      "country_code": "US",
      "state_code": "OH",
      "state_id": 4851,
      "country_id": 233
    },
    {
      "id": 141249,
      "name": "Крестон",
      "name_default": "Creston",
      "native": "Creston",
      "type": "city",
      "level": null,
      "parent_id": null,
      "population": 2181,
      "latitude": "40.98700000",
      "longitude": "-81.89375000",
      "timezone": "America/New_York",
      "wikiDataId": "Q2775502",
      "country_code": "US",
      "state_code": "OH",
      "state_id": 4851,
      "country_id": 233
    },
    {
      "id": 141250,
      "name": "Крайдерсвілл",
      "name_default": "Cridersville",
      "native": "Cridersville",
      "type": "city",
      "level": null,
      "parent_id": null,
      "population": 1791,
      "latitude": "40.65422000",
      "longitude": "-84.15078000",
      "timezone": "America/New_York",
      "wikiDataId": "Q2151327",
      "country_code": "US",
      "state_code": "OH",
      "state_id": 4851,
      "country_id": 233
    },
    {
      "id": 141251,
      "name": "Круксвілл",
      "name_default": "Crooksville",
      "native": "Crooksville",
      "type": "city",
      "level": null,
      "parent_id": null,
      "population": 2418,
      "latitude": "39.76896000",
      "longitude": "-82.09209000",
      "timezone": "America/New_York",
      "wikiDataId": "Q507944",
      "country_code": "US",
      "state_code": "OH",
      "state_id": 4851,
      "country_id": 233
    },
    {
      "id": 141252,
      "name": "Кришталеві озера",
      "name_default": "Crystal Lakes",
      "native": "Crystal Lakes",
      "type": "city",
      "level": null,
      "parent_id": null,
      "population": 1483,
      "latitude": "39.88923000",
      "longitude": "-84.02660000",
      "timezone": "America/New_York",
      "wikiDataId": "Q3124969",
      "country_code": "US",
      "state_code": "OH",
      "state_id": 4851,
      "country_id": 233
    },
    {
      "id": 141253,
      "name": "Кертіс",
      "name_default": "Curtice",
      "native": "Curtice",
      "type": "city",
      "level": null,
      "parent_id": null,
      "population": 1526,
      "latitude": "41.61838000",
      "longitude": "-83.36771000",
      "timezone": "America/New_York",
      "wikiDataId": "Q3472989",
      "country_code": "US",
      "state_code": "OH",
      "state_id": 4851,
      "country_id": 233
    },
    {
      "id": 141254,
      "name": "Округ Каягога",
      "name_default": "Cuyahoga",
      "native": "Cuyahoga County",
      "type": "county",
      "level": null,
      "parent_id": null,
      "population": 1264817,
      "latitude": "41.47875000",
      "longitude": "-81.67786000",
      "timezone": "America/New_York",
      "wikiDataId": "Q251267",
      "country_code": "US",
      "state_code": "OH",
      "state_id": 4851,
      "country_id": 233
    },
    {
      "id": 141255,
      "name": "Водоспади Каягога",
      "name_default": "Cuyahoga Falls",
      "native": "Cuyahoga Falls",
      "type": "city",
      "level": null,
      "parent_id": null,
      "population": 51114,
      "latitude": "41.13394000",
      "longitude": "-81.48456000",
      "timezone": "America/New_York",
      "wikiDataId": "Q531958",
      "country_code": "US",
      "state_code": "OH",
      "state_id": 4851,
      "country_id": 233
    },
    {
      "id": 141256,
      "name": "Далтон",
      "name_default": "Dalton",
      "native": "Dalton",
      "type": "city",
      "level": null,
      "parent_id": null,
      "population": 1850,
      "latitude": "40.79894000",
      "longitude": "-81.69541000",
      "timezone": "America/New_York",
      "wikiDataId": "Q2666988",
      "country_code": "US",
      "state_code": "OH",
      "state_id": 4851,
      "country_id": 233
    },
    {
      "id": 141257,
      "name": "Денвілл",
      "name_default": "Danville",
      "native": "Danville",
      "type": "city",
      "level": null,
      "parent_id": null,
      "population": 927,
      "latitude": "40.44756000",
      "longitude": "-82.26016000",
      "timezone": "America/New_York",
      "wikiDataId": "Q2216280",
      "country_code": "US",
      "state_code": "OH",
      "state_id": 4851,
      "country_id": 233
    },
    {
      "id": 141258,
      "name": "Округ Дарк",
      "name_default": "Darke",
      "native": "Darke County",
      "type": "county",
      "level": null,
      "parent_id": null,
      "population": 51881,
      "latitude": "40.13323000",
      "longitude": "-84.61931000",
      "timezone": "America/New_York",
      "wikiDataId": "Q485592",
      "country_code": "US",
      "state_code": "OH",
      "state_id": 4851,
      "country_id": 233
    },
    {
      "id": 141259,
      "name": "Дей-Хайтс",
      "name_default": "Day Heights",
      "native": "Day Heights",
      "type": "city",
      "level": null,
      "parent_id": null,
      "population": 2620,
      "latitude": "39.17395000",
      "longitude": "-84.22633000",
      "timezone": "America/New_York",
      "wikiDataId": "Q2171830",
      "country_code": "US",
      "state_code": "OH",
      "state_id": 4851,
      "country_id": 233
    },
    {
      "id": 141260,
      "name": "Дейтон",
      "name_default": "Dayton",
      "native": "Dayton",
      "type": "adm2",
      "level": null,
      "parent_id": null,
      "population": 135512,
      "latitude": "39.75895000",
      "longitude": "-84.19161000",
      "timezone": "America/New_York",
      "wikiDataId": "Q34739",
      "country_code": "US",
      "state_code": "OH",
      "state_id": 4851,
      "country_id": 233
    },
    {
      "id": 141261,
      "name": "Де Графф",
      "name_default": "De Graff",
      "native": "The rough",
      "type": "city",
      "level": null,
      "parent_id": null,
      "population": 1250,
      "latitude": "40.31200000",
      "longitude": "-83.91577000",
      "timezone": "America/New_York",
      "wikiDataId": "Q2388364",
      "country_code": "US",
      "state_code": "OH",
      "state_id": 4851,
      "country_id": 233
    },
    {
      "id": 141262,
      "name": "Оленячий парк",
      "name_default": "Deer Park",
      "native": "Deer Park",
      "type": "city",
      "level": null,
      "parent_id": null,
      "population": 5682,
      "latitude": "39.20534000",
      "longitude": "-84.39466000",
      "timezone": "America/New_York",
      "wikiDataId": "Q1004402",
      "country_code": "US",
      "state_code": "OH",
      "state_id": 4851,
      "country_id": 233
    },
    {
      "id": 141263,
      "name": "Непокора",
      "name_default": "Defiance",
      "native": "Defiance",
      "type": "adm2",
      "level": null,
      "parent_id": null,
      "population": 16776,
      "latitude": "41.28449000",
      "longitude": "-84.35578000",
      "timezone": "America/New_York",
      "wikiDataId": "Q651108",
      "country_code": "US",
      "state_code": "OH",
      "state_id": 4851,
      "country_id": 233
    },
    {
      "id": 141264,
      "name": "Округ Дефайанс",
      "name_default": "Defiance County",
      "native": "Defiance County",
      "type": "county",
      "level": null,
      "parent_id": null,
      "population": 38286,
      "latitude": "41.32392000",
      "longitude": "-84.49050000",
      "timezone": "America/New_York",
      "wikiDataId": "Q336190",
      "country_code": "US",
      "state_code": "OH",
      "state_id": 4851,
      "country_id": 233
    },
    {
      "id": 141265,
      "name": "Делавер",
      "name_default": "Delaware",
      "native": "Delaware",
      "type": "adm2",
      "level": null,
      "parent_id": null,
      "population": 41302,
      "latitude": "40.29867000",
      "longitude": "-83.06797000",
      "timezone": "America/New_York",
      "wikiDataId": "Q986183",
      "country_code": "US",
      "state_code": "OH",
      "state_id": 4851,
      "country_id": 233
    },
    {
      "id": 141266,
      "name": "Округ Делавер",
      "name_default": "Delaware County",
      "native": "Delaware County",
      "type": "county",
      "level": null,
      "parent_id": null,
      "population": 576830,
      "latitude": "40.27839000",
      "longitude": "-83.00489000",
      "timezone": "America/New_York",
      "wikiDataId": "Q485524",
      "country_code": "US",
      "state_code": "OH",
      "state_id": 4851,
      "country_id": 233
    },
    {
      "id": 141267,
      "name": "Делійські пагорби",
      "name_default": "Delhi Hills",
      "native": "Delhi Hills",
      "type": "city",
      "level": null,
      "parent_id": null,
      "population": 5259,
      "latitude": "39.09284000",
      "longitude": "-84.61272000",
      "timezone": "America/New_York",
      "wikiDataId": "Q5253767",
      "country_code": "US",
      "state_code": "OH",
      "state_id": 4851,
      "country_id": 233
    },
    {
      "id": 141268,
      "name": "Дельфос",
      "name_default": "Delphos",
      "native": "DELPH",
      "type": "city",
      "level": null,
      "parent_id": null,
      "population": 7117,
      "latitude": "40.84338000",
      "longitude": "-84.34162000",
      "timezone": "America/New_York",
      "wikiDataId": "Q768210",
      "country_code": "US",
      "state_code": "OH",
      "state_id": 4851,
      "country_id": 233
    },
    {
      "id": 141269,
      "name": "Дельта",
      "name_default": "Delta",
      "native": "Delta",
      "type": "city",
      "level": null,
      "parent_id": null,
      "population": 3622,
      "latitude": "41.57366000",
      "longitude": "-84.00522000",
      "timezone": "America/New_York",
      "wikiDataId": "Q2173847",
      "country_code": "US",
      "state_code": "OH",
      "state_id": 4851,
      "country_id": 233
    },
    {
      "id": 141270,
      "name": "Деннісон",
      "name_default": "Dennison",
      "native": "Dennison",
      "type": "city",
      "level": null,
      "parent_id": null,
      "population": 2709,
      "latitude": "40.39340000",
      "longitude": "-81.33372000",
      "timezone": "America/New_York",
      "wikiDataId": "Q2606427",
      "country_code": "US",
      "state_code": "OH",
      "state_id": 4851,
      "country_id": 233
    },
    {
      "id": 141271,
      "name": "Дент",
      "name_default": "Dent",
      "native": "Dent",
      "type": "city",
      "level": null,
      "parent_id": null,
      "population": 10497,
      "latitude": "39.18589000",
      "longitude": "-84.65134000",
      "timezone": "America/New_York",
      "wikiDataId": "Q2090601",
      "country_code": "US",
      "state_code": "OH",
      "state_id": 4851,
      "country_id": 233
    },
    {
      "id": 141272,
      "name": "Дешлер",
      "name_default": "Deshler",
      "native": "Deshler",
      "type": "city",
      "level": null,
      "parent_id": null,
      "population": 1588,
      "latitude": "41.20755000",
      "longitude": "-83.89911000",
      "timezone": "America/New_York",
      "wikiDataId": "Q2668753",
      "country_code": "US",
      "state_code": "OH",
      "state_id": 4851,
      "country_id": 233
    },
    {
      "id": 141273,
      "name": "Детройт-Шорвей",
      "name_default": "Detroit-Shoreway",
      "native": "Detroit-Shoreway",
      "type": "city",
      "level": null,
      "parent_id": null,
      "population": 17382,
      "latitude": "41.47772000",
      "longitude": "-81.72991000",
      "timezone": "America/New_York",
      "wikiDataId": "Q5265832",
      "country_code": "US",
      "state_code": "OH",
      "state_id": 4851,
      "country_id": 233
    },
    {
      "id": 141274,
      "name": "Девола",
      "name_default": "Devola",
      "native": "Devola",
      "type": "city",
      "level": null,
      "parent_id": null,
      "population": 2652,
      "latitude": "39.47369000",
      "longitude": "-81.47901000",
      "timezone": "America/New_York",
      "wikiDataId": "Q2482625",
      "country_code": "US",
      "state_code": "OH",
      "state_id": 4851,
      "country_id": 233
    },
    {
      "id": 141275,
      "name": "Діллонвейл",
      "name_default": "Dillonvale",
      "native": "Dillonvale",
      "type": "city",
      "level": null,
      "parent_id": null,
      "population": 3474,
      "latitude": "39.21811000",
      "longitude": "-84.40216000",
      "timezone": "America/New_York",
      "wikiDataId": "Q3451508",
      "country_code": "US",
      "state_code": "OH",
      "state_id": 4851,
      "country_id": 233
    },
    {
      "id": 141276,
      "name": "Дувр",
      "name_default": "Dover",
      "native": "Dover",
      "type": "city",
      "level": null,
      "parent_id": null,
      "population": 12899,
      "latitude": "40.52062000",
      "longitude": "-81.47401000",
      "timezone": "America/New_York",
      "wikiDataId": "Q990927",
      "country_code": "US",
      "state_code": "OH",
      "state_id": 4851,
      "country_id": 233
    },
    {
      "id": 141277,
      "name": "Дойлстаун",
      "name_default": "Doylestown",
      "native": "Doylestown",
      "type": "city",
      "level": null,
      "parent_id": null,
      "population": 3051,
      "latitude": "40.97005000",
      "longitude": "-81.69652000",
      "timezone": "America/New_York",
      "wikiDataId": "Q2035196",
      "country_code": "US",
      "state_code": "OH",
      "state_id": 4851,
      "country_id": 233
    },
    {
      "id": 141278,
      "name": "Дрезден",
      "name_default": "Dresden",
      "native": "Dresden",
      "type": "city",
      "level": null,
      "parent_id": null,
      "population": 1650,
      "latitude": "40.12146000",
      "longitude": "-82.01069000",
      "timezone": "America/New_York",
      "wikiDataId": "Q649432",
      "country_code": "US",
      "state_code": "OH",
      "state_id": 4851,
      "country_id": 233
    },
    {
      "id": 141279,
      "name": "Дрексель",
      "name_default": "Drexel",
      "native": "Drexel",
      "type": "city",
      "level": null,
      "parent_id": null,
      "population": 2076,
      "latitude": "39.74645000",
      "longitude": "-84.28661000",
      "timezone": "America/New_York",
      "wikiDataId": "Q2217999",
      "country_code": "US",
      "state_code": "OH",
      "state_id": 4851,
      "country_id": 233
    },
    {
      "id": 141280,
      "name": "Сухий хребет",
      "name_default": "Dry Ridge",
      "native": "Dry Ridge",
      "type": "city",
      "level": null,
      "parent_id": null,
      "population": 2782,
      "latitude": "39.25922000",
      "longitude": "-84.61911000",
      "timezone": "America/New_York",
      "wikiDataId": "Q5309541",
      "country_code": "US",
      "state_code": "OH",
      "state_id": 4851,
      "country_id": 233
    },
    {
      "id": 141281,
      "name": "Пробний запуск",
      "name_default": "Dry Run",
      "native": "Dry Run",
      "type": "city",
      "level": null,
      "parent_id": null,
      "population": 7281,
      "latitude": "39.10423000",
      "longitude": "-84.33049000",
      "timezone": "America/New_York",
      "wikiDataId": "Q2387773",
      "country_code": "US",
      "state_code": "OH",
      "state_id": 4851,
      "country_id": 233
    },
    {
      "id": 141282,
      "name": "Дублін",
      "name_default": "Dublin",
      "native": "Dublin",
      "type": "city",
      "level": null,
      "parent_id": null,
      "population": 45098,
      "latitude": "40.09923000",
      "longitude": "-83.11408000",
      "timezone": "America/New_York",
      "wikiDataId": "Q988937",
      "country_code": "US",
      "state_code": "OH",
      "state_id": 4851,
      "country_id": 233
    },
    {
      "id": 141283,
      "name": "Данлеп",
      "name_default": "Dunlap",
      "native": "Dunlap",
      "type": "city",
      "level": null,
      "parent_id": null,
      "population": 1719,
      "latitude": "39.29228000",
      "longitude": "-84.61800000",
      "timezone": "America/New_York",
      "wikiDataId": "Q5315404",
      "country_code": "US",
      "state_code": "OH",
      "state_id": 4851,
      "country_id": 233
    },
    {
      "id": 141284,
      "name": "Східний Кантон",
      "name_default": "East Canton",
      "native": "East Canton",
      "type": "city",
      "level": null,
      "parent_id": null,
      "population": 1521,
      "latitude": "40.78728000",
      "longitude": "-81.28261000",
      "timezone": "America/New_York",
      "wikiDataId": "Q2668722",
      "country_code": "US",
      "state_code": "OH",
      "state_id": 4851,
      "country_id": 233
    },
    {
      "id": 141285,
      "name": "Іст-Клівленд",
      "name_default": "East Cleveland",
      "native": "East Cleveland",
      "type": "city",
      "level": null,
      "parent_id": null,
      "population": 17344,
      "latitude": "41.53311000",
      "longitude": "-81.57901000",
      "timezone": "America/New_York",
      "wikiDataId": "Q998878",
      "country_code": "US",
      "state_code": "OH",
      "state_id": 4851,
      "country_id": 233
    },
    {
      "id": 141286,
      "name": "Східний Ліверпуль",
      "name_default": "East Liverpool",
      "native": "East Liverpool",
      "type": "city",
      "level": null,
      "parent_id": null,
      "population": 9958,
      "latitude": "40.61868000",
      "longitude": "-80.57729000",
      "timezone": "America/New_York",
      "wikiDataId": "Q998893",
      "country_code": "US",
      "state_code": "OH",
      "state_id": 4851,
      "country_id": 233
    },
    {
      "id": 141287,
      "name": "Східна Палестина",
      "name_default": "East Palestine",
      "native": "East Palestine",
      "type": "city",
      "level": null,
      "parent_id": null,
      "population": 4761,
      "latitude": "40.83395000",
      "longitude": "-80.54035000",
      "timezone": "America/New_York",
      "wikiDataId": "Q1924957",
      "country_code": "US",
      "state_code": "OH",
      "state_id": 4851,
      "country_id": 233
    },
    {
      "id": 141288,
      "name": "Істлейк",
      "name_default": "Eastlake",
      "native": "Eastlake",
      "type": "city",
      "level": null,
      "parent_id": null,
      "population": 17670,
      "latitude": "41.65394000",
      "longitude": "-81.45039000",
      "timezone": "America/New_York",
      "wikiDataId": "Q525588",
      "country_code": "US",
      "state_code": "OH",
      "state_id": 4851,
      "country_id": 233
    },
    {
      "id": 141289,
      "name": "Ітон",
      "name_default": "Eaton",
      "native": "Eaton",
      "type": "adm2",
      "level": null,
      "parent_id": null,
      "population": 8217,
      "latitude": "39.74394000",
      "longitude": "-84.63662000",
      "timezone": "America/New_York",
      "wikiDataId": "Q1000148",
      "country_code": "US",
      "state_code": "OH",
      "state_id": 4851,
      "country_id": 233
    },
    {
      "id": 141290,
      "name": "Ітон Естейтс",
      "name_default": "Eaton Estates",
      "native": "Eaton Estates",
      "type": "city",
      "level": null,
      "parent_id": null,
      "population": 1222,
      "latitude": "41.30894000",
      "longitude": "-82.00570000",
      "timezone": "America/New_York",
      "wikiDataId": "Q2549110",
      "country_code": "US",
      "state_code": "OH",
      "state_id": 4851,
      "country_id": 233
    },
    {
      "id": 141291,
      "name": "Еджертон",
      "name_default": "Edgerton",
      "native": "Edgerton",
      "type": "city",
      "level": null,
      "parent_id": null,
      "population": 1982,
      "latitude": "41.44866000",
      "longitude": "-84.74801000",
      "timezone": "America/New_York",
      "wikiDataId": "Q2666993",
      "country_code": "US",
      "state_code": "OH",
      "state_id": 4851,
      "country_id": 233
    },
    {
      "id": 141292,
      "name": "Еджвуд",
      "name_default": "Edgewood",
      "native": "Edgewood",
      "type": "city",
      "level": null,
      "parent_id": null,
      "population": 4432,
      "latitude": "41.87283000",
      "longitude": "-80.77286000",
      "timezone": "America/New_York",
      "wikiDataId": "Q2221831",
      "country_code": "US",
      "state_code": "OH",
      "state_id": 4851,
      "country_id": 233
    },
    {
      "id": 141293,
      "name": "Еліда",
      "name_default": "Elida",
      "native": "Elida",
      "type": "city",
      "level": null,
      "parent_id": null,
      "population": 1923,
      "latitude": "40.78866000",
      "longitude": "-84.20384000",
      "timezone": "America/New_York",
      "wikiDataId": "Q2482637",
      "country_code": "US",
      "state_code": "OH",
      "state_id": 4851,
      "country_id": 233
    },
    {
      "id": 141294,
      "name": "Елмор",
      "name_default": "Elmore",
      "native": "Elmore",
      "type": "city",
      "level": null,
      "parent_id": null,
      "population": 1370,
      "latitude": "41.47616000",
      "longitude": "-83.29576000",
      "timezone": "America/New_York",
      "wikiDataId": "Q2289399",
      "country_code": "US",
      "state_code": "OH",
      "state_id": 4851,
      "country_id": 233
    },
    {
      "id": 141295,
      "name": "Елмвуд Плейс",
      "name_default": "Elmwood Place",
      "native": "Elmwood Place",
      "type": "city",
      "level": null,
      "parent_id": null,
      "population": 2087,
      "latitude": "39.18728000",
      "longitude": "-84.48800000",
      "timezone": "America/New_York",
      "wikiDataId": "Q2668788",
      "country_code": "US",
      "state_code": "OH",
      "state_id": 4851,
      "country_id": 233
    },
    {
      "id": 141296,
      "name": "Елірія",
      "name_default": "Elyria",
      "native": "Elyria",
      "type": "adm2",
      "level": null,
      "parent_id": null,
      "population": 52656,
      "latitude": "41.36838000",
      "longitude": "-82.10765000",
      "timezone": "America/New_York",
      "wikiDataId": "Q932561",
      "country_code": "US",
      "state_code": "OH",
      "state_id": 4851,
      "country_id": 233
    },