{
  "locale": "ru",
  "country": {
    "id": 213,
    "code": "SE",
    "iso3": "SWE",
    "numeric_code": "752",
    "name": "Швеция",
    "name_default": "Sweden",
    "native": "Sverige",
    "capital": "Stockholm",
    "phonecode": "46",
    "currency": "SEK",
    "currency_name": "Swedish krona",
    "currency_symbol": "ko",
    "tld": ".se",
    "population": 10596652,
    "gdp": 620297,
    "region": "Europe",
    "region_id": 4,
    "subregion": "Northern Europe",
    "subregion_id": 18,
    "nationality": "Swedish",
    "timezones": [
      {
        "zoneName": "Europe/Stockholm",
        "gmtOffset": 3600,
        "gmtOffsetName": "UTC+01:00",
        "abbreviation": "CET",
        "tzName": "Central European Time"
      }
    ],
    "latitude": "62.00000000",
    "longitude": "15.00000000",
    "emoji": "🇸🇪",
    "emojiU": "U+1F1F8 U+1F1EA"
  },
  "state": {
    "id": 1545,
    "code": "C",
    "iso2": "C",
    "iso3166_2": "SE-C",
    "fips_code": "21",
    "name": "Уппсала",
    "name_default": "Uppsala",
    "native": "Uppsala",
    "type": "county",
    "level": null,
    "parent_id": null,
    "population": 177074,
    "latitude": "59.86619860",
    "longitude": "17.59843270",
    "timezone": "Europe/Stockholm",
    "wikiDataId": "Q104926",
    "country_code": "SE"
  },
  "cities": [
    {
      "id": 102993,
      "name": "Альсике",
      "name_default": "Alsike",
      "native": "Alsike",
      "type": "city",
      "level": null,
      "parent_id": null,
      "population": 3833,
      "latitude": "59.75324000",
      "longitude": "17.77331000",
      "timezone": "Europe/Stockholm",
      "wikiDataId": "Q1019979",
      "country_code": "SE",
      "state_code": "C",
      "state_id": 1545,
      "country_id": 213
    },
    {
      "id": 102994,
      "name": "Алунда",
      "name_default": "Alunda",
      "native": "Alunda",
      "type": "city",
      "level": null,
      "parent_id": null,
      "population": 2677,
      "latitude": "60.26667000",
      "longitude": "18.40000000",
      "timezone": "Europe/Stockholm",
      "wikiDataId": "Q2137552",
      "country_code": "SE",
      "state_code": "C",
      "state_id": 1545,
      "country_id": 213
    },
    {
      "id": 103991,
      "name": "Älvkarleby",
      "name_default": "Älvkarleby",
      "native": "Älvkarleby",
      "type": "city",
      "level": null,
      "parent_id": null,
      "population": 1506,
      "latitude": "60.57081000",
      "longitude": "17.44895000",
      "timezone": "Europe/Stockholm",
      "wikiDataId": "Q254953",
      "country_code": "SE",
      "state_code": "C",
      "state_id": 1545,
      "country_id": 213
    },
    {
      "id": 103005,
      "name": "Аннеберг",
      "name_default": "Anneberg",
      "native": "Anneberg",
      "type": "city",
      "level": null,
      "parent_id": null,
      "population": 1469,
      "latitude": "60.24167000",
      "longitude": "18.41667000",
      "timezone": "Europe/Stockholm",
      "wikiDataId": "Q556590",
      "country_code": "SE",
      "state_code": "C",
      "state_id": 1545,
      "country_id": 213
    },
    {
      "id": 103102,
      "name": "Бэлинге",
      "name_default": "Bälinge",
      "native": "Bälinge",
      "type": "city",
      "level": null,
      "parent_id": null,
      "population": 2406,
      "latitude": "59.95000000",
      "longitude": "17.53333000",
      "timezone": "Europe/Stockholm",
      "wikiDataId": "Q3253869",
      "country_code": "SE",
      "state_code": "C",
      "state_id": 1545,
      "country_id": 213
    },
    {
      "id": 103103,
      "name": "Болста",
      "name_default": "Bålsta",
      "native": "Bålsta",
      "type": "adm2",
      "level": null,
      "parent_id": null,
      "population": 16205,
      "latitude": "59.56710000",
      "longitude": "17.52781000",
      "timezone": "Europe/Stockholm",
      "wikiDataId": "Q661608",
      "country_code": "SE",
      "state_code": "C",
      "state_id": 1545,
      "country_id": 213
    },
    {
      "id": 103053,
      "name": "Бьёрклинге",
      "name_default": "Björklinge",
      "native": "Björklinge",
      "type": "city",
      "level": null,
      "parent_id": null,
      "population": 3186,
      "latitude": "60.03004000",
      "longitude": "17.55203000",
      "timezone": "Europe/Stockholm",
      "wikiDataId": "Q2067385",
      "country_code": "SE",
      "state_code": "C",
      "state_id": 1545,
      "country_id": 213
    },
    {
      "id": 103145,
      "name": "Энчёпинг",
      "name_default": "Enköping",
      "native": "Enkäting",
      "type": "adm2",
      "level": null,
      "parent_id": null,
      "population": 26353,
      "latitude": "59.63607000",
      "longitude": "17.07768000",
      "timezone": "Europe/Stockholm",
      "wikiDataId": "Q21167",
      "country_code": "SE",
      "state_code": "C",
      "state_id": 1545,
      "country_id": 213
    },
    {
      "id": 103200,
      "name": "Гамла Уппсала",
      "name_default": "Gamla Uppsala",
      "native": "Gamla Uppsala",
      "type": "section",
      "level": null,
      "parent_id": null,
      "population": 17973,
      "latitude": "59.89817000",
      "longitude": "17.63386000",
      "timezone": "Europe/Stockholm",
      "wikiDataId": "Q433032",
      "country_code": "SE",
      "state_code": "C",
      "state_id": 1545,
      "country_id": 213
    },
    {
      "id": 103208,
      "name": "Гимо",
      "name_default": "Gimo",
      "native": "Gimo",
      "type": "city",
      "level": null,
      "parent_id": null,
      "population": 2811,
      "latitude": "60.17304000",
      "longitude": "18.18507000",
      "timezone": "Europe/Stockholm",
      "wikiDataId": "Q3470033",
      "country_code": "SE",
      "state_code": "C",
      "state_id": 1545,
      "country_id": 213
    },
    {
      "id": 103222,
      "name": "Гриллби",
      "name_default": "Grillby",
      "native": "Grillby",
      "type": "city",
      "level": null,
      "parent_id": null,
      "population": 1175,
      "latitude": "59.62603000",
      "longitude": "17.25787000",
      "timezone": "Europe/Stockholm",
      "wikiDataId": "Q1016345",
      "country_code": "SE",
      "state_code": "C",
      "state_id": 1545,
      "country_id": 213
    },
    {
      "id": 103272,
      "name": "Хеби",
      "name_default": "Heby",
      "native": "Heby",
      "type": "adm2",
      "level": null,
      "parent_id": null,
      "population": 2962,
      "latitude": "59.93815000",
      "longitude": "16.86217000",
      "timezone": "Europe/Stockholm",
      "wikiDataId": "Q1592909",
      "country_code": "SE",
      "state_code": "C",
      "state_id": 1545,
      "country_id": 213
    },
    {
      "id": 103350,
      "name": "Ирста",
      "name_default": "Irsta",
      "native": "Irsta",
      "type": "city",
      "level": null,
      "parent_id": null,
      "population": 2534,
      "latitude": "59.70000000",
      "longitude": "16.93333000",
      "timezone": "Europe/Stockholm",
      "wikiDataId": "Q32259252",
      "country_code": "SE",
      "state_code": "C",
      "state_id": 1545,
      "country_id": 213
    },
    {
      "id": 103374,
      "name": "Карлхольмсбрук",
      "name_default": "Karlholmsbruk",
      "native": "Manlig",
      "type": "city",
      "level": null,
      "parent_id": null,
      "population": 1206,
      "latitude": "60.52091000",
      "longitude": "17.63152000",
      "timezone": "Europe/Stockholm",
      "wikiDataId": "Q2702448",
      "country_code": "SE",
      "state_code": "C",
      "state_id": 1545,
      "country_id": 213
    },
    {
      "id": 103403,
      "name": "Книвста",
      "name_default": "Knivsta",
      "native": "Knivsta",
      "type": "adm2",
      "level": null,
      "parent_id": null,
      "population": 9771,
      "latitude": "59.72564000",
      "longitude": "17.78753000",
      "timezone": "Europe/Stockholm",
      "wikiDataId": "Q1120927",
      "country_code": "SE",
      "state_code": "C",
      "state_id": 1545,
      "country_id": 213
    },
    {
      "id": 103511,
      "name": "Лёвсталёт",
      "name_default": "Lövstalöt",
      "native": "Lövstalöt",
      "type": "city",
      "level": null,
      "parent_id": null,
      "population": 1424,
      "latitude": "59.95740000",
      "longitude": "17.57826000",
      "timezone": "Europe/Stockholm",
      "wikiDataId": "Q2299647",
      "country_code": "SE",
      "state_code": "C",
      "state_id": 1545,
      "country_id": 213
    },
    {
      "id": 103524,
      "name": "Мариеберг",
      "name_default": "Marieberg",
      "native": "Marieberg",
      "type": "city",
      "level": null,
      "parent_id": null,
      "population": 1181,
      "latitude": "60.23333000",
      "longitude": "18.50000000",
      "timezone": "Europe/Stockholm",
      "wikiDataId": "Q32290432",
      "country_code": "SE",
      "state_code": "C",
      "state_id": 1545,
      "country_id": 213
    },
    {
      "id": 103547,
      "name": "Моргонгова",
      "name_default": "Morgongåva",
      "native": "Morgongåva",
      "type": "city",
      "level": null,
      "parent_id": null,
      "population": 1516,
      "latitude": "59.93395000",
      "longitude": "16.96353000",
      "timezone": "Europe/Stockholm",
      "wikiDataId": "Q2413829",
      "country_code": "SE",
      "state_code": "C",
      "state_id": 1545,
      "country_id": 213
    },
    {
      "id": 104033,
      "name": "Örbyhus",
      "name_default": "Örbyhus",
      "native": "Örbyhus",
      "type": "city",
      "level": null,
      "parent_id": null,
      "population": 2276,
      "latitude": "60.22407000",
      "longitude": "17.70138000",
      "timezone": "Europe/Stockholm",
      "wikiDataId": "Q297673",
      "country_code": "SE",
      "state_code": "C",
      "state_id": 1545,
      "country_id": 213
    },
    {
      "id": 104036,
      "name": "Эрегрунд",
      "name_default": "Öregrund",
      "native": "Öregrund",
      "type": "city",
      "level": null,
      "parent_id": null,
      "population": 1571,
      "latitude": "60.33333000",
      "longitude": "18.43333000",
      "timezone": "Europe/Stockholm",
      "wikiDataId": "Q297790",
      "country_code": "SE",
      "state_code": "C",
      "state_id": 1545,
      "country_id": 213
    },
    {
      "id": 104041,
      "name": "Örsundsbro",
      "name_default": "Örsundsbro",
      "native": "Örsundsbro",
      "type": "city",
      "level": null,
      "parent_id": null,
      "population": 1423,
      "latitude": "59.73333000",
      "longitude": "17.30000000",
      "timezone": "Europe/Stockholm",
      "wikiDataId": "Q3006215",
      "country_code": "SE",
      "state_code": "C",
      "state_id": 1545,
      "country_id": 213
    },
    {
      "id": 104043,
      "name": "Эстербюбрук",
      "name_default": "Österbybruk",
      "native": "Österbybruk",
      "type": "city",
      "level": null,
      "parent_id": null,
      "population": 2344,
      "latitude": "60.20000000",
      "longitude": "17.90000000",
      "timezone": "Europe/Stockholm",
      "wikiDataId": "Q298344",
      "country_code": "SE",
      "state_code": "C",
      "state_id": 1545,
      "country_id": 213
    },
    {
      "id": 104046,
      "name": "Östervåla",
      "name_default": "Östervåla",
      "native": "Östervåla",
      "type": "city",
      "level": null,
      "parent_id": null,
      "population": 1850,
      "latitude": "60.18333000",
      "longitude": "17.18333000",
      "timezone": "Europe/Stockholm",
      "wikiDataId": "Q2001699",
      "country_code": "SE",
      "state_code": "C",
      "state_id": 1545,
      "country_id": 213
    },
    {
      "id": 104048,
      "name": "Эстхаммар",
      "name_default": "Östhammar",
      "native": "Östhammar",
      "type": "adm2",
      "level": null,
      "parent_id": null,
      "population": 4986,
      "latitude": "60.25909000",
      "longitude": "18.37408000",
      "timezone": "Europe/Stockholm",
      "wikiDataId": "Q59088",
      "country_code": "SE",
      "state_code": "C",
      "state_id": 1545,
      "country_id": 213
    },
    {
      "id": 103813,
      "name": "Сявья",
      "name_default": "Sävja",
      "native": "Sävja",
      "type": "city",
      "level": null,
      "parent_id": null,
      "population": 9614,
      "latitude": "59.81872000",
      "longitude": "17.69958000",
      "timezone": "Europe/Stockholm",
      "wikiDataId": "Q2117403",
      "country_code": "SE",
      "state_code": "C",
      "state_id": 1545,
      "country_id": 213
    },
    {
      "id": 103716,
      "name": "Скутскэр",
      "name_default": "Skutskär",
      "native": "Skutskär",
      "type": "adm2",
      "level": null,
      "parent_id": null,
      "population": 6279,
      "latitude": "60.62507000",
      "longitude": "17.41552000",
      "timezone": "Europe/Stockholm",
      "wikiDataId": "Q59052",
      "country_code": "SE",
      "state_code": "C",
      "state_id": 1545,
      "country_id": 213
    },
    {
      "id": 103817,
      "name": "Сёдерфорс",
      "name_default": "Söderfors",
      "native": "Söderfors",
      "type": "city",
      "level": null,
      "parent_id": null,
      "population": 1646,
      "latitude": "60.38333000",
      "longitude": "17.23333000",
      "timezone": "Europe/Stockholm",
      "wikiDataId": "Q2393606",
      "country_code": "SE",
      "state_code": "C",
      "state_id": 1545,
      "country_id": 213
    },
    {
      "id": 103769,
      "name": "Сторврета",
      "name_default": "Storvreta",
      "native": "Storvreta",
      "type": "city",
      "level": null,
      "parent_id": null,
      "population": 6211,
      "latitude": "59.95933000",
      "longitude": "17.70588000",
      "timezone": "Europe/Stockholm",
      "wikiDataId": "Q1616235",
      "country_code": "SE",
      "state_code": "C",
      "state_id": 1545,
      "country_id": 213
    },
    {
      "id": 103889,
      "name": "Тэрншё",
      "name_default": "Tärnsjö",
      "native": "Tärnsjö",
      "type": "city",
      "level": null,
      "parent_id": null,
      "population": 1179,
      "latitude": "60.15000000",
      "longitude": "16.93333000",
      "timezone": "Europe/Stockholm",
      "wikiDataId": "Q2445921",
      "country_code": "SE",
      "state_code": "C",
      "state_id": 1545,
      "country_id": 213
    },
    {
      "id": 103846,
      "name": "Тирп",
      "name_default": "Tierp",
      "native": "Tierp",
      "type": "adm2",
      "level": null,
      "parent_id": null,
      "population": 6346,
      "latitude": "60.34269000",
      "longitude": "17.51812000",
      "timezone": "Europe/Stockholm",
      "wikiDataId": "Q660532",
      "country_code": "SE",
      "state_code": "C",
      "state_id": 1545,
      "country_id": 213
    },
    {
      "id": 103903,
      "name": "Уппсала",
      "name_default": "Uppsala",
      "native": "Uppsala",
      "type": "adm1",
      "level": null,
      "parent_id": null,
      "population": 174982,
      "latitude": "59.85882000",
      "longitude": "17.63889000",
      "timezone": "Europe/Stockholm",
      "wikiDataId": "Q25286",
      "country_code": "SE",
      "state_code": "C",
      "state_id": 1545,
      "country_id": 213
    },
    {
      "id": 103928,
      "name": "Ваттхольма",
      "name_default": "Vattholma",
      "native": "Vattholma",
      "type": "city",
      "level": null,
      "parent_id": null,
      "population": 1410,
      "latitude": "60.01667000",
      "longitude": "17.73333000",
      "timezone": "Europe/Stockholm",
      "wikiDataId": "Q2326872",
      "country_code": "SE",
      "state_code": "C",
      "state_id": 1545,
      "country_id": 213
    }
  ]
}
