{
  "locale": "zh-CN",
  "country": {
    "id": 174,
    "code": "PH",
    "iso3": "PHL",
    "numeric_code": "608",
    "name": "菲律宾",
    "name_default": "Philippines",
    "native": "Pilipinas",
    "capital": "Manila",
    "phonecode": "63",
    "currency": "PHP",
    "currency_name": "Philippine peso",
    "currency_symbol": "₱",
    "tld": ".ph",
    "population": 114123600,
    "gdp": 497495,
    "region": "Asia",
    "region_id": 3,
    "subregion": "South-Eastern Asia",
    "subregion_id": 13,
    "nationality": "Philippine, Filipino",
    "timezones": [
      {
        "zoneName": "Asia/Manila",
        "gmtOffset": 28800,
        "gmtOffsetName": "UTC+08:00",
        "abbreviation": "PHT",
        "tzName": "Philippine Time"
      }
    ],
    "latitude": "13.00000000",
    "longitude": "122.00000000",
    "emoji": "🇵🇭",
    "emojiU": "U+1F1F5 U+1F1ED"
  },
  "state": {
    "id": 1316,
    "code": "14",
    "iso2": "14",
    "iso3166_2": "PH-14",
    "fips_code": "14",
    "name": "棉兰老穆斯林自治区",
    "name_default": "Autonomous Region in Muslim Mindanao",
    "native": "Autonomous Region in Muslim Mindanao",
    "type": "region",
    "level": null,
    "parent_id": null,
    "population": null,
    "latitude": "7.22420330",
    "longitude": "124.24701640",
    "timezone": "Asia/Manila",
    "wikiDataId": "Q13708",
    "country_code": "PH"
  },
  "cities": [
    {
      "id": 81260,
      "name": "安达兰",
      "name_default": "Andalan",
      "native": "Mainstay",
      "type": "city",
      "level": null,
      "parent_id": null,
      "population": 2644,
      "latitude": "5.95944000",
      "longitude": "121.39028000",
      "timezone": "Asia/Manila",
      "wikiDataId": "Q31466155",
      "country_code": "PH",
      "state_code": "14",
      "state_id": 1316,
      "country_id": 174
    },
    {
      "id": 81289,
      "name": "阿奴灵",
      "name_default": "Anuling",
      "native": "Anuling",
      "type": "city",
      "level": null,
      "parent_id": null,
      "population": 10039,
      "latitude": "6.03556000",
      "longitude": "121.00667000",
      "timezone": "Asia/Manila",
      "wikiDataId": "Q31467461",
      "country_code": "PH",
      "state_code": "14",
      "state_id": 1316,
      "country_id": 174
    },
    {
      "id": 81339,
      "name": "阿旺",
      "name_default": "Awang",
      "native": "Busty",
      "type": "city",
      "level": null,
      "parent_id": null,
      "population": 8417,
      "latitude": "7.15306000",
      "longitude": "124.22111000",
      "timezone": "Asia/Manila",
      "wikiDataId": "Q31471303",
      "country_code": "PH",
      "state_code": "14",
      "state_id": 1316,
      "country_id": 174
    },
    {
      "id": 81356,
      "name": "巴卡亚万",
      "name_default": "Bacayawan",
      "native": "Bacayawan",
      "type": "city",
      "level": null,
      "parent_id": null,
      "population": 3234,
      "latitude": "7.76667000",
      "longitude": "124.23333000",
      "timezone": "Asia/Manila",
      "wikiDataId": "Q31796124",
      "country_code": "PH",
      "state_code": "14",
      "state_id": 1316,
      "country_id": 174
    },
    {
      "id": 81379,
      "name": "巴达克",
      "name_default": "Badak",
      "native": "Rhinoceros",
      "type": "city",
      "level": null,
      "parent_id": null,
      "population": 6653,
      "latitude": "6.84722000",
      "longitude": "124.72056000",
      "timezone": "Asia/Manila",
      "wikiDataId": "Q31474248",
      "country_code": "PH",
      "state_code": "14",
      "state_id": 1316,
      "country_id": 174
    },
    {
      "id": 81392,
      "name": "蒲甘",
      "name_default": "Bagan",
      "native": "Bagan",
      "type": "city",
      "level": null,
      "parent_id": null,
      "population": 2230,
      "latitude": "6.92556000",
      "longitude": "124.42028000",
      "timezone": "Asia/Manila",
      "wikiDataId": "Q31475063",
      "country_code": "PH",
      "state_code": "14",
      "state_id": 1316,
      "country_id": 174
    },
    {
      "id": 81424,
      "name": "巴卡",
      "name_default": "Baka",
      "native": "Cow",
      "type": "city",
      "level": null,
      "parent_id": null,
      "population": 2404,
      "latitude": "7.27611000",
      "longitude": "124.26417000",
      "timezone": "Asia/Manila",
      "wikiDataId": "Q31476872",
      "country_code": "PH",
      "state_code": "14",
      "state_id": 1316,
      "country_id": 174
    },
    {
      "id": 81427,
      "name": "巴孔",
      "name_default": "Bakung",
      "native": "Lakung",
      "type": "city",
      "level": null,
      "parent_id": null,
      "population": 3185,
      "latitude": "4.89111000",
      "longitude": "119.79417000",
      "timezone": "Asia/Manila",
      "wikiDataId": "Q31796194",
      "country_code": "PH",
      "state_code": "14",
      "state_id": 1316,
      "country_id": 174
    },
    {
      "id": 81449,
      "name": "巴拉斯",
      "name_default": "Balas",
      "native": "Please",
      "type": "city",
      "level": null,
      "parent_id": null,
      "population": 2517,
      "latitude": "6.68750000",
      "longitude": "122.13806000",
      "timezone": "Asia/Manila",
      "wikiDataId": "Q31478483",
      "country_code": "PH",
      "state_code": "14",
      "state_id": 1316,
      "country_id": 174
    },
    {
      "id": 81472,
      "name": "巴林宾",
      "name_default": "Balimbing",
      "native": "Balimbing",
      "type": "city",
      "level": null,
      "parent_id": null,
      "population": 7102,
      "latitude": "5.08250000",
      "longitude": "119.96583000",
      "timezone": "Asia/Manila",
      "wikiDataId": "Q155259",
      "country_code": "PH",
      "state_code": "14",
      "state_id": 1316,
      "country_id": 174
    },
    {
      "id": 81531,
      "name": "邦卡尔",
      "name_default": "Bangkal",
      "native": "Bangkal",
      "type": "city",
      "level": null,
      "parent_id": null,
      "population": 2288,
      "latitude": "6.06667000",
      "longitude": "121.06667000",
      "timezone": "Asia/Manila",
      "wikiDataId": "Q31483604",
      "country_code": "PH",
      "state_code": "14",
      "state_id": 1316,
      "country_id": 174
    },
    {
      "id": 81542,
      "name": "班考",
      "name_default": "Bankaw",
      "native": "Banking",
      "type": "city",
      "level": null,
      "parent_id": null,
      "population": 3908,
      "latitude": "5.01920000",
      "longitude": "120.00910000",
      "timezone": "Asia/Manila",
      "wikiDataId": "Q315121",
      "country_code": "PH",
      "state_code": "14",
      "state_id": 1316,
      "country_id": 174
    },
    {
      "id": 81590,
      "name": "巴鲁劳",
      "name_default": "Barurao",
      "native": "Barurao",
      "type": "city",
      "level": null,
      "parent_id": null,
      "population": 2990,
      "latitude": "6.89806000",
      "longitude": "124.59750000",
      "timezone": "Asia/Manila",
      "wikiDataId": "Q31488037",
      "country_code": "PH",
      "state_code": "14",
      "state_id": 1316,
      "country_id": 174
    },
    {
      "id": 81631,
      "name": "巴托巴托",
      "name_default": "Bato Bato",
      "native": "Bato Bato",
      "type": "city",
      "level": null,
      "parent_id": null,
      "population": 3735,
      "latitude": "6.03440000",
      "longitude": "120.94630000",
      "timezone": "Asia/Manila",
      "wikiDataId": "Q31490641",
      "country_code": "PH",
      "state_code": "14",
      "state_id": 1316,
      "country_id": 174
    },
    {
      "id": 81646,
      "name": "巴努-廷班甘",
      "name_default": "Baunu-Timbangan",
      "native": "Baunu-balance",
      "type": "city",
      "level": null,
      "parent_id": null,
      "population": 2230,
      "latitude": "6.00547000",
      "longitude": "120.99406000",
      "timezone": "Asia/Manila",
      "wikiDataId": "Q31796474",
      "country_code": "PH",
      "state_code": "14",
      "state_id": 1316,
      "country_id": 174
    },
    {
      "id": 81649,
      "name": "巴威森",
      "name_default": "Bawison",
      "native": "Bawison",
      "type": "city",
      "level": null,
      "parent_id": null,
      "population": 3461,
      "latitude": "5.93750000",
      "longitude": "120.87450000",
      "timezone": "Asia/Manila",
      "wikiDataId": "Q31491687",
      "country_code": "PH",
      "state_code": "14",
      "state_id": 1316,
      "country_id": 174
    },
    {
      "id": 81657,
      "name": "巴扬加",
      "name_default": "Bayanga",
      "native": "Bayanga",
      "type": "city",
      "level": null,
      "parent_id": null,
      "population": 5087,
      "latitude": "7.52139000",
      "longitude": "124.25222000",
      "timezone": "Asia/Manila",
      "wikiDataId": "Q31492373",
      "country_code": "PH",
      "state_code": "14",
      "state_id": 1316,
      "country_id": 174
    },
    {
      "id": 81675,
      "name": "贝冈",
      "name_default": "Begang",
      "native": "tense",
      "type": "city",
      "level": null,
      "parent_id": null,
      "population": 2384,
      "latitude": "6.69090000",
      "longitude": "122.01680000",
      "timezone": "Asia/Manila",
      "wikiDataId": "Q31495237",
      "country_code": "PH",
      "state_code": "14",
      "state_id": 1316,
      "country_id": 174
    },
    {
      "id": 81730,
      "name": "比努昂",
      "name_default": "Binuang",
      "native": "FOOLISH",
      "type": "city",
      "level": null,
      "parent_id": null,
      "population": 3159,
      "latitude": "5.95694000",
      "longitude": "121.06000000",
      "timezone": "Asia/Manila",
      "wikiDataId": "Q31502946",
      "country_code": "PH",
      "state_code": "14",
      "state_id": 1316,
      "country_id": 174
    },
    {
      "id": 81751,
      "name": "布林松",
      "name_default": "Blinsung",
      "native": "Blinish",
      "type": "city",
      "level": null,
      "parent_id": null,
      "population": 4151,
      "latitude": "7.01806000",
      "longitude": "124.18056000",
      "timezone": "Asia/Manila",
      "wikiDataId": "Q31505825",
      "country_code": "PH",
      "state_code": "14",
      "state_id": 1316,
      "country_id": 174
    },
    {
      "id": 81790,
      "name": "邦格德",
      "name_default": "Bongued",
      "native": "Bongued",
      "type": "city",
      "level": null,
      "parent_id": null,
      "population": 2684,
      "latitude": "7.11667000",
      "longitude": "124.40000000",
      "timezone": "Asia/Manila",
      "wikiDataId": "Q31509554",
      "country_code": "PH",
      "state_code": "14",
      "state_id": 1316,
      "country_id": 174
    },
    {
      "id": 81817,
      "name": "布阿兰",
      "name_default": "Bualan",
      "native": "Conversation",
      "type": "city",
      "level": null,
      "parent_id": null,
      "population": 3471,
      "latitude": "7.75000000",
      "longitude": "124.26667000",
      "timezone": "Asia/Manila",
      "wikiDataId": "Q31514490",
      "country_code": "PH",
      "state_code": "14",
      "state_id": 1316,
      "country_id": 174
    },
    {
      "id": 81818,
      "name": "扶安",
      "name_default": "Buan",
      "native": "Permanent",
      "type": "city",
      "level": null,
      "parent_id": null,
      "population": 2929,
      "latitude": "5.16080000",
      "longitude": "120.04260000",
      "timezone": "Asia/Manila",
      "wikiDataId": "Q31514539",
      "country_code": "PH",
      "state_code": "14",
      "state_id": 1316,
      "country_id": 174
    },
    {
      "id": 81821,
      "name": "布安萨",
      "name_default": "Buansa",
      "native": "Persistent",
      "type": "city",
      "level": null,
      "parent_id": null,
      "population": 3196,
      "latitude": "6.02580000",
      "longitude": "120.96140000",
      "timezone": "Asia/Manila",
      "wikiDataId": "Q31514619",
      "country_code": "PH",
      "state_code": "14",
      "state_id": 1316,
      "country_id": 174
    },
    {
      "id": 81826,
      "name": "布达",
      "name_default": "Budta",
      "native": "Buda",
      "type": "city",
      "level": null,
      "parent_id": null,
      "population": 1273715,
      "latitude": "7.20417000",
      "longitude": "124.43972000",
      "timezone": "Asia/Manila",
      "wikiDataId": "Q31515760",
      "country_code": "PH",
      "state_code": "14",
      "state_id": 1316,
      "country_id": 174
    },
    {
      "id": 81843,
      "name": "布加桑",
      "name_default": "Bugasan",
      "native": "Bugasan",
      "type": "city",
      "level": null,
      "parent_id": null,
      "population": 7754,
      "latitude": "7.44083000",
      "longitude": "124.25917000",
      "timezone": "Asia/Manila",
      "wikiDataId": "Q31516465",
      "country_code": "PH",
      "state_code": "14",
      "state_id": 1316,
      "country_id": 174
    },
    {
      "id": 81876,
      "name": "布利奥克",
      "name_default": "Buliok",
      "native": "Buliok",
      "type": "city",
      "level": null,
      "parent_id": null,
      "population": 3713,
      "latitude": "7.01667000",
      "longitude": "124.70000000",
      "timezone": "Asia/Manila",
      "wikiDataId": "Q31517726",
      "country_code": "PH",
      "state_code": "14",
      "state_id": 1316,
      "country_id": 174
    },
    {
      "id": 81879,
      "name": "布利特",
      "name_default": "Bulit",
      "native": "Party",
      "type": "city",
      "level": null,
      "parent_id": null,
      "population": 2219,
      "latitude": "7.11528000",
      "longitude": "124.78944000",
      "timezone": "Asia/Manila",
      "wikiDataId": "Q31517812",
      "country_code": "PH",
      "state_code": "14",
      "state_id": 1316,
      "country_id": 174
    },
    {
      "id": 81891,
      "name": "布姆巴兰",
      "name_default": "Bumbaran",
      "native": "Bumbaran",
      "type": "adm3",
      "level": null,
      "parent_id": null,
      "population": 0,
      "latitude": "7.80000000",
      "longitude": "124.65000000",
      "timezone": "Asia/Manila",
      "wikiDataId": "Q273775",
      "country_code": "PH",
      "state_code": "14",
      "state_id": 1316,
      "country_id": 174
    },
    {
      "id": 82245,
      "name": "伊莎贝拉市",
      "name_default": "City of Isabela",
      "native": "City of Isabela",
      "type": "adm2",
      "level": null,
      "parent_id": null,
      "population": 67336,
      "latitude": "6.70407000",
      "longitude": "121.97117000",
      "timezone": "Asia/Manila",
      "wikiDataId": "Q1710",
      "country_code": "PH",
      "state_code": "14",
      "state_id": 1316,
      "country_id": 174
    },
    {
      "id": 82262,
      "name": "科洛尼亚",
      "name_default": "Colonia",
      "native": "Colonia",
      "type": "city",
      "level": null,
      "parent_id": null,
      "population": 2587,
      "latitude": "6.64361000",
      "longitude": "122.15750000",
      "timezone": "Asia/Manila",
      "wikiDataId": "Q31550016",
      "country_code": "PH",
      "state_code": "14",
      "state_id": 1316,
      "country_id": 174
    },
    {
      "id": 82302,
      "name": "哥打巴托",
      "name_default": "Cotabato",
      "native": "Cotabato",
      "type": "adm1",
      "level": null,
      "parent_id": null,
      "population": 383383,
      "latitude": "7.22361000",
      "longitude": "124.24639000",
      "timezone": "Asia/Manila",
      "wikiDataId": "Q31553701",
      "country_code": "PH",
      "state_code": "14",
      "state_id": 1316,
      "country_id": 174
    },
    {
      "id": 82329,
      "name": "墙裙",
      "name_default": "Dado",
      "native": "Given",
      "type": "city",
      "level": null,
      "parent_id": null,
      "population": 5184,
      "latitude": "7.05000000",
      "longitude": "124.45972000",
      "timezone": "Asia/Manila",
      "wikiDataId": "Q31558386",
      "country_code": "PH",
      "state_code": "14",
      "state_id": 1316,
      "country_id": 174
    },
    {
      "id": 82330,
      "name": "达杜斯",
      "name_default": "Dadus",
      "native": "Dadus",
      "type": "city",
      "level": null,
      "parent_id": null,
      "population": 2325,
      "latitude": "7.05750000",
      "longitude": "124.32167000",
      "timezone": "Asia/Manila",
      "wikiDataId": "Q31558404",
      "country_code": "PH",
      "state_code": "14",
      "state_id": 1316,
      "country_id": 174
    },
    {
      "id": 82347,
      "name": "达利坎",
      "name_default": "Dalican",
      "native": "Dalican",
      "type": "city",
      "level": null,
      "parent_id": null,
      "population": 13918,
      "latitude": "6.96667000",
      "longitude": "124.40000000",
      "timezone": "Asia/Manila",
      "wikiDataId": "Q31559874",
      "country_code": "PH",
      "state_code": "14",
      "state_id": 1316,
      "country_id": 174
    },
    {
      "id": 82353,
      "name": "达鲁芒科布",
      "name_default": "Dalumangcob",
      "native": "DALAMBOB",
      "type": "city",
      "level": null,
      "parent_id": null,
      "population": 9424,
      "latitude": "7.21667000",
      "longitude": "124.30000000",
      "timezone": "Asia/Manila",
      "wikiDataId": "Q31560132",
      "country_code": "PH",
      "state_code": "14",
      "state_id": 1316,
      "country_id": 174
    },
    {
      "id": 82357,
      "name": "达玛巴拉斯",
      "name_default": "Damabalas",
      "native": "Damabalas",
      "type": "city",
      "level": null,
      "parent_id": null,
      "population": 3230,
      "latitude": "7.01556000",
      "longitude": "124.51417000",
      "timezone": "Asia/Manila",
      "wikiDataId": "Q31560626",
      "country_code": "PH",
      "state_code": "14",
      "state_id": 1316,
      "country_id": 174
    },
    {
      "id": 82358,
      "name": "达马图兰",
      "name_default": "Damatulan",
      "native": "Damatulan",
      "type": "city",
      "level": null,
      "parent_id": null,
      "population": 3330,
      "latitude": "7.03889000",
      "longitude": "124.48278000",
      "timezone": "Asia/Manila",
      "wikiDataId": "Q31560642",
      "country_code": "PH",
      "state_code": "14",
      "state_id": 1316,
      "country_id": 174
    },
    {
      "id": 82422,
      "name": "迪加尔",
      "name_default": "Digal",
      "native": "Digal",
      "type": "city",
      "level": null,
      "parent_id": null,
      "population": 6810,
      "latitude": "6.75306000",
      "longitude": "124.79639000",
      "timezone": "Asia/Manila",
      "wikiDataId": "Q31566837",
      "country_code": "PH",
      "state_code": "14",
      "state_id": 1316,
      "country_id": 174
    },
    {
      "id": 82436,
      "name": "迪奈格",
      "name_default": "Dinaig",
      "native": "Dinaig",
      "type": "city",
      "level": null,
      "parent_id": null,
      "population": 2371,
      "latitude": "7.02556000",
      "longitude": "124.31500000",
      "timezone": "Asia/Manila",
      "wikiDataId": "Q212432",
      "country_code": "PH",
      "state_code": "14",
      "state_id": 1316,
      "country_id": 174
    },
    {
      "id": 82439,
      "name": "丁加宁",
      "name_default": "Dinganen",
      "native": "Dinganen",
      "type": "city",
      "level": null,
      "parent_id": null,
      "population": 4623,
      "latitude": "7.32833000",
      "longitude": "124.37833000",
      "timezone": "Asia/Manila",
      "wikiDataId": "Q31567872",
      "country_code": "PH",
      "state_code": "14",
      "state_id": 1316,
      "country_id": 174
    },
    {
      "id": 82500,
      "name": "埃布科镇",
      "name_default": "Ebcor Town",
      "native": "Ebcor Town",
      "type": "city",
      "level": null,
      "parent_id": null,
      "population": 2483,
      "latitude": "7.44056000",
      "longitude": "124.39722000",
      "timezone": "Asia/Manila",
      "wikiDataId": "Q31575282",
      "country_code": "PH",
      "state_code": "14",
      "state_id": 1316,
      "country_id": 174
    },
    {
      "id": 82564,
      "name": "帮派",
      "name_default": "Gang",
      "native": "Gang",
      "type": "city",
      "level": null,
      "parent_id": null,
      "population": 3317,
      "latitude": "7.24583000",
      "longitude": "124.26639000",
      "timezone": "Asia/Manila",
      "wikiDataId": "Q31588598",
      "country_code": "PH",
      "state_code": "14",
      "state_id": 1316,
      "country_id": 174
    },
    {
      "id": 82643,
      "name": "贵翁",
      "name_default": "Guiong",
      "native": "Guiong",
      "type": "city",
      "level": null,
      "parent_id": null,
      "population": 2477,
      "latitude": "6.41861000",
      "longitude": "122.02583000",
      "timezone": "Asia/Manila",
      "wikiDataId": "Q31811376",
      "country_code": "PH",
      "state_code": "14",
      "state_id": 1316,
      "country_id": 174
    },
    {
      "id": 82714,
      "name": "伊蒂格",
      "name_default": "Idtig",
      "native": "Idtig",
      "type": "city",
      "level": null,
      "parent_id": null,
      "population": 3969,
      "latitude": "6.79889000",
      "longitude": "124.77278000",
      "timezone": "Asia/Manila",
      "wikiDataId": "Q31811469",
      "country_code": "PH",
      "state_code": "14",
      "state_id": 1316,
      "country_id": 174
    },
    {
      "id": 82825,
      "name": "卡巴萨兰",
      "name_default": "Kabasalan",
      "native": "Kabasalan",
      "type": "city",
      "level": null,
      "parent_id": null,
      "population": 2190,
      "latitude": "7.06667000",
      "longitude": "124.65000000",
      "timezone": "Asia/Manila",
      "wikiDataId": "Q31811567",
      "country_code": "PH",
      "state_code": "14",
      "state_id": 1316,
      "country_id": 174
    },
    {
      "id": 82836,
      "name": "卡盖伊",
      "name_default": "Kagay",
      "native": "Kagay",
      "type": "city",
      "level": null,
      "parent_id": null,
      "population": 2318,
      "latitude": "6.00880000",
      "longitude": "120.90740000",
      "timezone": "Asia/Manila",
      "wikiDataId": "Q31811578",
      "country_code": "PH",
      "state_code": "14",
      "state_id": 1316,
      "country_id": 174
    },
    {
      "id": 82837,
      "name": "卡亚蒂安",
      "name_default": "Kajatian",
      "native": "Kajenti",
      "type": "city",
      "level": null,
      "parent_id": null,
      "population": 5436,
      "latitude": "6.03111000",
      "longitude": "120.99194000",
      "timezone": "Asia/Manila",
      "wikiDataId": "Q31811579",
      "country_code": "PH",
      "state_code": "14",
      "state_id": 1316,
      "country_id": 174
    },
    {
      "id": 82842,
      "name": "卡朗",
      "name_default": "Kalang",
      "native": "Kalang",
      "type": "city",
      "level": null,
      "parent_id": null,
      "population": 2323,
      "latitude": "5.91972000",
      "longitude": "121.36306000",
      "timezone": "Asia/Manila",
      "wikiDataId": "Q31811585",
      "country_code": "PH",
      "state_code": "14",
      "state_id": 1316,
      "country_id": 174
    },
    {
      "id": 82847,
      "name": "卡尔布甘",
      "name_default": "Kalbugan",
      "native": "Widow",
      "type": "city",
      "level": null,
      "parent_id": null,
      "population": 3226,
      "latitude": "6.95972000",
      "longitude": "124.65917000",
      "timezone": "Asia/Manila",
      "wikiDataId": "Q31811590",
      "country_code": "PH",
      "state_code": "14",
      "state_id": 1316,
      "country_id": 174
    },
    {
      "id": 82858,
      "name": "坎宾",
      "name_default": "Kambing",
      "native": "Goat",
      "type": "city",
      "level": null,
      "parent_id": null,
      "population": 2373,
      "latitude": "5.94646000",
      "longitude": "121.30757000",
      "timezone": "Asia/Manila",
      "wikiDataId": "Q31811601",
      "country_code": "PH",
      "state_code": "14",
      "state_id": 1316,
      "country_id": 174
    },
    {
      "id": 82862,
      "name": "坎拉盖",
      "name_default": "Kanlagay",
      "native": "Kantagay",
      "type": "city",
      "level": null,
      "parent_id": null,
      "population": 2211,
      "latitude": "5.87568000",
      "longitude": "121.29146000",
      "timezone": "Asia/Manila",
      "wikiDataId": "Q31811605",
      "country_code": "PH",
      "state_code": "14",
      "state_id": 1316,
      "country_id": 174
    },
    {
      "id": 82864,
      "name": "坎西帕蒂",
      "name_default": "Kansipati",
      "native": "Kanipati",
      "type": "city",
      "level": null,
      "parent_id": null,
      "population": 14552,
      "latitude": "6.00111000",
      "longitude": "121.23444000",
      "timezone": "Asia/Manila",
      "wikiDataId": "Q31811607",
      "country_code": "PH",
      "state_code": "14",
      "state_id": 1316,
      "country_id": 174
    },
    {
      "id": 82874,
      "name": "卡隆东",
      "name_default": "Karungdong",
      "native": "Karungdong",
      "type": "city",
      "level": null,
      "parent_id": null,
      "population": 7269,
      "latitude": "5.88440000",
      "longitude": "121.26300000",
      "timezone": "Asia/Manila",
      "wikiDataId": "Q31811615",
      "country_code": "PH",
      "state_code": "14",
      "state_id": 1316,
      "country_id": 174
    },
    {
      "id": 82877,
      "name": "卡蒂科",
      "name_default": "Katico",
      "native": "Katico",
      "type": "city",
      "level": null,
      "parent_id": null,
      "population": 3932,
      "latitude": "6.75835950",
      "longitude": "124.72557300",
      "timezone": "Asia/Manila",
      "wikiDataId": "Q31811617",
      "country_code": "PH",
      "state_code": "14",
      "state_id": 1316,
      "country_id": 174
    },
    {
      "id": 82878,
      "name": "卡迪图安",
      "name_default": "Katidtuan",
      "native": "Katidtuan",
      "type": "city",
      "level": null,
      "parent_id": null,
      "population": 4710,
      "latitude": "7.18861000",
      "longitude": "124.31528000",
      "timezone": "Asia/Manila",
      "wikiDataId": "Q31811618",
      "country_code": "PH",
      "state_code": "14",
      "state_id": 1316,
      "country_id": 174
    },
    {
      "id": 82882,
      "name": "卡图利",
      "name_default": "Katuli",
      "native": "Vaccine",
      "type": "city",
      "level": null,
      "parent_id": null,
      "population": 4732,
      "latitude": "7.43333000",
      "longitude": "124.21667000",
      "timezone": "Asia/Manila",
      "wikiDataId": "Q31811624",
      "country_code": "PH",
      "state_code": "14",
      "state_id": 1316,
      "country_id": 174
    },
    {
      "id": 82884,
      "name": "考兰",
      "name_default": "Kauran",
      "native": "Kuran",
      "type": "city",
      "level": null,
      "parent_id": null,
      "population": 5120,
      "latitude": "6.77945870",
      "longitude": "124.47758270",
      "timezone": "Asia/Manila",
      "wikiDataId": "Q31811626",
      "country_code": "PH",
      "state_code": "14",
      "state_id": 1316,
      "country_id": 174
    },
    {
      "id": 82915,
      "name": "基坦戈",
      "name_default": "Kitango",
      "native": "Kitao",
      "type": "city",
      "level": null,
      "parent_id": null,
      "population": 2608,
      "latitude": "6.94833000",
      "longitude": "124.44111000",
      "timezone": "Asia/Manila",
      "wikiDataId": "Q31811657",
      "country_code": "PH",
      "state_code": "14",
      "state_id": 1316,
      "country_id": 174
    },
    {
      "id": 82917,
      "name": "基塔帕克",
      "name_default": "Kitapak",
      "native": "Kitapak",
      "type": "city",
      "level": null,
      "parent_id": null,
      "population": 2924,
      "latitude": "6.95333000",
      "longitude": "124.42556000",
      "timezone": "Asia/Manila",
      "wikiDataId": "Q31811658",
      "country_code": "PH",
      "state_code": "14",
      "state_id": 1316,
      "country_id": 174
    },
    {
      "id": 82923,
      "name": "科拉佩",
      "name_default": "Kolape",
      "native": "Kolape",
      "type": "city",
      "level": null,
      "parent_id": null,
      "population": 2825,
      "latitude": "5.07028000",
      "longitude": "119.89694000",
      "timezone": "Asia/Manila",
      "wikiDataId": "Q31811670",
      "country_code": "PH",
      "state_code": "14",
      "state_id": 1316,
      "country_id": 174
    },
    {
      "id": 82930,
      "name": "库拉塞",
      "name_default": "Kulase",
      "native": "Concerning",
      "type": "city",
      "level": null,
      "parent_id": null,
      "population": 7148,
      "latitude": "5.90520000",
      "longitude": "120.95690000",
      "timezone": "Asia/Manila",
      "wikiDataId": "Q31811683",
      "country_code": "PH",
      "state_code": "14",
      "state_id": 1316,
      "country_id": 174
    },
    {
      "id": 82931,
      "name": "库莱-库莱",
      "name_default": "Kulay-Kulay",
      "native": "Color",
      "type": "city",
      "level": null,
      "parent_id": null,
      "population": 2783,
      "latitude": "5.94528000",
      "longitude": "121.23250000",
      "timezone": "Asia/Manila",
      "wikiDataId": "Q31811684",
      "country_code": "PH",
      "state_code": "14",
      "state_id": 1316,
      "country_id": 174
    },
    {
      "id": 82932,
      "name": "库伦邦",
      "name_default": "Kulempang",
      "native": "I stuck",
      "type": "city",
      "level": null,
      "parent_id": null,
      "population": 2384,
      "latitude": "7.51944000",
      "longitude": "124.38972000",
      "timezone": "Asia/Manila",
      "wikiDataId": "Q31811685",
      "country_code": "PH",
      "state_code": "14",
      "state_id": 1316,
      "country_id": 174
    },
    {
      "id": 82935,
      "name": "昆塔德",
      "name_default": "Kungtad",
      "native": "Kuntad",
      "type": "city",
      "level": null,
      "parent_id": null,
      "population": 2464,
      "latitude": "5.55720000",
      "longitude": "120.84720000",
      "timezone": "Asia/Manila",
      "wikiDataId": "Q31811688",
      "country_code": "PH",
      "state_code": "14",
      "state_id": 1316,
      "country_id": 174
    },
    {
      "id": 82967,
      "name": "拉布尼甘",
      "name_default": "Labuñgan",
      "native": "Labungan",
      "type": "city",
      "level": null,
      "parent_id": null,
      "population": 2397,
      "latitude": "7.10306000",
      "longitude": "124.23500000",
      "timezone": "Asia/Manila",
      "wikiDataId": "Q31811725",
      "country_code": "PH",
      "state_code": "14",
      "state_id": 1316,
      "country_id": 174
    },
    {
      "id": 83000,
      "name": "拉米努萨",
      "name_default": "Laminusa",
      "native": "Laminusa",
      "type": "city",
      "level": null,
      "parent_id": null,
      "population": 8113,
      "latitude": "5.55490000",
      "longitude": "120.91360000",
      "timezone": "Asia/Manila",
      "wikiDataId": "Q31811764",
      "country_code": "PH",
      "state_code": "14",
      "state_id": 1316,
      "country_id": 174
    },
    {
      "id": 83003,
      "name": "拉米坦市",
      "name_default": "Lamitan City",
      "native": "Lamitan City",
      "type": "adm3",
      "level": null,
      "parent_id": null,
      "population": 6114,
      "latitude": "6.65020000",
      "longitude": "122.12952000",
      "timezone": "Asia/Manila",
      "wikiDataId": "Q1714",
      "country_code": "PH",
      "state_code": "14",
      "state_id": 1316,
      "country_id": 174
    },
    {
      "id": 83015,
      "name": "朗帕斯",
      "name_default": "Langpas",
      "native": "Long",
      "type": "city",
      "level": null,
      "parent_id": null,
      "population": 2378,
      "latitude": "5.97500000",
      "longitude": "120.94900000",
      "timezone": "Asia/Manila",
      "wikiDataId": "Q31811779",
      "country_code": "PH",
      "state_code": "14",
      "state_id": 1316,
      "country_id": 174
    },
    {
      "id": 83042,
      "name": "拉拉普",
      "name_default": "Larap",
      "native": "Quinapaguian",
      "type": "city",
      "level": null,
      "parent_id": null,
      "population": 4113,
      "latitude": "4.76154000",
      "longitude": "119.40511000",
      "timezone": "Asia/Manila",
      "wikiDataId": "Q31811807",
      "country_code": "PH",
      "state_code": "14",
      "state_id": 1316,
      "country_id": 174
    },
    {
      "id": 83048,
      "name": "拉通",
      "name_default": "Latung",
      "native": "LATE",
      "type": "city",
      "level": null,
      "parent_id": null,
      "population": 2964,
      "latitude": "5.50000000",
      "longitude": "120.88333000",
      "timezone": "Asia/Manila",
      "wikiDataId": "Q31811812",
      "country_code": "PH",
      "state_code": "14",
      "state_id": 1316,
      "country_id": 174
    },
    {
      "id": 83057,
      "name": "拉约格",
      "name_default": "Layog",
      "native": "Element",
      "type": "city",
      "level": null,
      "parent_id": null,
      "population": 2588,
      "latitude": "7.07667000",
      "longitude": "124.73056000",
      "timezone": "Asia/Manila",
      "wikiDataId": "Q31811821",
      "country_code": "PH",
      "state_code": "14",
      "state_id": 1316,
      "country_id": 174
    },
    {
      "id": 83107,
      "name": "利加延",
      "name_default": "Ligayan",
      "native": "Lisayan",
      "type": "city",
      "level": null,
      "parent_id": null,
      "population": 2319,
      "latitude": "4.65442000",
      "longitude": "119.47062000",
      "timezone": "Asia/Manila",
      "wikiDataId": "Q31811876",
      "country_code": "PH",
      "state_code": "14",
      "state_id": 1316,
      "country_id": 174
    },
    {
      "id": 83121,
      "name": "地狱边境",
      "name_default": "Limbo",
      "native": "Limbo",
      "type": "city",
      "level": null,
      "parent_id": null,
      "population": 4842,
      "latitude": "7.25167000",
      "longitude": "124.24389000",
      "timezone": "Asia/Manila",
      "wikiDataId": "Q31811889",
      "country_code": "PH",
      "state_code": "14",
      "state_id": 1316,
      "country_id": 174
    },
    {
      "id": 83150,
      "name": "利塔扬",
      "name_default": "Litayan",
      "native": "Litayan",
      "type": "city",
      "level": null,
      "parent_id": null,
      "population": 5294,
      "latitude": "7.33583000",
      "longitude": "124.03472000",
      "timezone": "Asia/Manila",
      "wikiDataId": "Q31811921",
      "country_code": "PH",
      "state_code": "14",
      "state_id": 1316,
      "country_id": 174
    },
    {
      "id": 83174,
      "name": "卢坎",
      "name_default": "Lookan",
      "native": "Do light",
      "type": "city",
      "level": null,
      "parent_id": null,
      "population": 2758,
      "latitude": "5.03700000",
      "longitude": "120.10270000",
      "timezone": "Asia/Manila",
      "wikiDataId": "Q31811945",
      "country_code": "PH",
      "state_code": "14",
      "state_id": 1316,
      "country_id": 174
    },
    {
      "id": 83190,
      "name": "卢克",
      "name_default": "Lu-uk",
      "native": "Lu-uk",
      "type": "city",
      "level": null,
      "parent_id": null,
      "population": 9558,
      "latitude": "5.96840000",
      "longitude": "121.31220000",
      "timezone": "Asia/Manila",
      "wikiDataId": "Q31811963",
      "country_code": "PH",
      "state_code": "14",
      "state_id": 1316,
      "country_id": 174
    },
    {
      "id": 83216,
      "name": "腰椎",
      "name_default": "Lumbac",
      "native": "Lumbac",
      "type": "city",
      "level": null,
      "parent_id": null,
      "population": 2448,
      "latitude": "7.73417000",
      "longitude": "124.25278000",
      "timezone": "Asia/Manila",
      "wikiDataId": "Q31811987",
      "country_code": "PH",
      "state_code": "14",
      "state_id": 1316,
      "country_id": 174
    },
    {
      "id": 83252,
      "name": "卢克·达坦",
      "name_default": "Luuk Datan",
      "native": "Luuk data",
      "type": "city",
      "level": null,
      "parent_id": null,
      "population": 2567,
      "latitude": "4.81194000",
      "longitude": "119.84528000",
      "timezone": "Asia/Manila",
      "wikiDataId": "Q31812020",
      "country_code": "PH",
      "state_code": "14",
      "state_id": 1316,
      "country_id": 174
    },
    {
      "id": 83324,
      "name": "马加诺伊",
      "name_default": "Maganoy",
      "native": "resort",
      "type": "adm3",
      "level": null,
      "parent_id": null,
      "population": 17394,
      "latitude": "6.86472000",
      "longitude": "124.44167000",
      "timezone": "Asia/Manila",
      "wikiDataId": "Q31812079",
      "country_code": "PH",
      "state_code": "14",
      "state_id": 1316,
      "country_id": 174
    },
    {
      "id": 83356,
      "name": "马哈拉",
      "name_default": "Mahala",
      "native": "Free",
      "type": "city",
      "level": null,
      "parent_id": null,
      "population": 2427,
      "latitude": "5.91667000",
      "longitude": "121.13333000",
      "timezone": "Asia/Manila",
      "wikiDataId": "Q31812106",
      "country_code": "PH",
      "state_code": "14",
      "state_id": 1316,
      "country_id": 174
    },
    {
      "id": 83378,
      "name": "马基尔",
      "name_default": "Makir",
      "native": "Machir",
      "type": "city",
      "level": null,
      "parent_id": null,
      "population": 2371,
      "latitude": "7.03083000",
      "longitude": "124.30417000",
      "timezone": "Asia/Manila",
      "wikiDataId": "Q31812121",
      "country_code": "PH",
      "state_code": "14",
      "state_id": 1316,
      "country_id": 174
    },
    {
      "id": 83463,
      "name": "马卢索",
      "name_default": "Maluso",
      "native": "Skills",
      "type": "city",
      "level": null,
      "parent_id": null,
      "population": 31374,
      "latitude": "6.54300000",
      "longitude": "121.87530000",
      "timezone": "Asia/Manila",
      "wikiDataId": "Q802142",
      "country_code": "PH",
      "state_code": "14",
      "state_id": 1316,
      "country_id": 174
    },
    {
      "id": 83542,
      "name": "马努布尔",
      "name_default": "Manubul",
      "native": "Manubul",
      "type": "city",
      "level": null,
      "parent_id": null,
      "population": 4736,
      "latitude": "5.47320000",
      "longitude": "120.79860000",
      "timezone": "Asia/Manila",
      "wikiDataId": "Q31812273",
      "country_code": "PH",
      "state_code": "14",
      "state_id": 1316,
      "country_id": 174
    },
    {
      "id": 83544,
      "name": "马努克·芒考",
      "name_default": "Manuk Mangkaw",
      "native": "Manuk Mangkaw",
      "type": "city",
      "level": null,
      "parent_id": null,
      "population": 4981,
      "latitude": "4.80644950",
      "longitude": "119.83527640",
      "timezone": "Asia/Manila",
      "wikiDataId": "Q31812275",
      "country_code": "PH",
      "state_code": "14",
      "state_id": 1316,
      "country_id": 174
    },
    {
      "id": 83567,
      "name": "马拉维市",
      "name_default": "Marawi City",
      "native": "Marawi City",
      "type": "adm2",
      "level": null,
      "parent_id": null,
      "population": 259993,
      "latitude": "8.00340000",
      "longitude": "124.28395000",
      "timezone": "Asia/Manila",
      "wikiDataId": "Q592338",
      "country_code": "PH",
      "state_code": "14",
      "state_id": 1316,
      "country_id": 174
    },
    {
      "id": 83588,
      "name": "马尔萨达",
      "name_default": "Marsada",
      "native": "Marry",
      "type": "city",
      "level": null,
      "parent_id": null,
      "population": 2571,
      "latitude": "5.93139000",
      "longitude": "121.10694000",
      "timezone": "Asia/Manila",
      "wikiDataId": "Q31812309",
      "country_code": "PH",
      "state_code": "14",
      "state_id": 1316,
      "country_id": 174
    },
    {
      "id": 83621,
      "name": "马塔亚",
      "name_default": "Mataya",
      "native": "Mataya",
      "type": "city",
      "level": null,
      "parent_id": null,
      "population": 3136,
      "latitude": "7.47111000",
      "longitude": "124.37194000",
      "timezone": "Asia/Manila",
      "wikiDataId": "Q31812340",
      "country_code": "PH",
      "state_code": "14",
      "state_id": 1316,
      "country_id": 174
    },
    {
      "id": 83636,
      "name": "毛布",
      "name_default": "Mauboh",
      "native": "Mauboh",
      "type": "city",
      "level": null,
      "parent_id": null,
      "population": 2561,
      "latitude": "5.99000000",
      "longitude": "121.09361000",
      "timezone": "Asia/Manila",
      "wikiDataId": "Q31812360",
      "country_code": "PH",
      "state_code": "14",
      "state_id": 1316,
      "country_id": 174
    },
    {
      "id": 83673,
      "name": "米莱布",
      "name_default": "Mileb",
      "native": "Mile",
      "type": "city",
      "level": null,
      "parent_id": null,
      "population": 2758,
      "latitude": "6.89861000",
      "longitude": "124.58389000",
      "timezone": "Asia/Manila",
      "wikiDataId": "Q31812417",
      "country_code": "PH",
      "state_code": "14",
      "state_id": 1316,
      "country_id": 174
    },
    {
      "id": 83802,
      "name": "新峇都峇都",
      "name_default": "New Batu Batu",
      "native": "New Stone",
      "type": "city",
      "level": null,
      "parent_id": null,
      "population": 8881,
      "latitude": "5.06667000",
      "longitude": "119.88333000",
      "timezone": "Asia/Manila",
      "wikiDataId": "Q31812610",
      "country_code": "PH",
      "state_code": "14",
      "state_id": 1316,
      "country_id": 174
    },
    {
      "id": 83833,
      "name": "努约",
      "name_default": "Nuyo",
      "native": "NUYO",
      "type": "city",
      "level": null,
      "parent_id": null,
      "population": 2224,
      "latitude": "7.41806000",
      "longitude": "124.41083000",
      "timezone": "Asia/Manila",
      "wikiDataId": "Q31812678",
      "country_code": "PH",
      "state_code": "14",
      "state_id": 1316,
      "country_id": 174
    },
    {
      "id": 83892,
      "name": "帕加廷",
      "name_default": "Pagatin",
      "native": "chase",
      "type": "city",
      "level": null,
      "parent_id": null,
      "population": 3079,
      "latitude": "6.97306000",
      "longitude": "124.47528000",
      "timezone": "Asia/Manila",
      "wikiDataId": "Q31457654",
      "country_code": "PH",
      "state_code": "14",
      "state_id": 1316,
      "country_id": 174
    },
    {
      "id": 83901,
      "name": "派坦",
      "name_default": "Paitan",
      "native": "Link",
      "type": "city",
      "level": null,
      "parent_id": null,
      "population": 3294,
      "latitude": "6.65768090",
      "longitude": "124.87374640",
      "timezone": "Asia/Manila",
      "wikiDataId": "Q31457958",
      "country_code": "PH",
      "state_code": "14",
      "state_id": 1316,
      "country_id": 174
    },
    {
      "id": 83944,
      "name": "帕纳布安",
      "name_default": "Panabuan",
      "native": "Nanabuan",
      "type": "city",
      "level": null,
      "parent_id": null,
      "population": 2528,
      "latitude": "5.96160000",
      "longitude": "120.96270000",
      "timezone": "Asia/Manila",
      "wikiDataId": "Q31461027",
      "country_code": "PH",
      "state_code": "14",
      "state_id": 1316,
      "country_id": 174
    },
    {
      "id": 83946,
      "name": "帕纳德塔班",
      "name_default": "Panadtaban",
      "native": "Badstaban",
      "type": "city",
      "level": null,
      "parent_id": null,
      "population": 2324,
      "latitude": "6.90083000",
      "longitude": "124.64278000",
      "timezone": "Asia/Manila",
      "wikiDataId": "Q31461065",
      "country_code": "PH",
      "state_code": "14",
      "state_id": 1316,
      "country_id": 174
    },
    {
      "id": 83959,
      "name": "潘达坎",
      "name_default": "Pandakan",
      "native": "Pandakan",
      "type": "city",
      "level": null,
      "parent_id": null,
      "population": 3162,
      "latitude": "5.98889000",
      "longitude": "121.16583000",
      "timezone": "Asia/Manila",
      "wikiDataId": "Q31461425",
      "country_code": "PH",
      "state_code": "14",
      "state_id": 1316,
      "country_id": 174
    },
    {
      "id": 83963,
      "name": "班丹尼奥格",
      "name_default": "Pandan Niog",
      "native": "nun",
      "type": "city",
      "level": null,
      "parent_id": null,
      "population": 3192,
      "latitude": "6.22820000",
      "longitude": "120.56310000",
      "timezone": "Asia/Manila",
      "wikiDataId": "Q492545",
      "country_code": "PH",
      "state_code": "14",
      "state_id": 1316,
      "country_id": 174
    },
    {
      "id": 83967,
      "name": "庞",
      "name_default": "Pang",
      "native": "Pang",
      "type": "city",
      "level": null,
      "parent_id": null,
      "population": 2563,
      "latitude": "5.94837000",
      "longitude": "121.28830000",
      "timezone": "Asia/Manila",
      "wikiDataId": "Q31461710",
      "country_code": "PH",
      "state_code": "14",
      "state_id": 1316,
      "country_id": 174
    },
    {
      "id": 84020,
      "name": "帕兰甘",
      "name_default": "Parangan",
      "native": "Parangan",
      "type": "city",
      "level": null,
      "parent_id": null,
      "population": 2432,
      "latitude": "5.08389000",
      "longitude": "119.93833000",
      "timezone": "Asia/Manila",
      "wikiDataId": "Q31463316",
      "country_code": "PH",
      "state_code": "14",
      "state_id": 1316,
      "country_id": 174
    },
    {
      "id": 84021,
      "name": "帕里安·达库拉",
      "name_default": "Parian Dakula",
      "native": "Parian Dakula",
      "type": "city",
      "level": null,
      "parent_id": null,
      "population": 4005,
      "latitude": "5.55667000",
      "longitude": "120.77194000",
      "timezone": "Asia/Manila",
      "wikiDataId": "Q31463416",
      "country_code": "PH",
      "state_code": "14",
      "state_id": 1316,
      "country_id": 174
    },
    {
      "id": 84061,
      "name": "帕瓦克",
      "name_default": "Pawak",
      "native": "Tax",
      "type": "city",
      "level": null,
      "parent_id": null,
      "population": 2555,
      "latitude": "8.01634000",
      "longitude": "124.25647000",
      "timezone": "Asia/Manila",
      "wikiDataId": "Q31465336",
      "country_code": "PH",
      "state_code": "14",
      "state_id": 1316,
      "country_id": 174
    },
    {
      "id": 84071,
      "name": "帕尤汉",
      "name_default": "Payuhan",
      "native": "Say",
      "type": "city",
      "level": null,
      "parent_id": null,
      "population": 4519,
      "latitude": "5.94167000",
      "longitude": "120.90111000",
      "timezone": "Asia/Manila",
      "wikiDataId": "Q31465652",
      "country_code": "PH",
      "state_code": "14",
      "state_id": 1316,
      "country_id": 174
    },
    {
      "id": 84085,
      "name": "皮德桑达万",
      "name_default": "Pidsandawan",
      "native": "PSIDANDATAN",
      "type": "city",
      "level": null,
      "parent_id": null,
      "population": 2481,
      "latitude": "6.93222000",
      "longitude": "124.59083000",
      "timezone": "Asia/Manila",
      "wikiDataId": "Q31467725",
      "country_code": "PH",
      "state_code": "14",
      "state_id": 1316,
      "country_id": 174
    },
    {
      "id": 84107,
      "name": "皮纳林",
      "name_default": "Pinaring",
      "native": "Pinaring",
      "type": "city",
      "level": null,
      "parent_id": null,
      "population": 2247,
      "latitude": "7.22889000",
      "longitude": "124.31056000",
      "timezone": "Asia/Manila",
      "wikiDataId": "Q31469100",
      "country_code": "PH",
      "state_code": "14",
      "state_id": 1316,
      "country_id": 174
    },
    {
      "id": 84146,
      "name": "波洛克",
      "name_default": "Polloc",
      "native": "Polloc",
      "type": "city",
      "level": null,
      "parent_id": null,
      "population": 3140,
      "latitude": "7.35340000",
      "longitude": "124.22088000",
      "timezone": "Asia/Manila",
      "wikiDataId": "Q104011",
      "country_code": "PH",
      "state_code": "14",
      "state_id": 1316,
      "country_id": 174
    },
    {
      "id": 84275,
      "name": "普奈",
      "name_default": "Punay",
      "native": "turtledove",
      "type": "city",
      "level": null,
      "parent_id": null,
      "population": 6099,
      "latitude": "5.96139000",
      "longitude": "121.19806000",
      "timezone": "Asia/Manila",
      "wikiDataId": "Q31480205",
      "country_code": "PH",
      "state_code": "14",
      "state_id": 1316,
      "country_id": 174
    },
    {
      "id": 84322,
      "name": "拉曼",
      "name_default": "Ramain",
      "native": "Ramain",
      "type": "adm3",
      "level": null,
      "parent_id": null,
      "population": 0,
      "latitude": "7.97083000",
      "longitude": "124.34528000",
      "timezone": "Asia/Manila",
      "wikiDataId": "Q273828",
      "country_code": "PH",
      "state_code": "14",
      "state_id": 1316,
      "country_id": 174
    },
    {
      "id": 84337,
      "name": "林佩索",
      "name_default": "Rimpeso",
      "native": "Rolling",
      "type": "city",
      "level": null,
      "parent_id": null,
      "population": 3494,
      "latitude": "7.02389000",
      "longitude": "124.10028000",
      "timezone": "Asia/Manila",
      "wikiDataId": "Q31488764",
      "country_code": "PH",
      "state_code": "14",
      "state_id": 1316,
      "country_id": 174
    },
    {
      "id": 84428,
      "name": "桑布鲁安",
      "name_default": "Sambuluan",
      "native": "Sambuli",
      "type": "city",
      "level": null,
      "parent_id": null,
      "population": 2679,
      "latitude": "6.88333000",
      "longitude": "124.70000000",
      "timezone": "Asia/Manila",
      "wikiDataId": "Q31500985",
      "country_code": "PH",
      "state_code": "14",
      "state_id": 1316,
      "country_id": 174
    },
    {
      "id": 84630,
      "name": "桑加-桑加",
      "name_default": "Sanga-Sanga",
      "native": "Branch",
      "type": "city",
      "level": null,
      "parent_id": null,
      "population": 5295,
      "latitude": "5.07250000",
      "longitude": "119.78528000",
      "timezone": "Asia/Manila",
      "wikiDataId": "Q31509803",
      "country_code": "PH",
      "state_code": "14",
      "state_id": 1316,
      "country_id": 174
    },
    {
      "id": 84654,
      "name": "圣克拉拉",
      "name_default": "Santa Clara",
      "native": "Santa Clara",
      "type": "city",
      "level": null,
      "parent_id": null,
      "population": 4306,
      "latitude": "6.67820000",
      "longitude": "122.06000000",
      "timezone": "Asia/Manila",
      "wikiDataId": "Q31812880",
      "country_code": "PH",
      "state_code": "14",
      "state_id": 1316,
      "country_id": 174
    },
    {
      "id": 84739,
      "name": "萨帕",
      "name_default": "Sapa",
      "native": "Sapa",
      "type": "city",
      "level": null,
      "parent_id": null,
      "population": 2572,
      "latitude": "5.15440000",
      "longitude": "120.32410000",
      "timezone": "Asia/Manila",
      "wikiDataId": "Q31513250",
      "country_code": "PH",
      "state_code": "14",
      "state_id": 1316,
      "country_id": 174
    },
    {
      "id": 84741,
      "name": "萨帕敦",
      "name_default": "Sapadun",
      "native": "Sapadun",
      "type": "city",
      "level": null,
      "parent_id": null,
      "population": 4376,
      "latitude": "7.48333000",
      "longitude": "124.25000000",
      "timezone": "Asia/Manila",
      "wikiDataId": "Q31513320",
      "country_code": "PH",
      "state_code": "14",
      "state_id": 1316,
      "country_id": 174
    },
    {
      "id": 84754,
      "name": "撒但",
      "name_default": "Satan",
      "native": "Satan",
      "type": "city",
      "level": null,
      "parent_id": null,
      "population": 4068,
      "latitude": "6.86306000",
      "longitude": "124.40861000",
      "timezone": "Asia/Manila",
      "wikiDataId": "Q31513807",
      "country_code": "PH",
      "state_code": "14",
      "state_id": 1316,
      "country_id": 174
    },
    {
      "id": 84758,
      "name": "塞穆特",
      "name_default": "Semut",
      "native": "Ant",
      "type": "city",
      "level": null,
      "parent_id": null,
      "population": 3423,
      "latitude": "6.66361000",
      "longitude": "122.21889000",
      "timezone": "Asia/Manila",
      "wikiDataId": "Q31515925",
      "country_code": "PH",
      "state_code": "14",
      "state_id": 1316,
      "country_id": 174
    },
    {
      "id": 84801,
      "name": "辛巴罕",
      "name_default": "Simbahan",
      "native": "Church",
      "type": "city",
      "level": null,
      "parent_id": null,
      "population": 5573,
      "latitude": "6.30320000",
      "longitude": "120.58360000",
      "timezone": "Asia/Manila",
      "wikiDataId": "Q156195",
      "country_code": "PH",
      "state_code": "14",
      "state_id": 1316,
      "country_id": 174
    },
    {
      "id": 84804,
      "name": "西穆艾",
      "name_default": "Simuay",
      "native": "Simuay",
      "type": "city",
      "level": null,
      "parent_id": null,
      "population": 4666,
      "latitude": "7.27722000",
      "longitude": "124.30722000",
      "timezone": "Asia/Manila",
      "wikiDataId": "Q31520646",
      "country_code": "PH",
      "state_code": "14",
      "state_id": 1316,
      "country_id": 174
    },
    {
      "id": 84824,
      "name": "西奥诺根",
      "name_default": "Sionogan",
      "native": "Sionogan",
      "type": "city",
      "level": null,
      "parent_id": null,
      "population": 2730,
      "latitude": "6.00528000",
      "longitude": "120.94861000",
      "timezone": "Asia/Manila",
      "wikiDataId": "Q31521243",
      "country_code": "PH",
      "state_code": "14",
      "state_id": 1316,
      "country_id": 174
    },
    {
      "id": 84894,
      "name": "塔比安",
      "name_default": "Tabiauan",
      "native": "Tabulate",
      "type": "city",
      "level": null,
      "parent_id": null,
      "population": 2312,
      "latitude": "6.02806000",
      "longitude": "121.89355000",
      "timezone": "Asia/Manila",
      "wikiDataId": "Q31540914",
      "country_code": "PH",
      "state_code": "14",
      "state_id": 1316,
      "country_id": 174
    },
    {
      "id": 84901,
      "name": "塔布拉斯",
      "name_default": "Tablas",
      "native": "Tables",
      "type": "city",
      "level": null,
      "parent_id": null,
      "population": 2336,
      "latitude": "6.62917000",
      "longitude": "122.17472000",
      "timezone": "Asia/Manila",
      "wikiDataId": "Q31812893",
      "country_code": "PH",
      "state_code": "14",
      "state_id": 1316,
      "country_id": 174
    },
    {
      "id": 84928,
      "name": "塔加纳克",
      "name_default": "Taganak",
      "native": "Taganak",
      "type": "city",
      "level": null,
      "parent_id": null,
      "population": 2638,
      "latitude": "6.07328000",
      "longitude": "118.31226000",
      "timezone": "Asia/Manila",
      "wikiDataId": "Q31541883",
      "country_code": "PH",
      "state_code": "14",
      "state_id": 1316,
      "country_id": 174
    },
    {
      "id": 84954,
      "name": "泰然营",
      "name_default": "Tairan Camp",
      "native": "Tairan Camp",
      "type": "city",
      "level": null,
      "parent_id": null,
      "population": 2766,
      "latitude": "6.64020000",
      "longitude": "121.83950000",
      "timezone": "Asia/Manila",
      "wikiDataId": "Q31542874",
      "country_code": "PH",
      "state_code": "14",
      "state_id": 1316,
      "country_id": 174
    },
    {
      "id": 84978,
      "name": "塔利波",
      "name_default": "Talipaw",
      "native": "Talipaw",
      "type": "city",
      "level": null,
      "parent_id": null,
      "population": 5977,
      "latitude": "5.91000000",
      "longitude": "121.09444000",
      "timezone": "Asia/Manila",
      "wikiDataId": "Q31543717",
      "country_code": "PH",
      "state_code": "14",
      "state_id": 1316,
      "country_id": 174
    },
    {
      "id": 85048,
      "name": "塔帕扬",
      "name_default": "Tapayan",
      "native": "Tapayan",
      "type": "city",
      "level": null,
      "parent_id": null,
      "population": 3240,
      "latitude": "7.29444000",
      "longitude": "124.26611000",
      "timezone": "Asia/Manila",
      "wikiDataId": "Q31546273",
      "country_code": "PH",
      "state_code": "14",
      "state_id": 1316,
      "country_id": 174
    },
    {
      "id": 85051,
      "name": "塔皮坎",
      "name_default": "Tapikan",
      "native": "Even",
      "type": "city",
      "level": null,
      "parent_id": null,
      "population": 2232,
      "latitude": "6.85194000",
      "longitude": "124.32250000",
      "timezone": "Asia/Manila",
      "wikiDataId": "Q31546392",
      "country_code": "PH",
      "state_code": "14",
      "state_id": 1316,
      "country_id": 174
    },
    {
      "id": 85063,
      "name": "东吴",
      "name_default": "Taungoh",
      "native": "Taungoh",
      "type": "city",
      "level": null,
      "parent_id": null,
      "population": 2375,
      "latitude": "4.70654000",
      "longitude": "119.49296000",
      "timezone": "Asia/Manila",
      "wikiDataId": "Q31546986",
      "country_code": "PH",
      "state_code": "14",
      "state_id": 1316,
      "country_id": 174
    },
    {
      "id": 85064,
      "name": "塔维兰",
      "name_default": "Taviran",
      "native": "Taviran",
      "type": "city",
      "level": null,
      "parent_id": null,
      "population": 2851,
      "latitude": "7.12333000",
      "longitude": "124.31972000",
      "timezone": "Asia/Manila",
      "wikiDataId": "Q31547601",
      "country_code": "PH",
      "state_code": "14",
      "state_id": 1316,
      "country_id": 174
    },
    {
      "id": 85168,
      "name": "通古森",
      "name_default": "Tongouson",
      "native": "Tongouson",
      "type": "city",
      "level": null,
      "parent_id": null,
      "population": 6267,
      "latitude": "5.02140000",
      "longitude": "120.13280000",
      "timezone": "Asia/Manila",
      "wikiDataId": "Q31558917",
      "country_code": "PH",
      "state_code": "14",
      "state_id": 1316,
      "country_id": 174
    },
    {
      "id": 85223,
      "name": "通巴甘",
      "name_default": "Tumbagaan",
      "native": "Tumbagaan",
      "type": "city",
      "level": null,
      "parent_id": null,
      "population": 2261,
      "latitude": "5.36560000",
      "longitude": "120.31390000",
      "timezone": "Asia/Manila",
      "wikiDataId": "Q50177",
      "country_code": "PH",
      "state_code": "14",
      "state_id": 1316,
      "country_id": 174
    },
    {
      "id": 85228,
      "name": "东格尔",
      "name_default": "Tunggol",
      "native": "Tunggol",
      "type": "city",
      "level": null,
      "parent_id": null,
      "population": 3013,
      "latitude": "5.84458000",
      "longitude": "121.15436000",
      "timezone": "Asia/Manila",
      "wikiDataId": "Q31563984",
      "country_code": "PH",
      "state_code": "14",
      "state_id": 1316,
      "country_id": 174
    },
    {
      "id": 85229,
      "name": "通戈尔",
      "name_default": "Tungol",
      "native": "Tungol",
      "type": "city",
      "level": null,
      "parent_id": null,
      "population": 3976,
      "latitude": "7.08083000",
      "longitude": "124.75306000",
      "timezone": "Asia/Manila",
      "wikiDataId": "Q31563999",
      "country_code": "PH",
      "state_code": "14",
      "state_id": 1316,
      "country_id": 174
    },
    {
      "id": 85253,
      "name": "乌格斯-乌格斯",
      "name_default": "Ungus-Ungus",
      "native": "Ungus-Ungus",
      "type": "city",
      "level": null,
      "parent_id": null,
      "population": 2344,
      "latitude": "5.05083000",
      "longitude": "119.83972000",
      "timezone": "Asia/Manila",
      "wikiDataId": "Q31567911",
      "country_code": "PH",
      "state_code": "14",
      "state_id": 1316,
      "country_id": 174
    },
    {
      "id": 85272,
      "name": "乌亚安",
      "name_default": "Uyaan",
      "native": "Uvet",
      "type": "city",
      "level": null,
      "parent_id": null,
      "population": 2601,
      "latitude": "7.86306000",
      "longitude": "124.04111000",
      "timezone": "Asia/Manila",
      "wikiDataId": "Q31570060",
      "country_code": "PH",
      "state_code": "14",
      "state_id": 1316,
      "country_id": 174
    }
  ]
}
