{
  "locale": "de",
  "country": {
    "id": 207,
    "code": "ES",
    "iso3": "ESP",
    "numeric_code": "724",
    "name": "Spanien",
    "name_default": "Spain",
    "native": "España",
    "capital": "Madrid",
    "phonecode": "34",
    "currency": "EUR",
    "currency_name": "Euro",
    "currency_symbol": "€",
    "tld": ".es",
    "population": 49315949,
    "gdp": 1799511,
    "region": "Europe",
    "region_id": 4,
    "subregion": "Southern Europe",
    "subregion_id": 16,
    "nationality": "Spanish",
    "timezones": [
      {
        "zoneName": "Africa/Ceuta",
        "gmtOffset": 3600,
        "gmtOffsetName": "UTC+01:00",
        "abbreviation": "CET",
        "tzName": "Central European Time"
      },
      {
        "zoneName": "Atlantic/Canary",
        "gmtOffset": 0,
        "gmtOffsetName": "UTC±00",
        "abbreviation": "WET",
        "tzName": "Western European Time"
      },
      {
        "zoneName": "Europe/Madrid",
        "gmtOffset": 3600,
        "gmtOffsetName": "UTC+01:00",
        "abbreviation": "CET",
        "tzName": "Central European Time"
      }
    ],
    "latitude": "40.00000000",
    "longitude": "-4.00000000",
    "emoji": "🇪🇸",
    "emojiU": "U+1F1EA U+1F1F8"
  },
  "state": {
    "id": 5103,
    "code": "GI",
    "iso2": "GI",
    "iso3166_2": "ES-GI",
    "fips_code": null,
    "name": "Girona",
    "name_default": "Girona",
    "native": "Girona",
    "type": "province",
    "level": "1",
    "parent_id": "5331",
    "population": null,
    "latitude": "41.97930060",
    "longitude": "2.81994390",
    "timezone": "Europe/Madrid",
    "wikiDataId": "Q7038",
    "country_code": "ES"
  },
  "cities": [
    {
      "id": 31967,
      "name": "Agullana",
      "name_default": "Agullana",
      "native": "Picadura",
      "type": "adm3",
      "level": null,
      "parent_id": null,
      "population": 909,
      "latitude": "42.39408000",
      "longitude": "2.84666000",
      "timezone": "Europe/Madrid",
      "wikiDataId": "Q24016521",
      "country_code": "ES",
      "state_code": "GI",
      "state_id": 5103,
      "country_id": 207
    },
    {
      "id": 31981,
      "name": "Aiguaviva",
      "name_default": "Aiguaviva",
      "native": "Inundación",
      "type": "adm3",
      "level": null,
      "parent_id": null,
      "population": 608,
      "latitude": "41.93840000",
      "longitude": "2.76217000",
      "timezone": "Europe/Madrid",
      "wikiDataId": "Q13412",
      "country_code": "ES",
      "state_code": "GI",
      "state_id": 5103,
      "country_id": 207
    },
    {
      "id": 151631,
      "name": "Albanyà",
      "name_default": "Albanyà",
      "native": "Albanyà",
      "type": "adm3",
      "level": null,
      "parent_id": null,
      "population": 168,
      "latitude": "42.30478540",
      "longitude": "2.72044830",
      "timezone": "Europe/Madrid",
      "wikiDataId": "Q10973",
      "country_code": "ES",
      "state_code": "GI",
      "state_id": 5103,
      "country_id": 207
    },
    {
      "id": 32050,
      "name": "Albons",
      "name_default": "Albons",
      "native": "Albón",
      "type": "adm3",
      "level": null,
      "parent_id": null,
      "population": 558,
      "latitude": "42.10389000",
      "longitude": "3.08433000",
      "timezone": "Europe/Madrid",
      "wikiDataId": "Q564993",
      "country_code": "ES",
      "state_code": "GI",
      "state_id": 5103,
      "country_id": 207
    },
    {
      "id": 151633,
      "name": "Alp",
      "name_default": "Alp",
      "native": "Montaña",
      "type": "adm3",
      "level": null,
      "parent_id": null,
      "population": 0,
      "latitude": "42.37284490",
      "longitude": "1.88611600",
      "timezone": "Europe/Madrid",
      "wikiDataId": "Q11685507",
      "country_code": "ES",
      "state_code": "GI",
      "state_id": 5103,
      "country_id": 207
    },
    {
      "id": 151634,
      "name": "Amer",
      "name_default": "Amer",
      "native": "Amer",
      "type": "adm3",
      "level": null,
      "parent_id": null,
      "population": 2415,
      "latitude": "42.01041740",
      "longitude": "2.60280360",
      "timezone": "Europe/Madrid",
      "wikiDataId": "Q355912",
      "country_code": "ES",
      "state_code": "GI",
      "state_id": 5103,
      "country_id": 207
    },
    {
      "id": 32379,
      "name": "Anglès",
      "name_default": "Anglès",
      "native": "Inglés",
      "type": "city",
      "level": null,
      "parent_id": null,
      "population": 5969,
      "latitude": "41.95617000",
      "longitude": "2.63603000",
      "timezone": "Europe/Madrid",
      "wikiDataId": "Q13027",
      "country_code": "ES",
      "state_code": "GI",
      "state_id": 5103,
      "country_id": 207
    },
    {
      "id": 32427,
      "name": "Arbúcies",
      "name_default": "Arbúcies",
      "native": "Arbúcies",
      "type": "adm3",
      "level": null,
      "parent_id": null,
      "population": 0,
      "latitude": "41.81667000",
      "longitude": "2.51667000",
      "timezone": "Europe/Madrid",
      "wikiDataId": "Q13010",
      "country_code": "ES",
      "state_code": "GI",
      "state_id": 5103,
      "country_id": 207
    },
    {
      "id": 32468,
      "name": "Argelaguer",
      "name_default": "Argelaguer",
      "native": "Argelaguer",
      "type": "adm3",
      "level": null,
      "parent_id": null,
      "population": 452,
      "latitude": "42.21563000",
      "longitude": "2.64193000",
      "timezone": "Europe/Madrid",
      "wikiDataId": "Q12582",
      "country_code": "ES",
      "state_code": "GI",
      "state_id": 5103,
      "country_id": 207
    },
    {
      "id": 151635,
      "name": "Armentera L",
      "name_default": "Armentera L",
      "native": "Armentera l",
      "type": "city",
      "level": null,
      "parent_id": null,
      "population": 731,
      "latitude": "42.17176030",
      "longitude": "3.07389920",
      "timezone": "Europe/Madrid",
      "wikiDataId": "Q24002975",
      "country_code": "ES",
      "state_code": "GI",
      "state_id": 5103,
      "country_id": 207
    },
    {
      "id": 151636,
      "name": "Avinyonet de Puigventós",
      "name_default": "Avinyonet de Puigventós",
      "native": "Avinyonet de Puigventós",
      "type": "adm3",
      "level": null,
      "parent_id": null,
      "population": 1126,
      "latitude": "42.25054280",
      "longitude": "2.91197810",
      "timezone": "Europe/Madrid",
      "wikiDataId": "Q11227",
      "country_code": "ES",
      "state_code": "GI",
      "state_id": 5103,
      "country_id": 207
    },
    {
      "id": 32634,
      "name": "Banyoles",
      "name_default": "Banyoles",
      "native": "Banyoles",
      "type": "adm3",
      "level": null,
      "parent_id": null,
      "population": 20599,
      "latitude": "42.11667000",
      "longitude": "2.76667000",
      "timezone": "Europe/Madrid",
      "wikiDataId": "Q616408",
      "country_code": "ES",
      "state_code": "GI",
      "state_id": 5103,
      "country_id": 207
    },
    {
      "id": 33047,
      "name": "Bàscara",
      "name_default": "Bàscara",
      "native": "Bascara",
      "type": "adm3",
      "level": null,
      "parent_id": null,
      "population": 1057,
      "latitude": "42.15998000",
      "longitude": "2.91028000",
      "timezone": "Europe/Madrid",
      "wikiDataId": "Q327740",
      "country_code": "ES",
      "state_code": "GI",
      "state_id": 5103,
      "country_id": 207
    },
    {
      "id": 32729,
      "name": "Begur",
      "name_default": "Begur",
      "native": "Engañar",
      "type": "adm3",
      "level": null,
      "parent_id": null,
      "population": 4245,
      "latitude": "41.95000000",
      "longitude": "3.21667000",
      "timezone": "Europe/Madrid",
      "wikiDataId": "Q24022119",
      "country_code": "ES",
      "state_code": "GI",
      "state_id": 5103,
      "country_id": 207
    },
    {
      "id": 151638,
      "name": "Bellcaire dEmpordà",
      "name_default": "Bellcaire d'Empordà",
      "native": "Bellcaire Dempord",
      "type": "adm3",
      "level": null,
      "parent_id": null,
      "population": 737,
      "latitude": "42.07920420",
      "longitude": "3.09582240",
      "timezone": "Europe/Madrid",
      "wikiDataId": null,
      "country_code": "ES",
      "state_code": "GI",
      "state_id": 5103,
      "country_id": 207
    },
    {
      "id": 32877,
      "name": "Besalú",
      "name_default": "Besalú",
      "native": "Obispo",
      "type": "adm3",
      "level": null,
      "parent_id": null,
      "population": 2583,
      "latitude": "42.19893000",
      "longitude": "2.69953000",
      "timezone": "Europe/Madrid",
      "wikiDataId": "Q1907531",
      "country_code": "ES",
      "state_code": "GI",
      "state_id": 5103,
      "country_id": 207
    },
    {
      "id": 32878,
      "name": "Bescanó",
      "name_default": "Bescanó",
      "native": "Intercambio",
      "type": "adm3",
      "level": null,
      "parent_id": null,
      "population": 3767,
      "latitude": "41.96603000",
      "longitude": "2.73922000",
      "timezone": "Europe/Madrid",
      "wikiDataId": "Q13417",
      "country_code": "ES",
      "state_code": "GI",
      "state_id": 5103,
      "country_id": 207
    },
    {
      "id": 32883,
      "name": "Beuda",
      "name_default": "Beuda",
      "native": "Beuda",
      "type": "adm3",
      "level": null,
      "parent_id": null,
      "population": 77,
      "latitude": "42.23722000",
      "longitude": "2.70942000",
      "timezone": "Europe/Madrid",
      "wikiDataId": "Q12593",
      "country_code": "ES",
      "state_code": "GI",
      "state_id": 5103,
      "country_id": 207
    },
    {
      "id": 151728,
      "name": "Biure",
      "name_default": "Biure",
      "native": "En la oficina",
      "type": "adm3",
      "level": null,
      "parent_id": null,
      "population": 223,
      "latitude": "42.34246150",
      "longitude": "2.90261720",
      "timezone": "Europe/Madrid",
      "wikiDataId": "Q11236",
      "country_code": "ES",
      "state_code": "GI",
      "state_id": 5103,
      "country_id": 207
    },
    {
      "id": 32909,
      "name": "Blanes",
      "name_default": "Blanes",
      "native": "Blanes",
      "type": "adm3",
      "level": null,
      "parent_id": null,
      "population": 42198,
      "latitude": "41.67419000",
      "longitude": "2.79036000",
      "timezone": "Europe/Madrid",
      "wikiDataId": "Q1627544",
      "country_code": "ES",
      "state_code": "GI",
      "state_id": 5103,
      "country_id": 207
    },
    {
      "id": 151641,
      "name": "Boadella i les Escaules",
      "name_default": "Boadella i les Escaules",
      "native": "Boadella y Les escaules",
      "type": "adm3",
      "level": null,
      "parent_id": null,
      "population": 260,
      "latitude": "42.33044230",
      "longitude": "2.85650870",
      "timezone": "Europe/Madrid",
      "wikiDataId": "Q11238",
      "country_code": "ES",
      "state_code": "GI",
      "state_id": 5103,
      "country_id": 207
    },
    {
      "id": 32942,
      "name": "Bolvir",
      "name_default": "Bolvir",
      "native": "Bulvir",
      "type": "adm3",
      "level": null,
      "parent_id": null,
      "population": 0,
      "latitude": "42.41775000",
      "longitude": "1.87986000",
      "timezone": "Europe/Madrid",
      "wikiDataId": "Q13733",
      "country_code": "ES",
      "state_code": "GI",
      "state_id": 5103,
      "country_id": 207
    },
    {
      "id": 32952,
      "name": "Bordils",
      "name_default": "Bordils",
      "native": "Borde",
      "type": "adm3",
      "level": null,
      "parent_id": null,
      "population": 1434,
      "latitude": "42.04336000",
      "longitude": "2.91088000",
      "timezone": "Europe/Madrid",
      "wikiDataId": "Q24019222",
      "country_code": "ES",
      "state_code": "GI",
      "state_id": 5103,
      "country_id": 207
    },
    {
      "id": 32960,
      "name": "Borrassà",
      "name_default": "Borrassà",
      "native": "Blog",
      "type": "adm3",
      "level": null,
      "parent_id": null,
      "population": 581,
      "latitude": "42.22316000",
      "longitude": "2.92610000",
      "timezone": "Europe/Madrid",
      "wikiDataId": "Q1628592",
      "country_code": "ES",
      "state_code": "GI",
      "state_id": 5103,
      "country_id": 207
    },
    {
      "id": 32976,
      "name": "Breda",
      "name_default": "Breda",
      "native": "Breda",
      "type": "adm3",
      "level": null,
      "parent_id": null,
      "population": 3930,
      "latitude": "41.74833000",
      "longitude": "2.55964000",
      "timezone": "Europe/Madrid",
      "wikiDataId": "Q13638",
      "country_code": "ES",
      "state_code": "GI",
      "state_id": 5103,
      "country_id": 207
    },
    {
      "id": 151640,
      "name": "Brunyola",
      "name_default": "Brunyola",
      "native": "Brunyola",
      "type": "adm3",
      "level": null,
      "parent_id": null,
      "population": 0,
      "latitude": "41.90452250",
      "longitude": "2.68419370",
      "timezone": "Europe/Madrid",
      "wikiDataId": "Q13056",
      "country_code": "ES",
      "state_code": "GI",
      "state_id": 5103,
      "country_id": 207
    },
    {
      "id": 33066,
      "name": "Cabanelles",
      "name_default": "Cabanelles",
      "native": "Cabanelles",
      "type": "adm3",
      "level": null,
      "parent_id": null,
      "population": 0,
      "latitude": "42.23068000",
      "longitude": "2.81997000",
      "timezone": "Europe/Madrid",
      "wikiDataId": "Q11247",
      "country_code": "ES",
      "state_code": "GI",
      "state_id": 5103,
      "country_id": 207
    },
    {
      "id": 33116,
      "name": "Cadaqués",
      "name_default": "Cadaqués",
      "native": "Relleno",
      "type": "adm3",
      "level": null,
      "parent_id": null,
      "population": 2918,
      "latitude": "42.28856000",
      "longitude": "3.27706000",
      "timezone": "Europe/Madrid",
      "wikiDataId": "Q1648736",
      "country_code": "ES",
      "state_code": "GI",
      "state_id": 5103,
      "country_id": 207
    },
    {
      "id": 151642,
      "name": "Caldes de Malavella",
      "name_default": "Caldes de Malavella",
      "native": "Caldes de Malavella",
      "type": "adm3",
      "level": null,
      "parent_id": null,
      "population": 8509,
      "latitude": "41.83601630",
      "longitude": "2.80844660",
      "timezone": "Europe/Madrid",
      "wikiDataId": "Q13064",
      "country_code": "ES",
      "state_code": "GI",
      "state_id": 5103,
      "country_id": 207
    },
    {
      "id": 33150,
      "name": "Calonge",
      "name_default": "Calonge",
      "native": "Calongo",
      "type": "adm3",
      "level": null,
      "parent_id": null,
      "population": 10637,
      "latitude": "41.85869000",
      "longitude": "3.07926000",
      "timezone": "Europe/Madrid",
      "wikiDataId": "Q63159178",
      "country_code": "ES",
      "state_code": "GI",
      "state_id": 5103,
      "country_id": 207
    },
    {
      "id": 33215,
      "name": "Camós",
      "name_default": "Camós",
      "native": "Camós",
      "type": "adm3",
      "level": null,
      "parent_id": null,
      "population": 711,
      "latitude": "42.08776000",
      "longitude": "2.76288000",
      "timezone": "Europe/Madrid",
      "wikiDataId": "Q5495",
      "country_code": "ES",
      "state_code": "GI",
      "state_id": 5103,
      "country_id": 207
    },
    {
      "id": 33185,
      "name": "Campdevànol",
      "name_default": "Campdevànol",
      "native": "Campdevanol",
      "type": "city",
      "level": null,
      "parent_id": null,
      "population": 3262,
      "latitude": "42.22445000",
      "longitude": "2.16860000",
      "timezone": "Europe/Madrid",
      "wikiDataId": "Q850989",
      "country_code": "ES",
      "state_code": "GI",
      "state_id": 5103,
      "country_id": 207
    },
    {
      "id": 151643,
      "name": "Campelles",
      "name_default": "Campelles",
      "native": "Gama",
      "type": "adm3",
      "level": null,
      "parent_id": null,
      "population": 165,
      "latitude": "42.29486230",
      "longitude": "2.14164840",
      "timezone": "Europe/Madrid",
      "wikiDataId": "Q12240",
      "country_code": "ES",
      "state_code": "GI",
      "state_id": 5103,
      "country_id": 207
    },
    {
      "id": 151644,
      "name": "Campllong",
      "name_default": "Campllong",
      "native": "Camiseta",
      "type": "city",
      "level": null,
      "parent_id": null,
      "population": 544,
      "latitude": "41.89370080",
      "longitude": "2.83192200",
      "timezone": "Europe/Madrid",
      "wikiDataId": "Q13421",
      "country_code": "ES",
      "state_code": "GI",
      "state_id": 5103,
      "country_id": 207
    },
    {
      "id": 33213,
      "name": "Camprodon",
      "name_default": "Camprodon",
      "native": "Campilón",
      "type": "adm3",
      "level": null,
      "parent_id": null,
      "population": 2527,
      "latitude": "42.31185000",
      "longitude": "2.36506000",
      "timezone": "Europe/Madrid",
      "wikiDataId": "Q1648520",
      "country_code": "ES",
      "state_code": "GI",
      "state_id": 5103,
      "country_id": 207
    },
    {
      "id": 151645,
      "name": "Canet d'Adri",
      "name_default": "Canet d'Adri",
      "native": "Canet dadri",
      "type": "adm3",
      "level": null,
      "parent_id": null,
      "population": 744,
      "latitude": "42.03277150",
      "longitude": "2.73749490",
      "timezone": "Europe/Madrid",
      "wikiDataId": "Q13422",
      "country_code": "ES",
      "state_code": "GI",
      "state_id": 5103,
      "country_id": 207
    },
    {
      "id": 33252,
      "name": "Cantallops",
      "name_default": "Cantallops",
      "native": "Cantoss",
      "type": "adm3",
      "level": null,
      "parent_id": null,
      "population": 269,
      "latitude": "42.42216000",
      "longitude": "2.92524000",
      "timezone": "Europe/Madrid",
      "wikiDataId": "Q1650171",
      "country_code": "ES",
      "state_code": "GI",
      "state_id": 5103,
      "country_id": 207
    },
    {
      "id": 33271,
      "name": "Capmany",
      "name_default": "Capmany",
      "native": "De capas",
      "type": "adm3",
      "level": null,
      "parent_id": null,
      "population": 487,
      "latitude": "42.37351000",
      "longitude": "2.92026000",
      "timezone": "Europe/Madrid",
      "wikiDataId": "Q7106",
      "country_code": "ES",
      "state_code": "GI",
      "state_id": 5103,
      "country_id": 207
    },
    {
      "id": 33395,
      "name": "Cassà de la Selva",
      "name_default": "Cassà de la Selva",
      "native": "Cassà de la Selva",
      "type": "adm3",
      "level": null,
      "parent_id": null,
      "population": 8504,
      "latitude": "41.88784000",
      "longitude": "2.87524000",
      "timezone": "Europe/Madrid",
      "wikiDataId": "Q939792",
      "country_code": "ES",
      "state_code": "GI",
      "state_id": 5103,
      "country_id": 207
    },
    {
      "id": 151649,
      "name": "Castell-Platja dAro",
      "name_default": "Castell-Platja d'Aro",
      "native": "Castell-Platja d'Aro",
      "type": "adm3",
      "level": null,
      "parent_id": null,
      "population": 10376,
      "latitude": "41.81796330",
      "longitude": "3.06687270",
      "timezone": "Europe/Madrid",
      "wikiDataId": "Q13467",
      "country_code": "ES",
      "state_code": "GI",
      "state_id": 5103,
      "country_id": 207
    },
    {
      "id": 151647,
      "name": "Castellfollit de la Roca",
      "name_default": "Castellfollit de la Roca",
      "native": "Castellfollit de la Roca",
      "type": "city",
      "level": null,
      "parent_id": null,
      "population": 957,
      "latitude": "42.21973100",
      "longitude": "2.54889180",
      "timezone": "Europe/Madrid",
      "wikiDataId": "Q12598",
      "country_code": "ES",
      "state_code": "GI",
      "state_id": 5103,
      "country_id": 207
    },
    {
      "id": 151648,
      "name": "Castelló dEmpúries",
      "name_default": "Castelló d'Empúries",
      "native": "Castelló d'Empúries",
      "type": "city",
      "level": null,
      "parent_id": null,
      "population": 12163,
      "latitude": "42.24411270",
      "longitude": "3.08767830",
      "timezone": "Europe/Madrid",
      "wikiDataId": "Q11286",
      "country_code": "ES",
      "state_code": "GI",
      "state_id": 5103,
      "country_id": 207
    },
    {
      "id": 33566,
      "name": "Celrà",
      "name_default": "Celrà",
      "native": "Skyland",
      "type": "adm3",
      "level": null,
      "parent_id": null,
      "population": 3372,
      "latitude": "42.03333000",
      "longitude": "2.88333000",
      "timezone": "Europe/Madrid",
      "wikiDataId": "Q13426",
      "country_code": "ES",
      "state_code": "GI",
      "state_id": 5103,
      "country_id": 207
    },
    {
      "id": 33605,
      "name": "Cervià de Ter",
      "name_default": "Cervià de Ter",
      "native": "Cervià de ter",
      "type": "adm3",
      "level": null,
      "parent_id": null,
      "population": 756,
      "latitude": "42.06650000",
      "longitude": "2.90743000",
      "timezone": "Europe/Madrid",
      "wikiDataId": "Q13428",
      "country_code": "ES",
      "state_code": "GI",
      "state_id": 5103,
      "country_id": 207
    },
    {
      "id": 33692,
      "name": "Cistella",
      "name_default": "Cistella",
      "native": "Cesta",
      "type": "adm3",
      "level": null,
      "parent_id": null,
      "population": 233,
      "latitude": "42.26870000",
      "longitude": "2.84780000",
      "timezone": "Europe/Madrid",
      "wikiDataId": "Q11291",
      "country_code": "ES",
      "state_code": "GI",
      "state_id": 5103,
      "country_id": 207
    },
    {
      "id": 33726,
      "name": "Colera",
      "name_default": "Colera",
      "native": "Cólera",
      "type": "adm3",
      "level": null,
      "parent_id": null,
      "population": 702,
      "latitude": "42.40394000",
      "longitude": "3.15153000",
      "timezone": "Europe/Madrid",
      "wikiDataId": "Q11296",
      "country_code": "ES",
      "state_code": "GI",
      "state_id": 5103,
      "country_id": 207
    },
    {
      "id": 151650,
      "name": "Koloromere",
      "name_default": "Colomers",
      "native": "Paloma",
      "type": "adm3",
      "level": null,
      "parent_id": null,
      "population": 0,
      "latitude": "42.08452060",
      "longitude": "2.98818160",
      "timezone": "Europe/Madrid",
      "wikiDataId": "Q13469",
      "country_code": "ES",
      "state_code": "GI",
      "state_id": 5103,
      "country_id": 207
    },
    {
      "id": 151651,
      "name": "Corçà",
      "name_default": "Corçà",
      "native": "Corçà",
      "type": "adm3",
      "level": null,
      "parent_id": null,
      "population": 1282,
      "latitude": "41.98725890",
      "longitude": "3.01443820",
      "timezone": "Europe/Madrid",
      "wikiDataId": "Q13468",
      "country_code": "ES",
      "state_code": "GI",
      "state_id": 5103,
      "country_id": 207
    },
    {
      "id": 33795,
      "name": "Cornellà del Terri",
      "name_default": "Cornellà del Terri",
      "native": "Cornellà del terri",
      "type": "adm3",
      "level": null,
      "parent_id": null,
      "population": 0,
      "latitude": "42.08333000",
      "longitude": "2.81667000",
      "timezone": "Europe/Madrid",
      "wikiDataId": "Q13613",
      "country_code": "ES",
      "state_code": "GI",
      "state_id": 5103,
      "country_id": 207
    },
    {
      "id": 33833,
      "name": "Crespià",
      "name_default": "Crespià",
      "native": "Crespiano",
      "type": "adm3",
      "level": null,
      "parent_id": null,
      "population": 250,
      "latitude": "42.18333000",
      "longitude": "2.80000000",
      "timezone": "Europe/Madrid",
      "wikiDataId": "Q24019203",
      "country_code": "ES",
      "state_code": "GI",
      "state_id": 5103,
      "country_id": 207
    },
    {
      "id": 151729,
      "name": "Cruïlles Monells und Sant Sadurní de l'Heura",
      "name_default": "Cruïlles Monells i Sant Sadurní de lHeura",
      "native": "Cruïlles Monells y Sant Sadurní de Lheura",
      "type": "city",
      "level": null,
      "parent_id": null,
      "population": null,
      "latitude": "41.95705590",
      "longitude": "2.99223480",
      "timezone": "Europe/Madrid",
      "wikiDataId": "Q13466",
      "country_code": "ES",
      "state_code": "GI",
      "state_id": 5103,
      "country_id": 207
    },
    {
      "id": 33912,
      "name": "Darnius",
      "name_default": "Darnius",
      "native": "Armonía",
      "type": "adm3",
      "level": null,
      "parent_id": null,
      "population": 548,
      "latitude": "42.36667000",
      "longitude": "2.83333000",
      "timezone": "Europe/Madrid",
      "wikiDataId": "Q1110389",
      "country_code": "ES",
      "state_code": "GI",
      "state_id": 5103,
      "country_id": 207
    },
    {
      "id": 151652,
      "name": "Das",
      "name_default": "Das",
      "native": "El",
      "type": "adm3",
      "level": null,
      "parent_id": null,
      "population": 270,
      "latitude": "42.35395480",
      "longitude": "1.87574220",
      "timezone": "Europe/Madrid",
      "wikiDataId": "Q297666",
      "country_code": "ES",
      "state_code": "GI",
      "state_id": 5103,
      "country_id": 207
    },
    {
      "id": 151632,
      "name": "El Far d'Empordà",
      "name_default": "El Far d'Empordà",
      "native": "El Lejos retrasó",
      "type": "adm3",
      "level": null,
      "parent_id": null,
      "population": 626,
      "latitude": "42.25208810",
      "longitude": "2.99568360",
      "timezone": "Europe/Madrid",
      "wikiDataId": null,
      "country_code": "ES",
      "state_code": "GI",
      "state_id": 5103,
      "country_id": 207
    },
    {
      "id": 151689,
      "name": "El Port de la Selva",
      "name_default": "El Port de la Selva",
      "native": "El Port de la Selva",
      "type": "city",
      "level": null,
      "parent_id": null,
      "population": 1061,
      "latitude": "42.31902480",
      "longitude": "3.22819830",
      "timezone": "Europe/Madrid",
      "wikiDataId": "Q11811",
      "country_code": "ES",
      "state_code": "GI",
      "state_id": 5103,
      "country_id": 207
    },
    {
      "id": 151653,
      "name": "Escala L",
      "name_default": "Escala L",
      "native": "Escala L",
      "type": "city",
      "level": null,
      "parent_id": null,
      "population": null,
      "latitude": "42.11985040",
      "longitude": "3.12277020",
      "timezone": "Europe/Madrid",
      "wikiDataId": null,
      "country_code": "ES",
      "state_code": "GI",
      "state_id": 5103,
      "country_id": 207
    },
    {
      "id": 151654,
      "name": "Espinelfen",
      "name_default": "Espinelves",
      "native": "Spin Start",
      "type": "adm3",
      "level": null,
      "parent_id": null,
      "population": 254,
      "latitude": "41.86978760",
      "longitude": "2.41747460",
      "timezone": "Europe/Madrid",
      "wikiDataId": "Q13780",
      "country_code": "ES",
      "state_code": "GI",
      "state_id": 5103,
      "country_id": 207
    },
    {
      "id": 34129,
      "name": "Espolla",
      "name_default": "Espolla",
      "native": "Entretener",
      "type": "adm3",
      "level": null,
      "parent_id": null,
      "population": 412,
      "latitude": "42.39120000",
      "longitude": "3.00064000",
      "timezone": "Europe/Madrid",
      "wikiDataId": "Q7079",
      "country_code": "ES",
      "state_code": "GI",
      "state_id": 5103,
      "country_id": 207
    },
    {
      "id": 34130,
      "name": "Esponellà",
      "name_default": "Esponellà",
      "native": "Espiga",
      "type": "adm3",
      "level": null,
      "parent_id": null,
      "population": 438,
      "latitude": "42.16667000",
      "longitude": "2.80000000",
      "timezone": "Europe/Madrid",
      "wikiDataId": "Q13611",
      "country_code": "ES",
      "state_code": "GI",
      "state_id": 5103,
      "country_id": 207
    },
    {
      "id": 34184,
      "name": "Figueres",
      "name_default": "Figueres",
      "native": "Higo",
      "type": "adm3",
      "level": null,
      "parent_id": null,
      "population": 48875,
      "latitude": "42.26645000",
      "longitude": "2.96163000",
      "timezone": "Europe/Madrid",
      "wikiDataId": "Q485329",
      "country_code": "ES",
      "state_code": "GI",
      "state_id": 5103,
      "country_id": 207
    },
    {
      "id": 151655,
      "name": "Flaçà",
      "name_default": "Flaçà",
      "native": "Solapa",
      "type": "adm3",
      "level": null,
      "parent_id": null,
      "population": 1145,
      "latitude": "42.04689830",
      "longitude": "2.95428440",
      "timezone": "Europe/Madrid",
      "wikiDataId": "Q13430",
      "country_code": "ES",
      "state_code": "GI",
      "state_id": 5103,
      "country_id": 207
    },
    {
      "id": 34199,
      "name": "Foixà",
      "name_default": "Foixà",
      "native": "Foix",
      "type": "adm3",
      "level": null,
      "parent_id": null,
      "population": 292,
      "latitude": "42.03626000",
      "longitude": "3.00021000",
      "timezone": "Europe/Madrid",
      "wikiDataId": "Q1768634",
      "country_code": "ES",
      "state_code": "GI",
      "state_id": 5103,
      "country_id": 207
    },
    {
      "id": 151656,
      "name": "Fontanals de Cerdanya",
      "name_default": "Fontanals de Cerdanya",
      "native": "Fontanales de Cerdanya",
      "type": "city",
      "level": null,
      "parent_id": null,
      "population": 531,
      "latitude": "42.38765500",
      "longitude": "1.91969490",
      "timezone": "Europe/Madrid",
      "wikiDataId": "Q13735",
      "country_code": "ES",
      "state_code": "GI",
      "state_id": 5103,
      "country_id": 207
    },
    {
      "id": 151657,
      "name": "Fontanilles",
      "name_default": "Fontanilles",
      "native": "Fuente",
      "type": "adm3",
      "level": null,
      "parent_id": null,
      "population": 168,
      "latitude": "41.98203050",
      "longitude": "2.82163670",
      "timezone": "Europe/Madrid",
      "wikiDataId": "Q13476",
      "country_code": "ES",
      "state_code": "GI",
      "state_id": 5103,
      "country_id": 207
    },
    {
      "id": 151658,
      "name": "Fontcoberta",
      "name_default": "Fontcoberta",
      "native": "Fontcoberta",
      "type": "adm3",
      "level": null,
      "parent_id": null,
      "population": 1503,
      "latitude": "42.14722530",
      "longitude": "2.77241170",
      "timezone": "Europe/Madrid",
      "wikiDataId": "Q13608",
      "country_code": "ES",
      "state_code": "GI",
      "state_id": 5103,
      "country_id": 207
    },
    {
      "id": 151730,
      "name": "Forallac",
      "name_default": "Forallac",
      "native": "Ronco",
      "type": "adm3",
      "level": null,
      "parent_id": null,
      "population": 1766,
      "latitude": "41.94767640",
      "longitude": "3.08767830",
      "timezone": "Europe/Madrid",
      "wikiDataId": "Q13475",
      "country_code": "ES",
      "state_code": "GI",
      "state_id": 5103,
      "country_id": 207
    },
    {
      "id": 34225,
      "name": "Fornells de la Selva",
      "name_default": "Fornells de la Selva",
      "native": "Selva fornells",
      "type": "adm3",
      "level": null,
      "parent_id": null,
      "population": 1823,
      "latitude": "41.93159000",
      "longitude": "2.80907000",
      "timezone": "Europe/Madrid",
      "wikiDataId": "Q24022116",
      "country_code": "ES",
      "state_code": "GI",
      "state_id": 5103,
      "country_id": 207
    },
    {
      "id": 34230,
      "name": "Fortià",
      "name_default": "Fortià",
      "native": "Cuarenta",
      "type": "adm3",
      "level": null,
      "parent_id": null,
      "population": 558,
      "latitude": "42.24320000",
      "longitude": "3.03881000",
      "timezone": "Europe/Madrid",
      "wikiDataId": "Q1768071",
      "country_code": "ES",
      "state_code": "GI",
      "state_id": 5103,
      "country_id": 207
    },
    {
      "id": 34425,
      "name": "Garrigàs",
      "name_default": "Garrigàs",
      "native": "Cerdito",
      "type": "adm3",
      "level": null,
      "parent_id": null,
      "population": 327,
      "latitude": "42.19343000",
      "longitude": "2.95438000",
      "timezone": "Europe/Madrid",
      "wikiDataId": "Q11324",
      "country_code": "ES",
      "state_code": "GI",
      "state_id": 5103,
      "country_id": 207
    },
    {
      "id": 151659,
      "name": "Garrigoles",
      "name_default": "Garrigoles",
      "native": "Cerdito",
      "type": "adm3",
      "level": null,
      "parent_id": null,
      "population": 185,
      "latitude": "42.10276900",
      "longitude": "3.02257540",
      "timezone": "Europe/Madrid",
      "wikiDataId": "Q13474",
      "country_code": "ES",
      "state_code": "GI",
      "state_id": 5103,
      "country_id": 207
    },
    {
      "id": 34424,
      "name": "Garriguella",
      "name_default": "Garriguella",
      "native": "Frasco",
      "type": "adm3",
      "level": null,
      "parent_id": null,
      "population": 727,
      "latitude": "42.34392000",
      "longitude": "3.06506000",
      "timezone": "Europe/Madrid",
      "wikiDataId": "Q11324",
      "country_code": "ES",
      "state_code": "GI",
      "state_id": 5103,
      "country_id": 207
    },
    {
      "id": 151660,
      "name": "Ger",
      "name_default": "Ger",
      "native": "Ger",
      "type": "adm3",
      "level": null,
      "parent_id": null,
      "population": 0,
      "latitude": "42.41159660",
      "longitude": "1.84585500",
      "timezone": "Europe/Madrid",
      "wikiDataId": "Q230446",
      "country_code": "ES",
      "state_code": "GI",
      "state_id": 5103,
      "country_id": 207
    },
    {
      "id": 34470,
      "name": "Girona",
      "name_default": "Girona",
      "native": "Girona",
      "type": "adm2",
      "level": null,
      "parent_id": null,
      "population": 107032,
      "latitude": "41.98311000",
      "longitude": "2.82493000",
      "timezone": "Europe/Madrid",
      "wikiDataId": "Q95010",
      "country_code": "ES",
      "state_code": "GI",
      "state_id": 5103,
      "country_id": 207
    },
    {
      "id": 151661,
      "name": "Gombrèn",
      "name_default": "Gombrèn",
      "native": "Gombren",
      "type": "city",
      "level": null,
      "parent_id": null,
      "population": 196,
      "latitude": "42.24776280",
      "longitude": "2.09073110",
      "timezone": "Europe/Madrid",
      "wikiDataId": "Q12251",
      "country_code": "ES",
      "state_code": "GI",
      "state_id": 5103,
      "country_id": 207
    },
    {
      "id": 34534,
      "name": "Gualta",
      "name_default": "Gualta",
      "native": "Chisme",
      "type": "adm3",
      "level": null,
      "parent_id": null,
      "population": 419,
      "latitude": "42.02953000",
      "longitude": "3.10312000",
      "timezone": "Europe/Madrid",
      "wikiDataId": "Q13472",
      "country_code": "ES",
      "state_code": "GI",
      "state_id": 5103,
      "country_id": 207
    },
    {
      "id": 151662,
      "name": "Guils de Cerdanya",
      "name_default": "Guils de Cerdanya",
      "native": "Guils de Cerdanya",
      "type": "adm3",
      "level": null,
      "parent_id": null,
      "population": 0,
      "latitude": "42.44913430",
      "longitude": "1.87879310",
      "timezone": "Europe/Madrid",
      "wikiDataId": "Q13748",
      "country_code": "ES",
      "state_code": "GI",
      "state_id": 5103,
      "country_id": 207
    },
    {
      "id": 34671,
      "name": "Hostalric",
      "name_default": "Hostalric",
      "native": "Albergue",
      "type": "adm3",
      "level": null,
      "parent_id": null,
      "population": 3442,
      "latitude": "41.75000000",
      "longitude": "2.63333000",
      "timezone": "Europe/Madrid",
      "wikiDataId": "Q24019200",
      "country_code": "ES",
      "state_code": "GI",
      "state_id": 5103,
      "country_id": 207
    },
    {
      "id": 151663,
      "name": "Isòvol",
      "name_default": "Isòvol",
      "native": "Isòvol",
      "type": "adm3",
      "level": null,
      "parent_id": null,
      "population": 0,
      "latitude": "42.37809600",
      "longitude": "1.81766390",
      "timezone": "Europe/Madrid",
      "wikiDataId": "Q13747",
      "country_code": "ES",
      "state_code": "GI",
      "state_id": 5103,
      "country_id": 207
    },
    {
      "id": 34790,
      "name": "Jafre",
      "name_default": "Jafre",
      "native": "Jafre",
      "type": "adm3",
      "level": null,
      "parent_id": null,
      "population": 387,
      "latitude": "42.07254000",
      "longitude": "3.01062000",
      "timezone": "Europe/Madrid",
      "wikiDataId": "Q13471",
      "country_code": "ES",
      "state_code": "GI",
      "state_id": 5103,
      "country_id": 207
    },
    {
      "id": 34827,
      "name": "Juià",
      "name_default": "Juià",
      "native": "Juio",
      "type": "adm3",
      "level": null,
      "parent_id": null,
      "population": 0,
      "latitude": "42.01667000",
      "longitude": "2.91667000",
      "timezone": "Europe/Madrid",
      "wikiDataId": "Q13432",
      "country_code": "ES",
      "state_code": "GI",
      "state_id": 5103,
      "country_id": 207
    },
    {
      "id": 151639,
      "name": "La Bisbal d'Empordà",
      "name_default": "La Bisbal d'Empordà",
      "native": "El Bisbal expone",
      "type": "adm3",
      "level": null,
      "parent_id": null,
      "population": 11683,
      "latitude": "41.95864830",
      "longitude": "3.03978870",
      "timezone": "Europe/Madrid",
      "wikiDataId": null,
      "country_code": "ES",
      "state_code": "GI",
      "state_id": 5103,
      "country_id": 207
    },
    {
      "id": 151712,
      "name": "La Cellera de Ter",
      "name_default": "La Cellera de Ter",
      "native": "La Cellera de Ter",
      "type": "adm3",
      "level": null,
      "parent_id": null,
      "population": 2014,
      "latitude": "41.96853850",
      "longitude": "2.62078800",
      "timezone": "Europe/Madrid",
      "wikiDataId": "Q13641",
      "country_code": "ES",
      "state_code": "GI",
      "state_id": 5103,
      "country_id": 207
    },
    {
      "id": 151664,
      "name": "La Jonquera",
      "name_default": "La Jonquera",
      "native": "Jonquera",
      "type": "adm3",
      "level": null,
      "parent_id": null,
      "population": 3408,
      "latitude": "42.44602070",
      "longitude": "2.88764360",
      "timezone": "Europe/Madrid",
      "wikiDataId": "Q7113",
      "country_code": "ES",
      "state_code": "GI",
      "state_id": 5103,
      "country_id": 207
    },
    {
      "id": 151684,
      "name": "La Pera",
      "name_default": "La Pera",
      "native": "La Pera",
      "type": "adm3",
      "level": null,
      "parent_id": null,
      "population": 450,
      "latitude": "42.01507420",
      "longitude": "2.97255630",
      "timezone": "Europe/Madrid",
      "wikiDataId": "Q13518",
      "country_code": "ES",
      "state_code": "GI",
      "state_id": 5103,
      "country_id": 207
    },
    {
      "id": 151711,
      "name": "La Selva de Mar",
      "name_default": "La Selva de Mar",
      "native": "La Selva de Mar",
      "type": "city",
      "level": null,
      "parent_id": null,
      "population": 220,
      "latitude": "42.32416920",
      "longitude": "3.18706670",
      "timezone": "Europe/Madrid",
      "wikiDataId": "Q11886",
      "country_code": "ES",
      "state_code": "GI",
      "state_id": 5103,
      "country_id": 207
    },
    {
      "id": 151715,
      "name": "La Tallada d'Empordà",
      "name_default": "La Tallada d'Empordà",
      "native": "El Corta",
      "type": "adm3",
      "level": null,
      "parent_id": null,
      "population": 0,
      "latitude": "42.07891790",
      "longitude": "3.05608770",
      "timezone": "Europe/Madrid",
      "wikiDataId": null,
      "country_code": "ES",
      "state_code": "GI",
      "state_id": 5103,
      "country_id": 207
    },
    {
      "id": 151637,
      "name": "La Vajol",
      "name_default": "La Vajol",
      "native": "El Vajol",
      "type": "adm3",
      "level": null,
      "parent_id": null,
      "population": 96,
      "latitude": "42.40368340",
      "longitude": "2.80008020",
      "timezone": "Europe/Madrid",
      "wikiDataId": "Q6657",
      "country_code": "ES",
      "state_code": "GI",
      "state_id": 5103,
      "country_id": 207
    },
    {
      "id": 151721,
      "name": "La Vall de Bianya",
      "name_default": "La Vall de Bianya",
      "native": "La Bianya Valley",
      "type": "city",
      "level": null,
      "parent_id": null,
      "population": 1350,
      "latitude": "42.21104920",
      "longitude": "2.45382600",
      "timezone": "Europe/Madrid",
      "wikiDataId": "Q12701",
      "country_code": "ES",
      "state_code": "GI",
      "state_id": 5103,
      "country_id": 207
    },
    {
      "id": 151720,
      "name": "La Vall den Bas",
      "name_default": "La Vall den Bas",
      "native": "La Vall den Bas",
      "type": "adm3",
      "level": null,
      "parent_id": null,
      "population": null,
      "latitude": "42.11164050",
      "longitude": "2.44063870",
      "timezone": "Europe/Madrid",
      "wikiDataId": "Q12710",
      "country_code": "ES",
      "state_code": "GI",
      "state_id": 5103,
      "country_id": 207
    },
    {
      "id": 151667,
      "name": "Les Llosses",
      "name_default": "Les Llosses",
      "native": "Se esclaviza",
      "type": "adm3",
      "level": null,
      "parent_id": null,
      "population": 0,
      "latitude": "42.15048340",
      "longitude": "2.11587580",
      "timezone": "Europe/Madrid",
      "wikiDataId": "Q12275",
      "country_code": "ES",
      "state_code": "GI",
      "state_id": 5103,
      "country_id": 207
    },
    {
      "id": 151686,
      "name": "Les Planes d'Hostoles",
      "name_default": "Les Planes d'Hostoles",
      "native": "Planos dhostoles",
      "type": "city",
      "level": null,
      "parent_id": null,
      "population": 1459,
      "latitude": "42.05638630",
      "longitude": "2.53836470",
      "timezone": "Europe/Madrid",
      "wikiDataId": "Q12625",
      "country_code": "ES",
      "state_code": "GI",
      "state_id": 5103,
      "country_id": 207
    },
    {
      "id": 151688,
      "name": "Les Presses",
      "name_default": "Les Preses",
      "native": "Disparos",
      "type": "city",
      "level": null,
      "parent_id": null,
      "population": 619,
      "latitude": "42.14639980",
      "longitude": "2.45973460",
      "timezone": "Europe/Madrid",
      "wikiDataId": "Q12629",
      "country_code": "ES",
      "state_code": "GI",
      "state_id": 5103,
      "country_id": 207
    },
    {
      "id": 35063,
      "name": "Lladó",
      "name_default": "Lladó",
      "native": "Tendir",
      "type": "adm3",
      "level": null,
      "parent_id": null,
      "population": 580,
      "latitude": "42.24769000",
      "longitude": "2.81373000",
      "timezone": "Europe/Madrid",
      "wikiDataId": "Q11334",
      "country_code": "ES",
      "state_code": "GI",
      "state_id": 5103,
      "country_id": 207
    },
    {
      "id": 35064,
      "name": "Llagostera",
      "name_default": "Llagostera",
      "native": "Langosta",
      "type": "adm3",
      "level": null,
      "parent_id": null,
      "population": 6713,
      "latitude": "41.82688000",
      "longitude": "2.89365000",
      "timezone": "Europe/Madrid",
      "wikiDataId": "Q11334",
      "country_code": "ES",
      "state_code": "GI",
      "state_id": 5103,
      "country_id": 207
    },
    {
      "id": 35066,
      "name": "Llambilles",
      "name_default": "Llambilles",
      "native": "Tornillo",
      "type": "adm3",
      "level": null,
      "parent_id": null,
      "population": 0,
      "latitude": "41.92106000",
      "longitude": "2.85078000",
      "timezone": "Europe/Madrid",
      "wikiDataId": "Q13438",
      "country_code": "ES",
      "state_code": "GI",
      "state_id": 5103,
      "country_id": 207
    },
    {
      "id": 151665,
      "name": "Llanars",
      "name_default": "Llanars",
      "native": "Barquero",
      "type": "adm3",
      "level": null,
      "parent_id": null,
      "population": 515,
      "latitude": "42.32052780",
      "longitude": "2.34398070",
      "timezone": "Europe/Madrid",
      "wikiDataId": "Q12267",
      "country_code": "ES",
      "state_code": "GI",
      "state_id": 5103,
      "country_id": 207
    },
    {
      "id": 35070,
      "name": "Llançà",
      "name_default": "Llançà",
      "native": "Jalar",
      "type": "city",
      "level": null,
      "parent_id": null,
      "population": 4943,
      "latitude": "42.36241000",
      "longitude": "3.15213000",
      "timezone": "Europe/Madrid",
      "wikiDataId": "Q640487",
      "country_code": "ES",
      "state_code": "GI",
      "state_id": 5103,
      "country_id": 207
    },
    {
      "id": 35077,
      "name": "Llers",
      "name_default": "Llers",
      "native": "Llers",
      "type": "adm3",
      "level": null,
      "parent_id": null,
      "population": 1248,
      "latitude": "42.29571000",
      "longitude": "2.91183000",
      "timezone": "Europe/Madrid",
      "wikiDataId": "Q686184",
      "country_code": "ES",
      "state_code": "GI",
      "state_id": 5103,
      "country_id": 207
    },
    {
      "id": 151666,
      "name": "Llívia",
      "name_default": "Llívia",
      "native": "Línea",
      "type": "adm3",
      "level": null,
      "parent_id": null,
      "population": 0,
      "latitude": "42.46338990",
      "longitude": "1.98020130",
      "timezone": "Europe/Madrid",
      "wikiDataId": "Q13745",
      "country_code": "ES",
      "state_code": "GI",
      "state_id": 5103,
      "country_id": 207
    },
    {
      "id": 35084,
      "name": "Lloret de Mar",
      "name_default": "Lloret de Mar",
      "native": "Lloret de Mar",
      "type": "adm3",
      "level": null,
      "parent_id": null,
      "population": 42600,
      "latitude": "41.69993000",
      "longitude": "2.84565000",
      "timezone": "Europe/Madrid",
      "wikiDataId": "Q15423",
      "country_code": "ES",
      "state_code": "GI",
      "state_id": 5103,
      "country_id": 207
    },
    {
      "id": 151671,
      "name": "Maçanet de Cabrenys",
      "name_default": "Maçanet de Cabrenys",
      "native": "Maçanet de Cabrenys",
      "type": "adm3",
      "level": null,
      "parent_id": null,
      "population": 772,
      "latitude": "42.38138390",
      "longitude": "2.71827280",
      "timezone": "Europe/Madrid",
      "wikiDataId": "Q6615",
      "country_code": "ES",
      "state_code": "GI",
      "state_id": 5103,
      "country_id": 207
    },
    {
      "id": 151672,
      "name": "Maçanet de la Selva",
      "name_default": "Maçanet de la Selva",
      "native": "Maçanet de la Selva",
      "type": "adm3",
      "level": null,
      "parent_id": null,
      "population": 0,
      "latitude": "41.77683240",
      "longitude": "2.73249960",
      "timezone": "Europe/Madrid",
      "wikiDataId": "Q13634",
      "country_code": "ES",
      "state_code": "GI",
      "state_id": 5103,
      "country_id": 207
    },
    {
      "id": 35185,
      "name": "Madremanya",
      "name_default": "Madremanya",
      "native": "Madremanya",
      "type": "adm3",
      "level": null,
      "parent_id": null,
      "population": 0,
      "latitude": "41.98333000",
      "longitude": "2.96667000",
      "timezone": "Europe/Madrid",
      "wikiDataId": "Q13441",
      "country_code": "ES",
      "state_code": "GI",
      "state_id": 5103,
      "country_id": 207
    },
    {
      "id": 151668,
      "name": "Maià de Montcal",
      "name_default": "Maià de Montcal",
      "native": "Maià de Montcal",
      "type": "adm3",
      "level": null,
      "parent_id": null,
      "population": 491,
      "latitude": "42.22134890",
      "longitude": "2.74465540",
      "timezone": "Europe/Madrid",
      "wikiDataId": "Q12601",
      "country_code": "ES",
      "state_code": "GI",
      "state_id": 5103,
      "country_id": 207
    },
    {
      "id": 151670,
      "name": "Masarac",
      "name_default": "Masarac",
      "native": "Cortijo",
      "type": "adm3",
      "level": null,
      "parent_id": null,
      "population": 0,
      "latitude": "42.35080950",
      "longitude": "2.97286870",
      "timezone": "Europe/Madrid",
      "wikiDataId": "Q11347",
      "country_code": "ES",
      "state_code": "GI",
      "state_id": 5103,
      "country_id": 207
    },
    {
      "id": 35327,
      "name": "Massanes",
      "name_default": "Massanes",
      "native": "Masas",
      "type": "adm3",
      "level": null,
      "parent_id": null,
      "population": 0,
      "latitude": "41.76536000",
      "longitude": "2.65324000",
      "timezone": "Europe/Madrid",
      "wikiDataId": "Q13637",
      "country_code": "ES",
      "state_code": "GI",
      "state_id": 5103,
      "country_id": 207
    },
    {
      "id": 151669,
      "name": "Meranges",
      "name_default": "Meranges",
      "native": "Meranges",
      "type": "adm3",
      "level": null,
      "parent_id": null,
      "population": 0,
      "latitude": "42.44599250",
      "longitude": "1.78705510",
      "timezone": "Europe/Madrid",
      "wikiDataId": "Q13754",
      "country_code": "ES",
      "state_code": "GI",
      "state_id": 5103,
      "country_id": 207
    },
    {
      "id": 151673,
      "name": "Mieres",
      "name_default": "Mieres",
      "native": "Mieres",
      "type": "adm3",
      "level": null,
      "parent_id": null,
      "population": 0,
      "latitude": "42.12407110",
      "longitude": "2.63995840",
      "timezone": "Europe/Madrid",
      "wikiDataId": "Q818376",
      "country_code": "ES",
      "state_code": "GI",
      "state_id": 5103,
      "country_id": 207
    },
    {
      "id": 35487,
      "name": "Mollet de Peralada",
      "name_default": "Mollet de Peralada",
      "native": "Mollet de peralada",
      "type": "adm3",
      "level": null,
      "parent_id": null,
      "population": 215,
      "latitude": "42.35959000",
      "longitude": "3.00034000",
      "timezone": "Europe/Madrid",
      "wikiDataId": "Q11355",
      "country_code": "ES",
      "state_code": "GI",
      "state_id": 5103,
      "country_id": 207
    },
    {
      "id": 151674,
      "name": "Molló",
      "name_default": "Molló",
      "native": "Muelle",
      "type": "adm3",
      "level": null,
      "parent_id": null,
      "population": 1182,
      "latitude": "42.34673020",
      "longitude": "2.40498530",
      "timezone": "Europe/Madrid",
      "wikiDataId": "Q12281",
      "country_code": "ES",
      "state_code": "GI",
      "state_id": 5103,
      "country_id": 207
    },
    {
      "id": 151676,
      "name": "Mont-ras",
      "name_default": "Mont-ras",
      "native": "Mont-Ras",
      "type": "adm3",
      "level": null,
      "parent_id": null,
      "population": 1690,
      "latitude": "41.90812330",
      "longitude": "3.15172090",
      "timezone": "Europe/Madrid",
      "wikiDataId": "Q13489",
      "country_code": "ES",
      "state_code": "GI",
      "state_id": 5103,
      "country_id": 207
    },
    {
      "id": 151675,
      "name": "Montagut i Oix",
      "name_default": "Montagut i Oix",
      "native": "Montagut i oix",
      "type": "city",
      "level": null,
      "parent_id": null,
      "population": 1000,
      "latitude": "42.27180710",
      "longitude": "2.52853150",
      "timezone": "Europe/Madrid",
      "wikiDataId": "Q12609",
      "country_code": "ES",
      "state_code": "GI",
      "state_id": 5103,
      "country_id": 207
    },
    {
      "id": 35786,
      "name": "Navata",
      "name_default": "Navata",
      "native": "Nave",
      "type": "adm3",
      "level": null,
      "parent_id": null,
      "population": 857,
      "latitude": "42.22353000",
      "longitude": "2.86110000",
      "timezone": "Europe/Madrid",
      "wikiDataId": "Q1646357",
      "country_code": "ES",
      "state_code": "GI",
      "state_id": 5103,
      "country_id": 207
    },
    {
      "id": 151677,
      "name": "Ogassa",
      "name_default": "Ogassa",
      "native": "OGASSA",
      "type": "city",
      "level": null,
      "parent_id": null,
      "population": 218,
      "latitude": "42.26598460",
      "longitude": "2.27779770",
      "timezone": "Europe/Madrid",
      "wikiDataId": "Q12285",
      "country_code": "ES",
      "state_code": "GI",
      "state_id": 5103,
      "country_id": 207
    },
    {
      "id": 35912,
      "name": "Olot",
      "name_default": "Olot",
      "native": "Olot",
      "type": "adm3",
      "level": null,
      "parent_id": null,
      "population": 38822,
      "latitude": "42.18096000",
      "longitude": "2.49012000",
      "timezone": "Europe/Madrid",
      "wikiDataId": "Q13798",
      "country_code": "ES",
      "state_code": "GI",
      "state_id": 5103,
      "country_id": 207
    },
    {
      "id": 35940,
      "name": "Ordis",
      "name_default": "Ordis",
      "native": "Común",
      "type": "adm3",
      "level": null,
      "parent_id": null,
      "population": 400,
      "latitude": "42.21830000",
      "longitude": "2.90705000",
      "timezone": "Europe/Madrid",
      "wikiDataId": "Q23982261",
      "country_code": "ES",
      "state_code": "GI",
      "state_id": 5103,
      "country_id": 207
    },
    {
      "id": 151678,
      "name": "Osor",
      "name_default": "Osor",
      "native": "Osor",
      "type": "adm3",
      "level": null,
      "parent_id": null,
      "population": 418,
      "latitude": "41.94551630",
      "longitude": "2.55663390",
      "timezone": "Europe/Madrid",
      "wikiDataId": "Q362856",
      "country_code": "ES",
      "state_code": "GI",
      "state_id": 5103,
      "country_id": 207
    },
    {
      "id": 36014,
      "name": "Palafrugell",
      "name_default": "Palafrugell",
      "native": "Palafrugell",
      "type": "adm3",
      "level": null,
      "parent_id": null,
      "population": 24300,
      "latitude": "41.91738000",
      "longitude": "3.16310000",
      "timezone": "Europe/Madrid",
      "wikiDataId": "Q23994223",
      "country_code": "ES",
      "state_code": "GI",
      "state_id": 5103,
      "country_id": 207
    },
    {
      "id": 36015,
      "name": "Palamós",
      "name_default": "Palamós",
      "native": "Palamo",
      "type": "adm3",
      "level": null,
      "parent_id": null,
      "population": 18651,
      "latitude": "41.84843000",
      "longitude": "3.12912000",
      "timezone": "Europe/Madrid",
      "wikiDataId": "Q23994223",
      "country_code": "ES",
      "state_code": "GI",
      "state_id": 5103,
      "country_id": 207
    },
    {
      "id": 151679,
      "name": "Palau de Santa Eulàlia",
      "name_default": "Palau de Santa Eulàlia",
      "native": "Palacio de San Eulalia",
      "type": "adm3",
      "level": null,
      "parent_id": null,
      "population": 136,
      "latitude": "42.17742940",
      "longitude": "2.96958800",
      "timezone": "Europe/Madrid",
      "wikiDataId": "Q11797",
      "country_code": "ES",
      "state_code": "GI",
      "state_id": 5103,
      "country_id": 207
    },
    {
      "id": 36017,
      "name": "Palau-sator",
      "name_default": "Palau-sator",
      "native": "Palau-sator",
      "type": "adm3",
      "level": null,
      "parent_id": null,
      "population": 300,
      "latitude": "41.98897000",
      "longitude": "3.11016000",
      "timezone": "Europe/Madrid",
      "wikiDataId": "Q843223",
      "country_code": "ES",
      "state_code": "GI",
      "state_id": 5103,
      "country_id": 207
    },
    {
      "id": 151680,
      "name": "Palau-saverdera",
      "name_default": "Palau-saverdera",
      "native": "Palau-saverdera",
      "type": "city",
      "level": null,
      "parent_id": null,
      "population": 1503,
      "latitude": "42.30747700",
      "longitude": "3.14736890",
      "timezone": "Europe/Madrid",
      "wikiDataId": "Q11798",
      "country_code": "ES",
      "state_code": "GI",
      "state_id": 5103,
      "country_id": 207
    },
    {
      "id": 36034,
      "name": "Palol de Revardit",
      "name_default": "Palol de Revardit",
      "native": "Palol de Revardit",
      "type": "adm3",
      "level": null,
      "parent_id": null,
      "population": 0,
      "latitude": "42.06667000",
      "longitude": "2.80000000",
      "timezone": "Europe/Madrid",
      "wikiDataId": "Q13609",
      "country_code": "ES",
      "state_code": "GI",
      "state_id": 5103,
      "country_id": 207
    },
    {
      "id": 36042,
      "name": "Freunde",
      "name_default": "Pals",
      "native": "Amigos",
      "type": "adm3",
      "level": null,
      "parent_id": null,
      "population": 2556,
      "latitude": "41.97102000",
      "longitude": "3.14814000",
      "timezone": "Europe/Madrid",
      "wikiDataId": "Q622030",
      "country_code": "ES",
      "state_code": "GI",
      "state_id": 5103,
      "country_id": 207
    },
    {
      "id": 151681,
      "name": "Pardines",
      "name_default": "Pardines",
      "native": "Chispa",
      "type": "adm3",
      "level": null,
      "parent_id": null,
      "population": 161,
      "latitude": "42.30327150",
      "longitude": "2.23350660",
      "timezone": "Europe/Madrid",
      "wikiDataId": "Q403619",
      "country_code": "ES",
      "state_code": "GI",
      "state_id": 5103,
      "country_id": 207
    },
    {
      "id": 151682,
      "name": "Parlavà",
      "name_default": "Parlavà",
      "native": "Él habló",
      "type": "adm3",
      "level": null,
      "parent_id": null,
      "population": 427,
      "latitude": "42.02073240",
      "longitude": "3.04009450",
      "timezone": "Europe/Madrid",
      "wikiDataId": "Q13516",
      "country_code": "ES",
      "state_code": "GI",
      "state_id": 5103,
      "country_id": 207
    },
    {
      "id": 36083,
      "name": "Pau",
      "name_default": "Pau",
      "native": "Pau",
      "type": "adm3",
      "level": null,
      "parent_id": null,
      "population": 446,
      "latitude": "42.31607000",
      "longitude": "3.11621000",
      "timezone": "Europe/Madrid",
      "wikiDataId": "Q11799",
      "country_code": "ES",
      "state_code": "GI",
      "state_id": 5103,
      "country_id": 207
    },
    {
      "id": 151683,
      "name": "Pedret i Marzà",
      "name_default": "Pedret i Marzà",
      "native": "Pedret y Marzà",
      "type": "adm3",
      "level": null,
      "parent_id": null,
      "population": 188,
      "latitude": "42.31033130",
      "longitude": "3.06810530",
      "timezone": "Europe/Madrid",
      "wikiDataId": "Q11802",
      "country_code": "ES",
      "state_code": "GI",
      "state_id": 5103,
      "country_id": 207
    },
    {
      "id": 151685,
      "name": "Peralada",
      "name_default": "Peralada",
      "native": "Peralla",
      "type": "adm3",
      "level": null,
      "parent_id": null,
      "population": 0,
      "latitude": "42.30835230",
      "longitude": "3.00944040",
      "timezone": "Europe/Madrid",
      "wikiDataId": "Q11803",
      "country_code": "ES",
      "state_code": "GI",
      "state_id": 5103,
      "country_id": 207
    },
    {
      "id": 36235,
      "name": "Planoles",
      "name_default": "Planoles",
      "native": "Plano",
      "type": "adm3",
      "level": null,
      "parent_id": null,
      "population": 0,
      "latitude": "42.31667000",
      "longitude": "2.10000000",
      "timezone": "Europe/Madrid",
      "wikiDataId": "Q12318",
      "country_code": "ES",
      "state_code": "GI",
      "state_id": 5103,
      "country_id": 207
    },
    {
      "id": 36271,
      "name": "Pont de Molins",
      "name_default": "Pont de Molins",
      "native": "Puente Molins",
      "type": "adm3",
      "level": null,
      "parent_id": null,
      "population": 443,
      "latitude": "42.31440000",
      "longitude": "2.92996000",
      "timezone": "Europe/Madrid",
      "wikiDataId": "Q12164",
      "country_code": "ES",
      "state_code": "GI",
      "state_id": 5103,
      "country_id": 207
    },
    {
      "id": 36276,
      "name": "Pontós",
      "name_default": "Pontós",
      "native": "Abrazadera",
      "type": "adm3",
      "level": null,
      "parent_id": null,
      "population": 209,
      "latitude": "42.18665000",
      "longitude": "2.91706000",
      "timezone": "Europe/Madrid",
      "wikiDataId": "Q11807",
      "country_code": "ES",
      "state_code": "GI",
      "state_id": 5103,
      "country_id": 207
    },
    {
      "id": 151687,
      "name": "Porqueres",
      "name_default": "Porqueres",
      "native": "Porche",
      "type": "adm3",
      "level": null,
      "parent_id": null,
      "population": 4804,
      "latitude": "42.12019530",
      "longitude": "2.74628700",
      "timezone": "Europe/Madrid",
      "wikiDataId": "Q13607",
      "country_code": "ES",
      "state_code": "GI",
      "state_id": 5103,
      "country_id": 207
    },
    {
      "id": 36287,
      "name": "Portbou",
      "name_default": "Portbou",
      "native": "Portbou",
      "type": "city",
      "level": null,
      "parent_id": null,
      "population": 1082,
      "latitude": "42.42650000",
      "longitude": "3.15805000",
      "timezone": "Europe/Madrid",
      "wikiDataId": "Q1631280",
      "country_code": "ES",
      "state_code": "GI",
      "state_id": 5103,
      "country_id": 207
    },
    {
      "id": 36462,
      "name": "Puigcerdà",
      "name_default": "Puigcerdà",
      "native": "Puigcerdà",
      "type": "adm3",
      "level": null,
      "parent_id": null,
      "population": 10008,
      "latitude": "42.43160000",
      "longitude": "1.92819000",
      "timezone": "Europe/Madrid",
      "wikiDataId": "Q23993466",
      "country_code": "ES",
      "state_code": "GI",
      "state_id": 5103,
      "country_id": 207
    },
    {
      "id": 151690,
      "name": "Quart",
      "name_default": "Quart",
      "native": "Cuarto de galón",
      "type": "city",
      "level": null,
      "parent_id": null,
      "population": 4099,
      "latitude": "41.93780310",
      "longitude": "2.84106750",
      "timezone": "Europe/Madrid",
      "wikiDataId": "Q1058120",
      "country_code": "ES",
      "state_code": "GI",
      "state_id": 5103,
      "country_id": 207
    },
    {
      "id": 151646,
      "name": "Queralbs",
      "name_default": "Queralbs",
      "native": "Queralbs",
      "type": "adm3",
      "level": null,
      "parent_id": null,
      "population": 206,
      "latitude": "42.34953030",
      "longitude": "2.16282990",
      "timezone": "Europe/Madrid",
      "wikiDataId": "Q12327",
      "country_code": "ES",
      "state_code": "GI",
      "state_id": 5103,
      "country_id": 207
    },
    {
      "id": 36537,
      "name": "Rabós",
      "name_default": "Rabós",
      "native": "Conejo",
      "type": "adm3",
      "level": null,
      "parent_id": null,
      "population": 176,
      "latitude": "42.37890000",
      "longitude": "3.02828000",
      "timezone": "Europe/Madrid",
      "wikiDataId": "Q7126",
      "country_code": "ES",
      "state_code": "GI",
      "state_id": 5103,
      "country_id": 207
    },
    {
      "id": 36564,
      "name": "Regencós",
      "name_default": "Regencós",
      "native": "Reinado",
      "type": "adm3",
      "level": null,
      "parent_id": null,
      "population": 279,
      "latitude": "41.95271000",
      "longitude": "3.17006000",
      "timezone": "Europe/Madrid",
      "wikiDataId": "Q13519",
      "country_code": "ES",
      "state_code": "GI",
      "state_id": 5103,
      "country_id": 207
    },
    {
      "id": 36617,
      "name": "Ribes de Freser",
      "name_default": "Ribes de Freser",
      "native": "Ribes de Freser",
      "type": "adm3",
      "level": null,
      "parent_id": null,
      "population": 1847,
      "latitude": "42.30417000",
      "longitude": "2.16757000",
      "timezone": "Europe/Madrid",
      "wikiDataId": "Q1906843",
      "country_code": "ES",
      "state_code": "GI",
      "state_id": 5103,
      "country_id": 207
    },
    {
      "id": 151691,
      "name": "Riells i Viabrea",
      "name_default": "Riells i Viabrea",
      "native": "Riells y viaBrea",
      "type": "city",
      "level": null,
      "parent_id": null,
      "population": 4499,
      "latitude": "41.72936760",
      "longitude": "2.54400260",
      "timezone": "Europe/Madrid",
      "wikiDataId": "Q13073",
      "country_code": "ES",
      "state_code": "GI",
      "state_id": 5103,
      "country_id": 207
    },
    {
      "id": 36632,
      "name": "Ripoll",
      "name_default": "Ripoll",
      "native": "Desgarrar",
      "type": "city",
      "level": null,
      "parent_id": null,
      "population": 10692,
      "latitude": "42.20064000",
      "longitude": "2.19033000",
      "timezone": "Europe/Madrid",
      "wikiDataId": "Q951042",
      "country_code": "ES",
      "state_code": "GI",
      "state_id": 5103,
      "country_id": 207
    },
    {
      "id": 151692,
      "name": "Riudarenes",
      "name_default": "Riudarenes",
      "native": "Risa",
      "type": "adm3",
      "level": null,
      "parent_id": null,
      "population": 2445,
      "latitude": "41.82664320",
      "longitude": "2.71386990",
      "timezone": "Europe/Madrid",
      "wikiDataId": "Q13078",
      "country_code": "ES",
      "state_code": "GI",
      "state_id": 5103,
      "country_id": 207
    },
    {
      "id": 151693,
      "name": "Riudaura",
      "name_default": "Riudaura",
      "native": "Riudaura",
      "type": "adm3",
      "level": null,
      "parent_id": null,
      "population": 529,
      "latitude": "42.18885370",
      "longitude": "2.40856240",
      "timezone": "Europe/Madrid",
      "wikiDataId": "Q12634",
      "country_code": "ES",
      "state_code": "GI",
      "state_id": 5103,
      "country_id": 207
    },
    {
      "id": 36636,
      "name": "Riudellots de la Selva",
      "name_default": "Riudellots de la Selva",
      "native": "Riudellots de la Selva",
      "type": "adm3",
      "level": null,
      "parent_id": null,
      "population": 2142,
      "latitude": "41.89327000",
      "longitude": "2.80452000",
      "timezone": "Europe/Madrid",
      "wikiDataId": "Q13635",
      "country_code": "ES",
      "state_code": "GI",
      "state_id": 5103,
      "country_id": 207
    },
    {
      "id": 36638,
      "name": "Riumors",
      "name_default": "Riumors",
      "native": "Riumnt",
      "type": "adm3",
      "level": null,
      "parent_id": null,
      "population": 154,
      "latitude": "42.22726000",
      "longitude": "3.04190000",
      "timezone": "Europe/Madrid",
      "wikiDataId": "Q11818",
      "country_code": "ES",
      "state_code": "GI",
      "state_id": 5103,
      "country_id": 207
    },
    {
      "id": 36679,
      "name": "Rosen",
      "name_default": "Roses",
      "native": "Rosas",
      "type": "adm3",
      "level": null,
      "parent_id": null,
      "population": 20362,
      "latitude": "42.26199000",
      "longitude": "3.17689000",
      "timezone": "Europe/Madrid",
      "wikiDataId": "Q37416935",
      "country_code": "ES",
      "state_code": "GI",
      "state_id": 5103,
      "country_id": 207
    },
    {
      "id": 36704,
      "name": "Rupià",
      "name_default": "Rupià",
      "native": "Desafilado",
      "type": "adm3",
      "level": null,
      "parent_id": null,
      "population": 250,
      "latitude": "42.01667000",
      "longitude": "3.01667000",
      "timezone": "Europe/Madrid",
      "wikiDataId": "Q13520",
      "country_code": "ES",
      "state_code": "GI",
      "state_id": 5103,
      "country_id": 207
    },
    {
      "id": 36760,
      "name": "Sales de Llierca",
      "name_default": "Sales de Llierca",
      "native": "Llierca habitaciones",
      "type": "adm3",
      "level": null,
      "parent_id": null,
      "population": 92,
      "latitude": "42.23333000",
      "longitude": "2.65000000",
      "timezone": "Europe/Madrid",
      "wikiDataId": "Q12643",
      "country_code": "ES",
      "state_code": "GI",
      "state_id": 5103,
      "country_id": 207
    },
    {
      "id": 36778,
      "name": "Salz",
      "name_default": "Salt",
      "native": "Sal",
      "type": "adm3",
      "level": null,
      "parent_id": null,
      "population": 33904,
      "latitude": "41.97489000",
      "longitude": "2.79281000",
      "timezone": "Europe/Madrid",
      "wikiDataId": "Q662789",
      "country_code": "ES",
      "state_code": "GI",
      "state_id": 5103,
      "country_id": 207
    },
    {
      "id": 36953,
      "name": "Sant Andreu Salou",
      "name_default": "Sant Andreu Salou",
      "native": "Sant Andreu Salou",
      "type": "adm3",
      "level": null,
      "parent_id": null,
      "population": 0,
      "latitude": "41.86667000",
      "longitude": "2.83333000",
      "timezone": "Europe/Madrid",
      "wikiDataId": "Q13449",
      "country_code": "ES",
      "state_code": "GI",
      "state_id": 5103,
      "country_id": 207
    },
    {
      "id": 151709,
      "name": "Sant Aniol de Finestres",
      "name_default": "Sant Aniol de Finestres",
      "native": "Sant Aniol de Finestra",
      "type": "adm3",
      "level": null,
      "parent_id": null,
      "population": 372,
      "latitude": "42.08919800",
      "longitude": "2.59086900",
      "timezone": "Europe/Madrid",
      "wikiDataId": "Q12653",
      "country_code": "ES",
      "state_code": "GI",
      "state_id": 5103,
      "country_id": 207
    },
    {
      "id": 151694,
      "name": "Sant Climent Sescebes",
      "name_default": "Sant Climent Sescebes",
      "native": "Sant climent sescebes",
      "type": "city",
      "level": null,
      "parent_id": null,
      "population": 675,
      "latitude": "42.36876550",
      "longitude": "2.98119410",
      "timezone": "Europe/Madrid",
      "wikiDataId": "Q10927",
      "country_code": "ES",
      "state_code": "GI",
      "state_id": 5103,
      "country_id": 207
    },
    {
      "id": 151695,
      "name": "Sant Feliu de Buixalleu",
      "name_default": "Sant Feliu de Buixalleu",
      "native": "Sant Feliu de Buixalleu",
      "type": "adm3",
      "level": null,
      "parent_id": null,
      "population": 878,
      "latitude": "41.79101370",
      "longitude": "2.58575570",
      "timezone": "Europe/Madrid",
      "wikiDataId": "Q13633",
      "country_code": "ES",
      "state_code": "GI",
      "state_id": 5103,
      "country_id": 207
    },
    {
      "id": 36964,
      "name": "Sant Feliu de Guíxols",
      "name_default": "Sant Feliu de Guíxols",
      "native": "Sant Feliu de Guíxols",
      "type": "adm3",
      "level": null,
      "parent_id": null,
      "population": 23050,
      "latitude": "41.78333000",
      "longitude": "3.03333000",
      "timezone": "Europe/Madrid",
      "wikiDataId": "Q23992324",
      "country_code": "ES",
      "state_code": "GI",
      "state_id": 5103,
      "country_id": 207
    },
    {
      "id": 151696,
      "name": "Sant Feliu de Pallerols",
      "name_default": "Sant Feliu de Pallerols",
      "native": "Sant Feliu de Pallerols",
      "type": "adm3",
      "level": null,
      "parent_id": null,
      "population": 0,
      "latitude": "42.07681700",
      "longitude": "2.50865390",
      "timezone": "Europe/Madrid",
      "wikiDataId": "Q12656",
      "country_code": "ES",
      "state_code": "GI",
      "state_id": 5103,
      "country_id": 207
    },
    {
      "id": 36966,
      "name": "Sant Ferriol",
      "name_default": "Sant Ferriol",
      "native": "Sant Ferriol",
      "type": "adm3",
      "level": null,
      "parent_id": null,
      "population": 61,
      "latitude": "42.20000000",
      "longitude": "2.66667000",
      "timezone": "Europe/Madrid",
      "wikiDataId": "Q23992324",
      "country_code": "ES",
      "state_code": "GI",
      "state_id": 5103,
      "country_id": 207
    },
    {
      "id": 151697,
      "name": "Sant Gregori",
      "name_default": "Sant Gregori",
      "native": "Sant Gregori",
      "type": "adm3",
      "level": null,
      "parent_id": null,
      "population": 3463,
      "latitude": "41.98940100",
      "longitude": "2.76076570",
      "timezone": "Europe/Madrid",
      "wikiDataId": "Q13448",
      "country_code": "ES",
      "state_code": "GI",
      "state_id": 5103,
      "country_id": 207
    },
    {
      "id": 36970,
      "name": "Sant Hilari Sacalm",
      "name_default": "Sant Hilari Sacalm",
      "native": "Sant Hilari Sacalm",
      "type": "adm3",
      "level": null,
      "parent_id": null,
      "population": 0,
      "latitude": "41.88333000",
      "longitude": "2.51667000",
      "timezone": "Europe/Madrid",
      "wikiDataId": "Q13639",
      "country_code": "ES",
      "state_code": "GI",
      "state_id": 5103,
      "country_id": 207
    },
    {
      "id": 151698,
      "name": "Sant Jaume de Llierca",
      "name_default": "Sant Jaume de Llierca",
      "native": "Sant Jaume de Llierca",
      "type": "city",
      "level": null,
      "parent_id": null,
      "population": 849,
      "latitude": "42.21105750",
      "longitude": "2.60590380",
      "timezone": "Europe/Madrid",
      "wikiDataId": "Q12685",
      "country_code": "ES",
      "state_code": "GI",
      "state_id": 5103,
      "country_id": 207
    },
    {
      "id": 36976,
      "name": "Sant Joan de les Abadesses",
      "name_default": "Sant Joan de les Abadesses",
      "native": "Sant Joan de Les Abadesses",
      "type": "city",
      "level": null,
      "parent_id": null,
      "population": 3375,
      "latitude": "42.23332000",
      "longitude": "2.28524000",
      "timezone": "Europe/Madrid",
      "wikiDataId": "Q23992362",
      "country_code": "ES",
      "state_code": "GI",
      "state_id": 5103,
      "country_id": 207
    },
    {
      "id": 151699,
      "name": "Sant Joan de Mollet",
      "name_default": "Sant Joan de Mollet",
      "native": "Sant Joan de Mollet",
      "type": "adm3",
      "level": null,
      "parent_id": null,
      "population": 526,
      "latitude": "42.04616130",
      "longitude": "2.94194530",
      "timezone": "Europe/Madrid",
      "wikiDataId": "Q13447",
      "country_code": "ES",
      "state_code": "GI",
      "state_id": 5103,
      "country_id": 207
    },
    {
      "id": 36977,
      "name": "Sant Joan les Fonts",
      "name_default": "Sant Joan les Fonts",
      "native": "San Juan las fuentes",
      "type": "city",
      "level": null,
      "parent_id": null,
      "population": 3111,
      "latitude": "42.21186000",
      "longitude": "2.51291000",
      "timezone": "Europe/Madrid",
      "wikiDataId": "Q23992362",
      "country_code": "ES",
      "state_code": "GI",
      "state_id": 5103,
      "country_id": 207
    },
    {
      "id": 36979,
      "name": "Sant Jordi Desvalls",
      "name_default": "Sant Jordi Desvalls",
      "native": "Sant Jordi Desvalls",
      "type": "adm3",
      "level": null,
      "parent_id": null,
      "population": 0,
      "latitude": "42.06667000",
      "longitude": "2.95000000",
      "timezone": "Europe/Madrid",
      "wikiDataId": "Q13454",
      "country_code": "ES",
      "state_code": "GI",
      "state_id": 5103,
      "country_id": 207
    },
    {
      "id": 151700,
      "name": "Sant Julià de Ramis",
      "name_default": "Sant Julià de Ramis",
      "native": "Sant Julià de Ramis",
      "type": "adm3",
      "level": null,
      "parent_id": null,
      "population": 3644,
      "latitude": "42.03444740",
      "longitude": "2.83945190",
      "timezone": "Europe/Madrid",
      "wikiDataId": "Q13453",
      "country_code": "ES",
      "state_code": "GI",
      "state_id": 5103,
      "country_id": 207
    },
    {
      "id": 151731,
      "name": "Sant Julià del Llor i Bonmatí",
      "name_default": "Sant Julià del Llor i Bonmatí",
      "native": "Sant Julià del Llor I Bonmatí",
      "type": "city",
      "level": null,
      "parent_id": null,
      "population": 1373,
      "latitude": "41.97335800",
      "longitude": "2.65367420",
      "timezone": "Europe/Madrid",
      "wikiDataId": "Q13640",
      "country_code": "ES",
      "state_code": "GI",
      "state_id": 5103,
      "country_id": 207
    },
    {
      "id": 151702,
      "name": "Sant Llorenç de la Muga",
      "name_default": "Sant Llorenç de la Muga",
      "native": "San Lorenzo de la muga",
      "type": "adm3",
      "level": null,
      "parent_id": null,
      "population": 0,
      "latitude": "42.32253180",
      "longitude": "2.78856260",
      "timezone": "Europe/Madrid",
      "wikiDataId": "Q11832",
      "country_code": "ES",
      "state_code": "GI",
      "state_id": 5103,
      "country_id": 207
    },
    {
      "id": 151703,
      "name": "Sant Martí de Llémena",
      "name_default": "Sant Martí de Llémena",
      "native": "Sant Martí de llémena",
      "type": "city",
      "level": null,
      "parent_id": null,
      "population": 706,
      "latitude": "42.03631410",
      "longitude": "2.64715720",
      "timezone": "Europe/Madrid",
      "wikiDataId": "Q13452",
      "country_code": "ES",
      "state_code": "GI",
      "state_id": 5103,
      "country_id": 207
    },
    {
      "id": 36987,
      "name": "Sant Martí Vell",
      "name_default": "Sant Martí Vell",
      "native": "Sant Martí Vell",
      "type": "adm3",
      "level": null,
      "parent_id": null,
      "population": 0,
      "latitude": "42.01667000",
      "longitude": "2.93333000",
      "timezone": "Europe/Madrid",
      "wikiDataId": "Q13458",
      "country_code": "ES",
      "state_code": "GI",
      "state_id": 5103,
      "country_id": 207
    },
    {
      "id": 36991,
      "name": "Sant Miquel de Campmajor",
      "name_default": "Sant Miquel de Campmajor",
      "native": "Sant Miquel de Campmajor",
      "type": "adm3",
      "level": null,
      "parent_id": null,
      "population": 0,
      "latitude": "42.13333000",
      "longitude": "2.68333000",
      "timezone": "Europe/Madrid",
      "wikiDataId": "Q13612",
      "country_code": "ES",
      "state_code": "GI",
      "state_id": 5103,
      "country_id": 207
    },
    {
      "id": 151704,
      "name": "Sant Miquel de Fluvià",
      "name_default": "Sant Miquel de Fluvià",
      "native": "Sant Miquel de Fluvià",
      "type": "adm3",
      "level": null,
      "parent_id": null,
      "population": 0,
      "latitude": "42.17580380",
      "longitude": "2.99068220",
      "timezone": "Europe/Madrid",
      "wikiDataId": "Q11837",
      "country_code": "ES",
      "state_code": "GI",
      "state_id": 5103,
      "country_id": 207
    },
    {
      "id": 151705,
      "name": "Sant Mori",
      "name_default": "Sant Mori",
      "native": "Sant Mori",
      "type": "adm3",
      "level": null,
      "parent_id": null,
      "population": 0,
      "latitude": "42.15514890",
      "longitude": "2.99036960",
      "timezone": "Europe/Madrid",
      "wikiDataId": "Q11844",
      "country_code": "ES",
      "state_code": "GI",
      "state_id": 5103,
      "country_id": 207
    },
    {
      "id": 151706,
      "name": "Sant Pau de Segúries",
      "name_default": "Sant Pau de Segúries",
      "native": "Sant Pau de Segúries",
      "type": "city",
      "level": null,
      "parent_id": null,
      "population": 724,
      "latitude": "42.26304370",
      "longitude": "2.36717180",
      "timezone": "Europe/Madrid",
      "wikiDataId": "Q12343",
      "country_code": "ES",
      "state_code": "GI",
      "state_id": 5103,
      "country_id": 207
    },
    {
      "id": 36992,
      "name": "Sant Pere Pescador",
      "name_default": "Sant Pere Pescador",
      "native": "Sant Pere Pescador",
      "type": "adm3",
      "level": null,
      "parent_id": null,
      "population": 0,
      "latitude": "42.18812000",
      "longitude": "3.08212000",
      "timezone": "Europe/Madrid",
      "wikiDataId": "Q11852",
      "country_code": "ES",
      "state_code": "GI",
      "state_id": 5103,
      "country_id": 207
    },
    {
      "id": 37016,
      "name": "Santa Coloma de Farners",
      "name_default": "Santa Coloma de Farners",
      "native": "Santa Coloma de Farners",
      "type": "adm3",
      "level": null,
      "parent_id": null,
      "population": 13657,
      "latitude": "41.86667000",
      "longitude": "2.66667000",
      "timezone": "Europe/Madrid",
      "wikiDataId": "Q1766212",
      "country_code": "ES",
      "state_code": "GI",
      "state_id": 5103,
      "country_id": 207
    },
    {
      "id": 151707,
      "name": "Santa Cristina dAro",
      "name_default": "Santa Cristina d'Aro",
      "native": "Santa Cristina d'Aro",
      "type": "adm3",
      "level": null,
      "parent_id": null,
      "population": 5866,
      "latitude": "41.81377770",
      "longitude": "2.99729860",
      "timezone": "Europe/Madrid",
      "wikiDataId": "Q13569",
      "country_code": "ES",
      "state_code": "GI",
      "state_id": 5103,
      "country_id": 207
    },
    {
      "id": 151708,
      "name": "Santa Llogaia dÀlguema",
      "name_default": "Santa Llogaia d'Àlguema",
      "native": "Santa Llogaia Dalguema",
      "type": "adm3",
      "level": null,
      "parent_id": null,
      "population": 397,
      "latitude": "42.23350980",
      "longitude": "2.95193850",
      "timezone": "Europe/Madrid",
      "wikiDataId": null,
      "country_code": "ES",
      "state_code": "GI",
      "state_id": 5103,
      "country_id": 207
    },
    {
      "id": 37096,
      "name": "Santa Pau",
      "name_default": "Santa Pau",
      "native": "Santa Pau",
      "type": "adm3",
      "level": null,
      "parent_id": null,
      "population": 1611,
      "latitude": "42.14430000",
      "longitude": "2.57123000",
      "timezone": "Europe/Madrid",
      "wikiDataId": "Q12691",
      "country_code": "ES",
      "state_code": "GI",
      "state_id": 5103,
      "country_id": 207
    },
    {
      "id": 37171,
      "name": "Sarrià de Ter",
      "name_default": "Sarrià de Ter",
      "native": "Sarrià de ter",
      "type": "adm3",
      "level": null,
      "parent_id": null,
      "population": 4001,
      "latitude": "42.01667000",
      "longitude": "2.83333000",
      "timezone": "Europe/Madrid",
      "wikiDataId": "Q13456",
      "country_code": "ES",
      "state_code": "GI",
      "state_id": 5103,
      "country_id": 207
    },
    {
      "id": 151710,
      "name": "Saus Camallera i Llampaies",
      "name_default": "Saus Camallera i Llampaies",
      "native": "Saus Camallera I Llampaies",
      "type": "city",
      "level": null,
      "parent_id": null,
      "population": null,
      "latitude": "42.13370500",
      "longitude": "2.97255630",
      "timezone": "Europe/Madrid",
      "wikiDataId": "Q11865",
      "country_code": "ES",
      "state_code": "GI",
      "state_id": 5103,
      "country_id": 207
    },
    {
      "id": 151713,
      "name": "Serinyà",
      "name_default": "Serinyà",
      "native": "Serinyà",
      "type": "adm3",
      "level": null,
      "parent_id": null,
      "population": 1198,
      "latitude": "42.16879560",
      "longitude": "2.74411940",
      "timezone": "Europe/Madrid",
      "wikiDataId": "Q13621",
      "country_code": "ES",
      "state_code": "GI",
      "state_id": 5103,
      "country_id": 207
    },
    {
      "id": 37219,
      "name": "Serra de Daró",
      "name_default": "Serra de Daró",
      "native": "Sierra de Daró",
      "type": "adm3",
      "level": null,
      "parent_id": null,
      "population": 179,
      "latitude": "42.02877000",
      "longitude": "3.07222000",
      "timezone": "Europe/Madrid",
      "wikiDataId": "Q23992641",
      "country_code": "ES",
      "state_code": "GI",
      "state_id": 5103,
      "country_id": 207
    },
    {
      "id": 151714,
      "name": "Setcases",
      "name_default": "Setcases",
      "native": "Setcases",
      "type": "city",
      "level": null,
      "parent_id": null,
      "population": 191,
      "latitude": "42.37510230",
      "longitude": "2.30182770",
      "timezone": "Europe/Madrid",
      "wikiDataId": "Q12348",
      "country_code": "ES",
      "state_code": "GI",
      "state_id": 5103,
      "country_id": 207
    },
    {
      "id": 37257,
      "name": "Sils",
      "name_default": "Sils",
      "native": "Sils",
      "type": "adm3",
      "level": null,
      "parent_id": null,
      "population": 3869,
      "latitude": "41.80842000",
      "longitude": "2.74507000",
      "timezone": "Europe/Madrid",
      "wikiDataId": "Q1607540",
      "country_code": "ES",
      "state_code": "GI",
      "state_id": 5103,
      "country_id": 207
    },
    {
      "id": 37268,
      "name": "Siurana",
      "name_default": "Siurana",
      "native": "Siurana",
      "type": "adm3",
      "level": null,
      "parent_id": null,
      "population": 180,
      "latitude": "42.20916000",
      "longitude": "2.99392000",
      "timezone": "Europe/Madrid",
      "wikiDataId": "Q195679",
      "country_code": "ES",
      "state_code": "GI",
      "state_id": 5103,
      "country_id": 207
    },
    {
      "id": 37334,
      "name": "Susqueda",
      "name_default": "Susqueda",
      "native": "Suma",
      "type": "adm3",
      "level": null,
      "parent_id": null,
      "population": 97,
      "latitude": "41.97776000",
      "longitude": "2.51652000",
      "timezone": "Europe/Madrid",
      "wikiDataId": "Q13642",
      "country_code": "ES",
      "state_code": "GI",
      "state_id": 5103,
      "country_id": 207
    },
    {
      "id": 151716,
      "name": "Terrades",
      "name_default": "Terrades",
      "native": "Terraza",
      "type": "adm3",
      "level": null,
      "parent_id": null,
      "population": 0,
      "latitude": "42.30994090",
      "longitude": "2.83807720",
      "timezone": "Europe/Madrid",
      "wikiDataId": "Q11897",
      "country_code": "ES",
      "state_code": "GI",
      "state_id": 5103,
      "country_id": 207
    },
    {
      "id": 37565,
      "name": "Torrent",
      "name_default": "Torrent",
      "native": "Torrente",
      "type": "adm3",
      "level": null,
      "parent_id": null,
      "population": 176,
      "latitude": "41.95243000",
      "longitude": "3.12684000",
      "timezone": "Europe/Madrid",
      "wikiDataId": "Q13572",
      "country_code": "ES",
      "state_code": "GI",
      "state_id": 5103,
      "country_id": 207
    },
    {
      "id": 37590,
      "name": "Torroella de Fluvià",
      "name_default": "Torroella de Fluvià",
      "native": "Torroella de Fluvià",
      "type": "adm3",
      "level": null,
      "parent_id": null,
      "population": 449,
      "latitude": "42.17522000",
      "longitude": "3.04025000",
      "timezone": "Europe/Madrid",
      "wikiDataId": "Q1650828",
      "country_code": "ES",
      "state_code": "GI",
      "state_id": 5103,
      "country_id": 207
    },
    {
      "id": 37591,
      "name": "Torroella de Montgrí",
      "name_default": "Torroella de Montgrí",
      "native": "Torroella de Montgrí",
      "type": "adm3",
      "level": null,
      "parent_id": null,
      "population": 11598,
      "latitude": "42.04254000",
      "longitude": "3.12703000",
      "timezone": "Europe/Madrid",
      "wikiDataId": "Q23991223",
      "country_code": "ES",
      "state_code": "GI",
      "state_id": 5103,
      "country_id": 207
    },
    {
      "id": 151717,
      "name": "Tortellà",
      "name_default": "Tortellà",
      "native": "Tortellà",
      "type": "city",
      "level": null,
      "parent_id": null,
      "population": 828,
      "latitude": "42.23388280",
      "longitude": "2.63195430",
      "timezone": "Europe/Madrid",
      "wikiDataId": "Q12698",
      "country_code": "ES",
      "state_code": "GI",
      "state_id": 5103,
      "country_id": 207
    },
    {
      "id": 151718,
      "name": "Toses",
      "name_default": "Toses",
      "native": "Tose",
      "type": "adm3",
      "level": null,
      "parent_id": null,
      "population": 191,
      "latitude": "42.32660730",
      "longitude": "2.03711600",
      "timezone": "Europe/Madrid",
      "wikiDataId": "Q12352",
      "country_code": "ES",
      "state_code": "GI",
      "state_id": 5103,
      "country_id": 207
    },
    {
      "id": 37604,
      "name": "Tossa de Mar",
      "name_default": "Tossa de Mar",
      "native": "Tush of the Sea",
      "type": "adm3",
      "level": null,
      "parent_id": null,
      "population": 5001,
      "latitude": "41.71667000",
      "longitude": "2.93333000",
      "timezone": "Europe/Madrid",
      "wikiDataId": "Q1639161",
      "country_code": "ES",
      "state_code": "GI",
      "state_id": 5103,
      "country_id": 207
    },
    {
      "id": 37683,
      "name": "Ullà",
      "name_default": "Ullà",
      "native": "Ojo",
      "type": "adm3",
      "level": null,
      "parent_id": null,
      "population": 943,
      "latitude": "42.04964000",
      "longitude": "3.10754000",
      "timezone": "Europe/Madrid",
      "wikiDataId": "Q13592",
      "country_code": "ES",
      "state_code": "GI",
      "state_id": 5103,
      "country_id": 207
    },
    {
      "id": 151719,
      "name": "Ullastret",
      "name_default": "Ullastret",
      "native": "Teja",
      "type": "adm3",
      "level": null,
      "parent_id": null,
      "population": 260,
      "latitude": "41.97171910",
      "longitude": "2.83009710",
      "timezone": "Europe/Madrid",
      "wikiDataId": "Q13589",
      "country_code": "ES",
      "state_code": "GI",
      "state_id": 5103,
      "country_id": 207
    },
    {
      "id": 37684,
      "name": "Ultramort",
      "name_default": "Ultramort",
      "native": "Ultramort",
      "type": "adm3",
      "level": null,
      "parent_id": null,
      "population": 214,
      "latitude": "42.03640000",
      "longitude": "3.03455000",
      "timezone": "Europe/Madrid",
      "wikiDataId": "Q13588",
      "country_code": "ES",
      "state_code": "GI",
      "state_id": 5103,
      "country_id": 207
    },
    {
      "id": 37702,
      "name": "Urús",
      "name_default": "Urús",
      "native": "Urrús",
      "type": "adm3",
      "level": null,
      "parent_id": null,
      "population": 0,
      "latitude": "42.35131000",
      "longitude": "1.85343000",
      "timezone": "Europe/Madrid",
      "wikiDataId": "Q13761",
      "country_code": "ES",
      "state_code": "GI",
      "state_id": 5103,
      "country_id": 207
    },
    {
      "id": 151722,
      "name": "Vall-llobrega",
      "name_default": "Vall-llobrega",
      "native": "Vall-Llobrega",
      "type": "adm3",
      "level": null,
      "parent_id": null,
      "population": 176,
      "latitude": "41.88083120",
      "longitude": "3.12896930",
      "timezone": "Europe/Madrid",
      "wikiDataId": "Q13587",
      "country_code": "ES",
      "state_code": "GI",
      "state_id": 5103,
      "country_id": 207
    },
    {
      "id": 151701,
      "name": "Vallfogona de Ripollès",
      "name_default": "Vallfogona de Ripollès",
      "native": "Vallfogona de Ripollès",
      "type": "adm3",
      "level": null,
      "parent_id": null,
      "population": 222,
      "latitude": "42.18341820",
      "longitude": "2.31230310",
      "timezone": "Europe/Madrid",
      "wikiDataId": "Q12356",
      "country_code": "ES",
      "state_code": "GI",
      "state_id": 5103,
      "country_id": 207
    },
    {
      "id": 37939,
      "name": "Ventalló",
      "name_default": "Ventalló",
      "native": "Rango",
      "type": "adm3",
      "level": null,
      "parent_id": null,
      "population": 675,
      "latitude": "42.14921000",
      "longitude": "3.02635000",
      "timezone": "Europe/Madrid",
      "wikiDataId": "Q11908",
      "country_code": "ES",
      "state_code": "GI",
      "state_id": 5103,
      "country_id": 207
    },
    {
      "id": 37953,
      "name": "Ränder",
      "name_default": "Verges",
      "native": "Bordes",
      "type": "adm3",
      "level": null,
      "parent_id": null,
      "population": 1166,
      "latitude": "42.06283000",
      "longitude": "3.04579000",
      "timezone": "Europe/Madrid",
      "wikiDataId": "Q1751998",
      "country_code": "ES",
      "state_code": "GI",
      "state_id": 5103,
      "country_id": 207
    },
    {
      "id": 37967,
      "name": "Vidrà",
      "name_default": "Vidrà",
      "native": "Vaso",
      "type": "adm3",
      "level": null,
      "parent_id": null,
      "population": 169,
      "latitude": "42.12285000",
      "longitude": "2.30977000",
      "timezone": "Europe/Madrid",
      "wikiDataId": "Q13715",
      "country_code": "ES",
      "state_code": "GI",
      "state_id": 5103,
      "country_id": 207
    },
    {
      "id": 37966,
      "name": "Vidreres",
      "name_default": "Vidreres",
      "native": "Creador de vidrio",
      "type": "adm3",
      "level": null,
      "parent_id": null,
      "population": 0,
      "latitude": "41.78333000",
      "longitude": "2.78333000",
      "timezone": "Europe/Madrid",
      "wikiDataId": "Q13715",
      "country_code": "ES",
      "state_code": "GI",
      "state_id": 5103,
      "country_id": 207
    },
    {
      "id": 151726,
      "name": "Vila-sacra",
      "name_default": "Vila-sacra",
      "native": "Vila-sacra",
      "type": "adm3",
      "level": null,
      "parent_id": null,
      "population": 0,
      "latitude": "42.26540130",
      "longitude": "3.01820540",
      "timezone": "Europe/Madrid",
      "wikiDataId": "Q1043496",
      "country_code": "ES",
      "state_code": "GI",
      "state_id": 5103,
      "country_id": 207
    },
    {
      "id": 37975,
      "name": "Vilabertran",
      "name_default": "Vilabertran",
      "native": "Vilabertrano",
      "type": "adm3",
      "level": null,
      "parent_id": null,
      "population": 984,
      "latitude": "42.28255000",
      "longitude": "2.98144000",
      "timezone": "Europe/Madrid",
      "wikiDataId": "Q12148",
      "country_code": "ES",
      "state_code": "GI",
      "state_id": 5103,
      "country_id": 207
    },
    {
      "id": 37976,
      "name": "Vilablareix",
      "name_default": "Vilablareix",
      "native": "Aldea",
      "type": "adm3",
      "level": null,
      "parent_id": null,
      "population": 2194,
      "latitude": "41.95746000",
      "longitude": "2.77377000",
      "timezone": "Europe/Madrid",
      "wikiDataId": "Q13457",
      "country_code": "ES",
      "state_code": "GI",
      "state_id": 5103,
      "country_id": 207
    },
    {
      "id": 151723,
      "name": "Viladamat",
      "name_default": "Viladamat",
      "native": "Viladamat",
      "type": "city",
      "level": null,
      "parent_id": null,
      "population": 731,
      "latitude": "42.13287700",
      "longitude": "3.07452550",
      "timezone": "Europe/Madrid",
      "wikiDataId": "Q12151",
      "country_code": "ES",
      "state_code": "GI",
      "state_id": 5103,
      "country_id": 207
    },
    {
      "id": 37977,
      "name": "Viladasens",
      "name_default": "Viladasens",
      "native": "Viladasens",
      "type": "adm3",
      "level": null,
      "parent_id": null,
      "population": 0,
      "latitude": "42.08333000",
      "longitude": "2.93333000",
      "timezone": "Europe/Madrid",
      "wikiDataId": "Q13455",
      "country_code": "ES",
      "state_code": "GI",
      "state_id": 5103,
      "country_id": 207
    },
    {
      "id": 37979,
      "name": "Vilademuls",
      "name_default": "Vilademuls",
      "native": "Vilademulados",
      "type": "adm3",
      "level": null,
      "parent_id": null,
      "population": 866,
      "latitude": "42.13890000",
      "longitude": "2.88819000",
      "timezone": "Europe/Madrid",
      "wikiDataId": "Q13620",
      "country_code": "ES",
      "state_code": "GI",
      "state_id": 5103,
      "country_id": 207
    },
    {
      "id": 37980,
      "name": "Viladrau",
      "name_default": "Viladrau",
      "native": "Viladrau",
      "type": "adm3",
      "level": null,
      "parent_id": null,
      "population": 1172,
      "latitude": "41.84746000",
      "longitude": "2.39019000",
      "timezone": "Europe/Madrid",
      "wikiDataId": "Q13858",
      "country_code": "ES",
      "state_code": "GI",
      "state_id": 5103,
      "country_id": 207
    },
    {
      "id": 37981,
      "name": "Vilafant",
      "name_default": "Vilafant",
      "native": "Viliafante",
      "type": "adm3",
      "level": null,
      "parent_id": null,
      "population": 5706,
      "latitude": "42.24668000",
      "longitude": "2.93820000",
      "timezone": "Europe/Madrid",
      "wikiDataId": "Q12153",
      "country_code": "ES",
      "state_code": "GI",
      "state_id": 5103,
      "country_id": 207
    },
    {
      "id": 37986,
      "name": "Vilajuïga",
      "name_default": "Vilajuïga",
      "native": "Aldea",
      "type": "adm3",
      "level": null,
      "parent_id": null,
      "population": 1179,
      "latitude": "42.32533000",
      "longitude": "3.09302000",
      "timezone": "Europe/Madrid",
      "wikiDataId": "Q23991995",
      "country_code": "ES",
      "state_code": "GI",
      "state_id": 5103,
      "country_id": 207
    },
    {
      "id": 151725,
      "name": "Vilallonga de Ter",
      "name_default": "Vilallonga de Ter",
      "native": "Village de Ter",
      "type": "adm3",
      "level": null,
      "parent_id": null,
      "population": 395,
      "latitude": "42.33053200",
      "longitude": "2.31104170",
      "timezone": "Europe/Madrid",
      "wikiDataId": "Q12361",
      "country_code": "ES",
      "state_code": "GI",
      "state_id": 5103,
      "country_id": 207
    },
    {
      "id": 37988,
      "name": "Vilamacolum",
      "name_default": "Vilamacolum",
      "native": "Vilamacolum",
      "type": "adm3",
      "level": null,
      "parent_id": null,
      "population": 299,
      "latitude": "42.19618000",
      "longitude": "3.05662000",
      "timezone": "Europe/Madrid",
      "wikiDataId": "Q12161",
      "country_code": "ES",
      "state_code": "GI",
      "state_id": 5103,
      "country_id": 207
    },
    {
      "id": 37989,
      "name": "Vilamalla",
      "name_default": "Vilamalla",
      "native": "Vilamalla",
      "type": "adm3",
      "level": null,
      "parent_id": null,
      "population": 885,
      "latitude": "42.21720000",
      "longitude": "2.97009000",
      "timezone": "Europe/Madrid",
      "wikiDataId": "Q12163",
      "country_code": "ES",
      "state_code": "GI",
      "state_id": 5103,
      "country_id": 207
    },