{
  "locale": "ko",
  "country": {
    "id": 213,
    "code": "SE",
    "iso3": "SWE",
    "numeric_code": "752",
    "name": "스웨덴",
    "name_default": "Sweden",
    "native": "Sverige",
    "capital": "Stockholm",
    "phonecode": "46",
    "currency": "SEK",
    "currency_name": "Swedish krona",
    "currency_symbol": "ko",
    "tld": ".se",
    "population": 10596652,
    "gdp": 620297,
    "region": "Europe",
    "region_id": 4,
    "subregion": "Northern Europe",
    "subregion_id": 18,
    "nationality": "Swedish",
    "timezones": [
      {
        "zoneName": "Europe/Stockholm",
        "gmtOffset": 3600,
        "gmtOffsetName": "UTC+01:00",
        "abbreviation": "CET",
        "tzName": "Central European Time"
      }
    ],
    "latitude": "62.00000000",
    "longitude": "15.00000000",
    "emoji": "🇸🇪",
    "emojiU": "U+1F1F8 U+1F1EA"
  },
  "state": {
    "id": 1535,
    "code": "S",
    "iso2": "S",
    "iso3166_2": "SE-S",
    "fips_code": "22",
    "name": "베름란드",
    "name_default": "Värmland",
    "native": "Värmland",
    "type": "county",
    "level": null,
    "parent_id": null,
    "population": 322034,
    "latitude": "59.89076240",
    "longitude": "13.29476170",
    "timezone": "Europe/Stockholm",
    "wikiDataId": "Q106789",
    "country_code": "SE"
  },
  "cities": [
    {
      "id": 104006,
      "name": "아모트포르스",
      "name_default": "Åmotfors",
      "native": "Åmotfors",
      "type": "city",
      "level": null,
      "parent_id": null,
      "population": 1347,
      "latitude": "59.76191000",
      "longitude": "12.36211000",
      "timezone": "Europe/Stockholm",
      "wikiDataId": "Q2223918",
      "country_code": "SE",
      "state_code": "S",
      "state_id": 1535,
      "country_id": 213
    },
    {
      "id": 104011,
      "name": "아르정",
      "name_default": "Årjäng",
      "native": "Årjäng",
      "type": "adm2",
      "level": null,
      "parent_id": null,
      "population": 3328,
      "latitude": "59.39217000",
      "longitude": "12.13336000",
      "timezone": "Europe/Stockholm",
      "wikiDataId": "Q271180",
      "country_code": "SE",
      "state_code": "S",
      "state_id": 1535,
      "country_id": 213
    },
    {
      "id": 103017,
      "name": "아르비카",
      "name_default": "Arvika",
      "native": "Arvika",
      "type": "adm2",
      "level": null,
      "parent_id": null,
      "population": 14186,
      "latitude": "59.65528000",
      "longitude": "12.58518000",
      "timezone": "Europe/Stockholm",
      "wikiDataId": "Q654308",
      "country_code": "SE",
      "state_code": "S",
      "state_id": 1535,
      "country_id": 213
    },
    {
      "id": 103057,
      "name": "비요르네보르그",
      "name_default": "Björneborg",
      "native": "Björneborg",
      "type": "city",
      "level": null,
      "parent_id": null,
      "population": 1045,
      "latitude": "59.24122000",
      "longitude": "14.24942000",
      "timezone": "Europe/Stockholm",
      "wikiDataId": "Q2783471",
      "country_code": "SE",
      "state_code": "S",
      "state_id": 1535,
      "country_id": 213
    },
    {
      "id": 103107,
      "name": "샤를로텐베르크",
      "name_default": "Charlottenberg",
      "native": "Charlottenberg",
      "type": "adm2",
      "level": null,
      "parent_id": null,
      "population": 2503,
      "latitude": "59.88422000",
      "longitude": "12.30398000",
      "timezone": "Europe/Stockholm",
      "wikiDataId": "Q1013299",
      "country_code": "SE",
      "state_code": "S",
      "state_id": 1535,
      "country_id": 213
    },
    {
      "id": 103117,
      "name": "데제",
      "name_default": "Deje",
      "native": "Kommer att göras",
      "type": "city",
      "level": null,
      "parent_id": null,
      "population": 2717,
      "latitude": "59.60300000",
      "longitude": "13.47200000",
      "timezone": "Europe/Stockholm",
      "wikiDataId": "Q1021161",
      "country_code": "SE",
      "state_code": "S",
      "state_id": 1535,
      "country_id": 213
    },
    {
      "id": 103135,
      "name": "엑샤라드",
      "name_default": "Ekshärad",
      "native": "Ekshärad",
      "type": "city",
      "level": null,
      "parent_id": null,
      "population": 955,
      "latitude": "60.17275000",
      "longitude": "13.49647000",
      "timezone": "Europe/Stockholm",
      "wikiDataId": "Q2651809",
      "country_code": "SE",
      "state_code": "S",
      "state_id": 1535,
      "country_id": 213
    },
    {
      "id": 103164,
      "name": "필립스타드",
      "name_default": "Filipstad",
      "native": "Filipstad",
      "type": "adm2",
      "level": null,
      "parent_id": null,
      "population": 5970,
      "latitude": "59.71236000",
      "longitude": "14.16831000",
      "timezone": "Europe/Stockholm",
      "wikiDataId": "Q847769",
      "country_code": "SE",
      "state_code": "S",
      "state_id": 1535,
      "country_id": 213
    },
    {
      "id": 103179,
      "name": "포르샤가",
      "name_default": "Forshaga",
      "native": "Forshaga",
      "type": "adm2",
      "level": null,
      "parent_id": null,
      "population": 6433,
      "latitude": "59.52541000",
      "longitude": "13.48127000",
      "timezone": "Europe/Stockholm",
      "wikiDataId": "Q1303800",
      "country_code": "SE",
      "state_code": "S",
      "state_id": 1535,
      "country_id": 213
    },
    {
      "id": 103223,
      "name": "그럼스",
      "name_default": "Grums",
      "native": "Grums",
      "type": "adm2",
      "level": null,
      "parent_id": null,
      "population": 4975,
      "latitude": "59.35141000",
      "longitude": "13.11105000",
      "timezone": "Europe/Stockholm",
      "wikiDataId": "Q1550418",
      "country_code": "SE",
      "state_code": "S",
      "state_id": 1535,
      "country_id": 213
    },
    {
      "id": 103251,
      "name": "하그포스",
      "name_default": "Hagfors",
      "native": "Hagfors",
      "type": "adm2",
      "level": null,
      "parent_id": null,
      "population": 4731,
      "latitude": "60.02378000",
      "longitude": "13.67214000",
      "timezone": "Europe/Stockholm",
      "wikiDataId": "Q1012813",
      "country_code": "SE",
      "state_code": "S",
      "state_id": 1535,
      "country_id": 213
    },
    {
      "id": 103383,
      "name": "칼스타드",
      "name_default": "Karlstad",
      "native": "Karlstad",
      "type": "adm1",
      "level": null,
      "parent_id": null,
      "population": 69615,
      "latitude": "59.37930000",
      "longitude": "13.50357000",
      "timezone": "Europe/Stockholm",
      "wikiDataId": "Q25457",
      "country_code": "SE",
      "state_code": "S",
      "state_id": 1535,
      "country_id": 213
    },
    {
      "id": 103388,
      "name": "킬",
      "name_default": "Kil",
      "native": "Kil",
      "type": "adm2",
      "level": null,
      "parent_id": null,
      "population": 7627,
      "latitude": "59.50234000",
      "longitude": "13.31277000",
      "timezone": "Europe/Stockholm",
      "wikiDataId": "Q1024656",
      "country_code": "SE",
      "state_code": "S",
      "state_id": 1535,
      "country_id": 213
    },
    {
      "id": 103416,
      "name": "크리스틴함",
      "name_default": "Kristinehamn",
      "native": "Kristinehamn",
      "type": "adm2",
      "level": null,
      "parent_id": null,
      "population": 18358,
      "latitude": "59.30978000",
      "longitude": "14.10808000",
      "timezone": "Europe/Stockholm",
      "wikiDataId": "Q215832",
      "country_code": "SE",
      "state_code": "S",
      "state_id": 1535,
      "country_id": 213
    },
    {
      "id": 103544,
      "name": "몰콤",
      "name_default": "Molkom",
      "native": "Molkom",
      "type": "city",
      "level": null,
      "parent_id": null,
      "population": 1887,
      "latitude": "59.60057000",
      "longitude": "13.72115000",
      "timezone": "Europe/Stockholm",
      "wikiDataId": "Q1814865",
      "country_code": "SE",
      "state_code": "S",
      "state_id": 1535,
      "country_id": 213
    },
    {
      "id": 103555,
      "name": "뭉크포스",
      "name_default": "Munkfors",
      "native": "Munkfors",
      "type": "adm2",
      "level": null,
      "parent_id": null,
      "population": 2834,
      "latitude": "59.83856000",
      "longitude": "13.54361000",
      "timezone": "Europe/Stockholm",
      "wikiDataId": "Q1574389",
      "country_code": "SE",
      "state_code": "S",
      "state_id": 1535,
      "country_id": 213
    },
    {
      "id": 103670,
      "name": "로토르프",
      "name_default": "Råtorp",
      "native": "Råtorp",
      "type": "section",
      "level": null,
      "parent_id": null,
      "population": 3287,
      "latitude": "59.40197000",
      "longitude": "13.49144000",
      "timezone": "Europe/Stockholm",
      "wikiDataId": "Q2145009",
      "country_code": "SE",
      "state_code": "S",
      "state_id": 1535,
      "country_id": 213
    },
    {
      "id": 103804,
      "name": "세플",
      "name_default": "Säffle",
      "native": "Säffle",
      "type": "adm2",
      "level": null,
      "parent_id": null,
      "population": 8823,
      "latitude": "59.13229000",
      "longitude": "12.92888000",
      "timezone": "Europe/Stockholm",
      "wikiDataId": "Q368574",
      "country_code": "SE",
      "state_code": "S",
      "state_id": 1535,
      "country_id": 213
    },
    {
      "id": 103722,
      "name": "스코레",
      "name_default": "Skåre",
      "native": "Göra",
      "type": "city",
      "level": null,
      "parent_id": null,
      "population": 5415,
      "latitude": "59.43333000",
      "longitude": "13.43333000",
      "timezone": "Europe/Stockholm",
      "wikiDataId": "Q2292395",
      "country_code": "SE",
      "state_code": "S",
      "state_id": 1535,
      "country_id": 213
    },
    {
      "id": 103698,
      "name": "스카트카르",
      "name_default": "Skattkärr",
      "native": "Skattkärr",
      "type": "city",
      "level": null,
      "parent_id": null,
      "population": 1960,
      "latitude": "59.41208000",
      "longitude": "13.67078000",
      "timezone": "Europe/Stockholm",
      "wikiDataId": "Q2737723",
      "country_code": "SE",
      "state_code": "S",
      "state_id": 1535,
      "country_id": 213
    },
    {
      "id": 103708,
      "name": "스코홀",
      "name_default": "Skoghall",
      "native": "Skoghall",
      "type": "adm2",
      "level": null,
      "parent_id": null,
      "population": 14610,
      "latitude": "59.32324000",
      "longitude": "13.46552000",
      "timezone": "Europe/Stockholm",
      "wikiDataId": "Q576644",
      "country_code": "SE",
      "state_code": "S",
      "state_id": 1535,
      "country_id": 213
    },
    {
      "id": 103726,
      "name": "슬로츠브론",
      "name_default": "Slottsbron",
      "native": "Slottsbron",
      "type": "city",
      "level": null,
      "parent_id": null,
      "population": 1068,
      "latitude": "59.32270000",
      "longitude": "13.10268000",
      "timezone": "Europe/Stockholm",
      "wikiDataId": "Q1837539",
      "country_code": "SE",
      "state_code": "S",
      "state_id": 1535,
      "country_id": 213
    },
    {
      "id": 103763,
      "name": "스토르포스",
      "name_default": "Storfors",
      "native": "Storfors",
      "type": "adm2",
      "level": null,
      "parent_id": null,
      "population": 1904,
      "latitude": "59.53183000",
      "longitude": "14.27201000",
      "timezone": "Europe/Stockholm",
      "wikiDataId": "Q2062839",
      "country_code": "SE",
      "state_code": "S",
      "state_id": 1535,
      "country_id": 213
    },
    {
      "id": 103788,
      "name": "선네",
      "name_default": "Sunne",
      "native": "Hälsosam",
      "type": "adm2",
      "level": null,
      "parent_id": null,
      "population": 5026,
      "latitude": "59.83764000",
      "longitude": "13.14302000",
      "timezone": "Europe/Stockholm",
      "wikiDataId": "Q504994",
      "country_code": "SE",
      "state_code": "S",
      "state_id": 1535,
      "country_id": 213
    },
    {
      "id": 103890,
      "name": "톡스포스",
      "name_default": "Töcksfors",
      "native": "Töcksfors",
      "type": "city",
      "level": null,
      "parent_id": null,
      "population": 1292,
      "latitude": "59.50816000",
      "longitude": "11.84431000",
      "timezone": "Europe/Stockholm",
      "wikiDataId": "Q1019553",
      "country_code": "SE",
      "state_code": "S",
      "state_id": 1535,
      "country_id": 213
    },
    {
      "id": 103862,
      "name": "토스비",
      "name_default": "Torsby",
      "native": "Torsby",
      "type": "adm2",
      "level": null,
      "parent_id": null,
      "population": 4419,
      "latitude": "60.13527000",
      "longitude": "13.00820000",
      "timezone": "Europe/Stockholm",
      "wikiDataId": "Q3582130",
      "country_code": "SE",
      "state_code": "S",
      "state_id": 1535,
      "country_id": 213
    },
    {
      "id": 103977,
      "name": "발베르그",
      "name_default": "Vålberg",
      "native": "Vålberg",
      "type": "city",
      "level": null,
      "parent_id": null,
      "population": 2848,
      "latitude": "59.39145000",
      "longitude": "13.18633000",
      "timezone": "Europe/Stockholm",
      "wikiDataId": "Q500217",
      "country_code": "SE",
      "state_code": "S",
      "state_id": 1535,
      "country_id": 213
    }
  ]
}
