{
  "locale": "ar",
  "country": {
    "id": 174,
    "code": "PH",
    "iso3": "PHL",
    "numeric_code": "608",
    "name": "فيلبيني",
    "name_default": "Philippines",
    "native": "Pilipinas",
    "capital": "Manila",
    "phonecode": "63",
    "currency": "PHP",
    "currency_name": "Philippine peso",
    "currency_symbol": "₱",
    "tld": ".ph",
    "population": 114123600,
    "gdp": 497495,
    "region": "Asia",
    "region_id": 3,
    "subregion": "South-Eastern Asia",
    "subregion_id": 13,
    "nationality": "Philippine, Filipino",
    "timezones": [
      {
        "zoneName": "Asia/Manila",
        "gmtOffset": 28800,
        "gmtOffsetName": "UTC+08:00",
        "abbreviation": "PHT",
        "tzName": "Philippine Time"
      }
    ],
    "latitude": "13.00000000",
    "longitude": "122.00000000",
    "emoji": "🇵🇭",
    "emojiU": "U+1F1F5 U+1F1ED"
  },
  "state": {
    "id": 1344,
    "code": "BAN",
    "iso2": "BAN",
    "iso3166_2": "PH-BAN",
    "fips_code": "07",
    "name": "باتان",
    "name_default": "Bataan",
    "native": "Bataan",
    "type": "province",
    "level": "1",
    "parent_id": "1345",
    "population": 891440,
    "latitude": "14.64360310",
    "longitude": "120.46576220",
    "timezone": "Asia/Manila",
    "wikiDataId": "Q13739",
    "country_code": "PH"
  },
  "cities": [
    {
      "id": 81126,
      "name": "أباكا",
      "name_default": "Abaca",
      "native": "Abaca",
      "type": "city",
      "level": null,
      "parent_id": null,
      "population": 2139,
      "latitude": "9.92040000",
      "longitude": "124.50510000",
      "timezone": "Asia/Manila",
      "wikiDataId": "Q31460863",
      "country_code": "PH",
      "state_code": "BAN",
      "state_id": 1344,
      "country_id": 174
    },
    {
      "id": 81131,
      "name": "أبيس",
      "name_default": "Abis",
      "native": "Abis",
      "type": "city",
      "level": null,
      "parent_id": null,
      "population": 2603,
      "latitude": "9.71730000",
      "longitude": "122.94380000",
      "timezone": "Asia/Manila",
      "wikiDataId": "Q31461082",
      "country_code": "PH",
      "state_code": "BAN",
      "state_id": 1344,
      "country_id": 174
    },
    {
      "id": 81136,
      "name": "أبوكايان",
      "name_default": "Abucayan",
      "native": "Abucayan",
      "type": "city",
      "level": null,
      "parent_id": null,
      "population": 2204,
      "latitude": "9.92900000",
      "longitude": "123.91460000",
      "timezone": "Asia/Manila",
      "wikiDataId": "Q31461262",
      "country_code": "PH",
      "state_code": "BAN",
      "state_id": 1344,
      "country_id": 174
    },
    {
      "id": 81146,
      "name": "أدلاون",
      "name_default": "Adlaon",
      "native": "Adlaon",
      "type": "city",
      "level": null,
      "parent_id": null,
      "population": 4028,
      "latitude": "10.30000000",
      "longitude": "123.90000000",
      "timezone": "Asia/Manila",
      "wikiDataId": "Q31461749",
      "country_code": "PH",
      "state_code": "BAN",
      "state_id": 1344,
      "country_id": 174
    },
    {
      "id": 81166,
      "name": "أغسونغوت",
      "name_default": "Agsungot",
      "native": "Aggid",
      "type": "city",
      "level": null,
      "parent_id": null,
      "population": 2290,
      "latitude": "10.43444000",
      "longitude": "123.90611000",
      "timezone": "Asia/Manila",
      "wikiDataId": "Q31462379",
      "country_code": "PH",
      "state_code": "BAN",
      "state_id": 1344,
      "country_id": 174
    },
    {
      "id": 81169,
      "name": "أغوينينج",
      "name_default": "Aguining",
      "native": "Aguining",
      "type": "city",
      "level": null,
      "parent_id": null,
      "population": 2175,
      "latitude": "10.08610000",
      "longitude": "124.59440000",
      "timezone": "Asia/Manila",
      "wikiDataId": "Q31462473",
      "country_code": "PH",
      "state_code": "BAN",
      "state_id": 1344,
      "country_id": 174
    },
    {
      "id": 81187,
      "name": "ألانجيلان",
      "name_default": "Alangilan",
      "native": "Alangilan",
      "type": "city",
      "level": null,
      "parent_id": null,
      "population": 4613,
      "latitude": "9.27930000",
      "longitude": "122.87890000",
      "timezone": "Asia/Manila",
      "wikiDataId": "Q31463224",
      "country_code": "PH",
      "state_code": "BAN",
      "state_id": 1344,
      "country_id": 174
    },
    {
      "id": 81188,
      "name": "ألانجيلانان",
      "name_default": "Alangilanan",
      "native": "For example",
      "type": "city",
      "level": null,
      "parent_id": null,
      "population": 2365,
      "latitude": "9.64200000",
      "longitude": "123.10590000",
      "timezone": "Asia/Manila",
      "wikiDataId": "Q31463238",
      "country_code": "PH",
      "state_code": "BAN",
      "state_id": 1344,
      "country_id": 174
    },
    {
      "id": 81193,
      "name": "ألبوركيركي",
      "name_default": "Alburquerque",
      "native": "Alburquerque",
      "type": "adm3",
      "level": null,
      "parent_id": null,
      "population": 2730,
      "latitude": "9.60806000",
      "longitude": "123.95806000",
      "timezone": "Asia/Manila",
      "wikiDataId": "Q404369",
      "country_code": "PH",
      "state_code": "BAN",
      "state_id": 1344,
      "country_id": 174
    },
    {
      "id": 81231,
      "name": "الألباكو",
      "name_default": "Alpaco",
      "native": "Alpaco",
      "type": "city",
      "level": null,
      "parent_id": null,
      "population": 2599,
      "latitude": "10.24378000",
      "longitude": "123.68250000",
      "timezone": "Asia/Manila",
      "wikiDataId": "Q31464869",
      "country_code": "PH",
      "state_code": "BAN",
      "state_id": 1344,
      "country_id": 174
    },
    {
      "id": 81246,
      "name": "أمدوس",
      "name_default": "Amdos",
      "native": "Amdos",
      "type": "city",
      "level": null,
      "parent_id": null,
      "population": 2247,
      "latitude": "9.88210000",
      "longitude": "123.09720000",
      "timezone": "Asia/Manila",
      "wikiDataId": "Q31465525",
      "country_code": "PH",
      "state_code": "BAN",
      "state_id": 1344,
      "country_id": 174
    },
    {
      "id": 81247,
      "name": "أميو",
      "name_default": "Amio",
      "native": "Behavior",
      "type": "city",
      "level": null,
      "parent_id": null,
      "population": 2349,
      "latitude": "9.35710000",
      "longitude": "122.94130000",
      "timezone": "Asia/Manila",
      "wikiDataId": "Q31465632",
      "country_code": "PH",
      "state_code": "BAN",
      "state_id": 1344,
      "country_id": 174
    },
    {
      "id": 81275,
      "name": "أنونانغ",
      "name_default": "Anonang",
      "native": "Anonang",
      "type": "city",
      "level": null,
      "parent_id": null,
      "population": 5660,
      "latitude": "11.00000000",
      "longitude": "124.03333000",
      "timezone": "Asia/Manila",
      "wikiDataId": "Q31466932",
      "country_code": "PH",
      "state_code": "BAN",
      "state_id": 1344,
      "country_id": 174
    },
    {
      "id": 81276,
      "name": "أنوبوج",
      "name_default": "Anopog",
      "native": "Anopy",
      "type": "city",
      "level": null,
      "parent_id": null,
      "population": 2700,
      "latitude": "10.25000000",
      "longitude": "123.25000000",
      "timezone": "Asia/Manila",
      "wikiDataId": "Q31466943",
      "country_code": "PH",
      "state_code": "BAN",
      "state_id": 1344,
      "country_id": 174
    },
    {
      "id": 81279,
      "name": "أنتقيرة",
      "name_default": "Antequera",
      "native": "Antequera",
      "type": "adm3",
      "level": null,
      "parent_id": null,
      "population": 0,
      "latitude": "9.78090000",
      "longitude": "123.89880000",
      "timezone": "Asia/Manila",
      "wikiDataId": "Q404459",
      "country_code": "PH",
      "state_code": "BAN",
      "state_id": 1344,
      "country_id": 174
    },
    {
      "id": 81293,
      "name": "أباس",
      "name_default": "Apas",
      "native": "APAS",
      "type": "city",
      "level": null,
      "parent_id": null,
      "population": 22566,
      "latitude": "10.34076000",
      "longitude": "123.90261000",
      "timezone": "Asia/Manila",
      "wikiDataId": "Q43517",
      "country_code": "PH",
      "state_code": "BAN",
      "state_id": 1344,
      "country_id": 174
    },
    {
      "id": 81298,
      "name": "أبويا",
      "name_default": "Apoya",
      "native": "Support",
      "type": "city",
      "level": null,
      "parent_id": null,
      "population": 2127,
      "latitude": "9.22070000",
      "longitude": "122.90530000",
      "timezone": "Asia/Manila",
      "wikiDataId": "Q31467878",
      "country_code": "PH",
      "state_code": "BAN",
      "state_id": 1344,
      "country_id": 174
    },
    {
      "id": 81328,
      "name": "أعلى-أعلى",
      "name_default": "Atop-atop",
      "native": "Atop-atop",
      "type": "city",
      "level": null,
      "parent_id": null,
      "population": 2844,
      "latitude": "11.23220000",
      "longitude": "123.76020000",
      "timezone": "Asia/Manila",
      "wikiDataId": "Q31470242",
      "country_code": "PH",
      "state_code": "BAN",
      "state_id": 1344,
      "country_id": 174
    },
    {
      "id": 81344,
      "name": "أزاجرا",
      "name_default": "Azagra",
      "native": "Azagra",
      "type": "city",
      "level": null,
      "parent_id": null,
      "population": 4688,
      "latitude": "9.47790000",
      "longitude": "123.13670000",
      "timezone": "Asia/Manila",
      "wikiDataId": "Q31471600",
      "country_code": "PH",
      "state_code": "BAN",
      "state_id": 1344,
      "country_id": 174
    },
    {
      "id": 81357,
      "name": "باشوان",
      "name_default": "Bachauan",
      "native": "Hook",
      "type": "city",
      "level": null,
      "parent_id": null,
      "population": 2661,
      "latitude": "11.20670000",
      "longitude": "123.96340000",
      "timezone": "Asia/Manila",
      "wikiDataId": "Q31473047",
      "country_code": "PH",
      "state_code": "BAN",
      "state_id": 1344,
      "country_id": 174
    },
    {
      "id": 81358,
      "name": "باكلايون",
      "name_default": "Baclayon",
      "native": "Baclayon",
      "type": "adm3",
      "level": null,
      "parent_id": null,
      "population": 0,
      "latitude": "9.62639000",
      "longitude": "123.89417000",
      "timezone": "Asia/Manila",
      "wikiDataId": "Q404489",
      "country_code": "PH",
      "state_code": "BAN",
      "state_id": 1344,
      "country_id": 174
    },
    {
      "id": 81386,
      "name": "باجاكاي",
      "name_default": "Bagacay",
      "native": "Bagacay",
      "type": "city",
      "level": null,
      "parent_id": null,
      "population": 2190,
      "latitude": "9.86640000",
      "longitude": "123.91800000",
      "timezone": "Asia/Manila",
      "wikiDataId": "Q31474762",
      "country_code": "PH",
      "state_code": "BAN",
      "state_id": 1344,
      "country_id": 174
    },
    {
      "id": 81394,
      "name": "باجاي",
      "name_default": "Bagay",
      "native": "Thing",
      "type": "city",
      "level": null,
      "parent_id": null,
      "population": 4549,
      "latitude": "11.19640000",
      "longitude": "124.03500000",
      "timezone": "Asia/Manila",
      "wikiDataId": "Q31475294",
      "country_code": "PH",
      "state_code": "BAN",
      "state_id": 1344,
      "country_id": 174
    },
    {
      "id": 81405,
      "name": "باجيتيك",
      "name_default": "Bagtic",
      "native": "Bagtic",
      "type": "city",
      "level": null,
      "parent_id": null,
      "population": 3835,
      "latitude": "9.68640000",
      "longitude": "123.01220000",
      "timezone": "Asia/Manila",
      "wikiDataId": "Q31475740",
      "country_code": "PH",
      "state_code": "BAN",
      "state_id": 1344,
      "country_id": 174
    },
    {
      "id": 81422,
      "name": "بايران",
      "name_default": "Bairan",
      "native": "Bairan",
      "type": "city",
      "level": null,
      "parent_id": null,
      "population": 4298,
      "latitude": "10.19718000",
      "longitude": "123.72710000",
      "timezone": "Asia/Manila",
      "wikiDataId": "Q31476767",
      "country_code": "PH",
      "state_code": "BAN",
      "state_id": 1344,
      "country_id": 174
    },
    {
      "id": 81428,
      "name": "بال-أوس",
      "name_default": "Bal-os",
      "native": "Bal them",
      "type": "city",
      "level": null,
      "parent_id": null,
      "population": 3206,
      "latitude": "9.44160000",
      "longitude": "122.62570000",
      "timezone": "Asia/Manila",
      "wikiDataId": "Q31477483",
      "country_code": "PH",
      "state_code": "BAN",
      "state_id": 1344,
      "country_id": 174
    },
    {
      "id": 81457,
      "name": "بالايونغ",
      "name_default": "Balayong",
      "native": "lumber-producing tree",
      "type": "city",
      "level": null,
      "parent_id": null,
      "population": 2469,
      "latitude": "9.47440000",
      "longitude": "123.06230000",
      "timezone": "Asia/Manila",
      "wikiDataId": "Q31478887",
      "country_code": "PH",
      "state_code": "BAN",
      "state_id": 1344,
      "country_id": 174
    },
    {
      "id": 81471,
      "name": "باليليهان",
      "name_default": "Balilihan",
      "native": "turf",
      "type": "adm3",
      "level": null,
      "parent_id": null,
      "population": 2931,
      "latitude": "9.75610000",
      "longitude": "123.97300000",
      "timezone": "Asia/Manila",
      "wikiDataId": "Q404519",
      "country_code": "PH",
      "state_code": "BAN",
      "state_id": 1344,
      "country_id": 174
    },
    {
      "id": 81492,
      "name": "بالوغو",
      "name_default": "Balogo",
      "native": "Witches",
      "type": "city",
      "level": null,
      "parent_id": null,
      "population": 3308,
      "latitude": "10.11480000",
      "longitude": "123.17060000",
      "timezone": "Asia/Manila",
      "wikiDataId": "Q31481551",
      "country_code": "PH",
      "state_code": "BAN",
      "state_id": 1344,
      "country_id": 174
    },
    {
      "id": 81536,
      "name": "بانيجان",
      "name_default": "Banhigan",
      "native": "Banhigan",
      "type": "city",
      "level": null,
      "parent_id": null,
      "population": 2596,
      "latitude": "9.85903000",
      "longitude": "123.38926000",
      "timezone": "Asia/Manila",
      "wikiDataId": "Q31483843",
      "country_code": "PH",
      "state_code": "BAN",
      "state_id": 1344,
      "country_id": 174
    },
    {
      "id": 81539,
      "name": "بنيالاد",
      "name_default": "Banilad",
      "native": "Banilad",
      "type": "city",
      "level": null,
      "parent_id": null,
      "population": 2690,
      "latitude": "9.27860000",
      "longitude": "123.29360000",
      "timezone": "Asia/Manila",
      "wikiDataId": "Q31484008",
      "country_code": "PH",
      "state_code": "BAN",
      "state_id": 1344,
      "country_id": 174
    },
    {
      "id": 81594,
      "name": "باساك",
      "name_default": "Basak",
      "native": "Başak",
      "type": "city",
      "level": null,
      "parent_id": null,
      "population": 3781,
      "latitude": "10.22640000",
      "longitude": "123.30640000",
      "timezone": "Asia/Manila",
      "wikiDataId": "Q31488165",
      "country_code": "PH",
      "state_code": "BAN",
      "state_id": 1344,
      "country_id": 174
    },
    {
      "id": 81599,
      "name": "باسديوت",
      "name_default": "Basdiot",
      "native": "Basdiot",
      "type": "city",
      "level": null,
      "parent_id": null,
      "population": 4015,
      "latitude": "9.94718000",
      "longitude": "123.37515000",
      "timezone": "Asia/Manila",
      "wikiDataId": "Q31488566",
      "country_code": "PH",
      "state_code": "BAN",
      "state_id": 1344,
      "country_id": 174
    },
    {
      "id": 81622,
      "name": "بطارية",
      "name_default": "Bateria",
      "native": "Battery",
      "type": "city",
      "level": null,
      "parent_id": null,
      "population": 3664,
      "latitude": "11.14160000",
      "longitude": "124.02670000",
      "timezone": "Asia/Manila",
      "wikiDataId": "Q31490267",
      "country_code": "PH",
      "state_code": "BAN",
      "state_id": 1344,
      "country_id": 174
    },
    {
      "id": 81643,
      "name": "بود",
      "name_default": "Baud",
      "native": "Baud",
      "type": "city",
      "level": null,
      "parent_id": null,
      "population": 3059,
      "latitude": "11.21110000",
      "longitude": "123.70310000",
      "timezone": "Asia/Manila",
      "wikiDataId": "Q31796455",
      "country_code": "PH",
      "state_code": "BAN",
      "state_id": 1344,
      "country_id": 174
    },
    {
      "id": 81644,
      "name": "باوغو",
      "name_default": "Baugo",
      "native": "Baugo",
      "type": "city",
      "level": null,
      "parent_id": null,
      "population": 2261,
      "latitude": "10.31745000",
      "longitude": "123.91900000",
      "timezone": "Asia/Manila",
      "wikiDataId": "Q31796455",
      "country_code": "PH",
      "state_code": "BAN",
      "state_id": 1344,
      "country_id": 174
    },
    {
      "id": 81673,
      "name": "بيسيريل",
      "name_default": "Becerril",
      "native": "Becerril",
      "type": "city",
      "level": null,
      "parent_id": null,
      "population": 2417,
      "latitude": "9.65310000",
      "longitude": "123.43440000",
      "timezone": "Asia/Manila",
      "wikiDataId": "Q31494370",
      "country_code": "PH",
      "state_code": "BAN",
      "state_id": 1344,
      "country_id": 174
    },
    {
      "id": 81681,
      "name": "بياباس",
      "name_default": "Biabas",
      "native": "Biabas",
      "type": "city",
      "level": null,
      "parent_id": null,
      "population": 2381,
      "latitude": "9.80000000",
      "longitude": "124.46667000",
      "timezone": "Asia/Manila",
      "wikiDataId": "Q31498161",
      "country_code": "PH",
      "state_code": "BAN",
      "state_id": 1344,
      "country_id": 174
    },
    {
      "id": 81685,
      "name": "بياسونغ",
      "name_default": "Biasong",
      "native": "Biasong",
      "type": "city",
      "level": null,
      "parent_id": null,
      "population": 2163,
      "latitude": "10.52290000",
      "longitude": "123.73600000",
      "timezone": "Asia/Manila",
      "wikiDataId": "Q31498289",
      "country_code": "PH",
      "state_code": "BAN",
      "state_id": 1344,
      "country_id": 174
    },
    {
      "id": 81690,
      "name": "Bien Unido",
      "name_default": "Bien Unido",
      "native": "Well united",
      "type": "city",
      "level": null,
      "parent_id": null,
      "population": 5304,
      "latitude": "10.13729000",
      "longitude": "124.37761000",
      "timezone": "Asia/Manila",
      "wikiDataId": "Q404581",
      "country_code": "PH",
      "state_code": "BAN",
      "state_id": 1344,
      "country_id": 174
    },
    {
      "id": 81697,
      "name": "ركوب الدراجات",
      "name_default": "Biking",
      "native": "Biking",
      "type": "city",
      "level": null,
      "parent_id": null,
      "population": 2907,
      "latitude": "9.59382000",
      "longitude": "123.84303000",
      "timezone": "Asia/Manila",
      "wikiDataId": "Q31500925",
      "country_code": "PH",
      "state_code": "BAN",
      "state_id": 1344,
      "country_id": 174
    },
    {
      "id": 81701,
      "name": "بيلار",
      "name_default": "Bilar",
      "native": "Cars",
      "type": "adm3",
      "level": null,
      "parent_id": null,
      "population": 0,
      "latitude": "9.70825000",
      "longitude": "124.10717000",
      "timezone": "Asia/Manila",
      "wikiDataId": "Q404604",
      "country_code": "PH",
      "state_code": "BAN",
      "state_id": 1344,
      "country_id": 174
    },
    {
      "id": 81723,
      "name": "بينلود",
      "name_default": "Binlod",
      "native": "mush",
      "type": "city",
      "level": null,
      "parent_id": null,
      "population": 2941,
      "latitude": "9.91845000",
      "longitude": "123.60743000",
      "timezone": "Asia/Manila",
      "wikiDataId": "Q31796544",
      "country_code": "PH",
      "state_code": "BAN",
      "state_id": 1344,
      "country_id": 174
    },
    {
      "id": 81745,
      "name": "بيتون",
      "name_default": "Biton",
      "native": "shoe polish",
      "type": "section",
      "level": null,
      "parent_id": null,
      "population": 4273,
      "latitude": "11.23279000",
      "longitude": "123.99930000",
      "timezone": "Asia/Manila",
      "wikiDataId": "Q31503957",
      "country_code": "PH",
      "state_code": "BAN",
      "state_id": 1344,
      "country_id": 174
    },
    {
      "id": 81746,
      "name": "بيتون",
      "name_default": "Bitoon",
      "native": "stars",
      "type": "city",
      "level": null,
      "parent_id": null,
      "population": 2395,
      "latitude": "10.08040000",
      "longitude": "123.45870000",
      "timezone": "Asia/Manila",
      "wikiDataId": "Q31504138",
      "country_code": "PH",
      "state_code": "BAN",
      "state_id": 1344,
      "country_id": 174
    },
    {
      "id": 81763,
      "name": "بوهول",
      "name_default": "Bohol",
      "native": "Bohol",
      "type": "city",
      "level": null,
      "parent_id": null,
      "population": 2191,
      "latitude": "9.83333000",
      "longitude": "124.16667000",
      "timezone": "Asia/Manila",
      "wikiDataId": "Q13752",
      "country_code": "PH",
      "state_code": "BAN",
      "state_id": 1344,
      "country_id": 174
    },
    {
      "id": 81772,
      "name": "بوليسونغ",
      "name_default": "Bolisong",
      "native": "In mind",
      "type": "city",
      "level": null,
      "parent_id": null,
      "population": 2802,
      "latitude": "9.69111000",
      "longitude": "123.15167000",
      "timezone": "Asia/Manila",
      "wikiDataId": "Q31508587",
      "country_code": "PH",
      "state_code": "BAN",
      "state_id": 1344,
      "country_id": 174
    },
    {
      "id": 81783,
      "name": "بوناون",
      "name_default": "Bonawon",
      "native": "Ban",
      "type": "city",
      "level": null,
      "parent_id": null,
      "population": 9189,
      "latitude": "9.13400000",
      "longitude": "122.91930000",
      "timezone": "Asia/Manila",
      "wikiDataId": "Q31509073",
      "country_code": "PH",
      "state_code": "BAN",
      "state_id": 1344,
      "country_id": 174
    },
    {
      "id": 81784,
      "name": "بونبون",
      "name_default": "Bonbon",
      "native": "Cookie",
      "type": "city",
      "level": null,
      "parent_id": null,
      "population": 6122,
      "latitude": "10.22450000",
      "longitude": "123.55730000",
      "timezone": "Asia/Manila",
      "wikiDataId": "Q31509109",
      "country_code": "PH",
      "state_code": "BAN",
      "state_id": 1344,
      "country_id": 174
    },
    {
      "id": 81794,
      "name": "بود",
      "name_default": "Bood",
      "native": "Bidding",
      "type": "city",
      "level": null,
      "parent_id": null,
      "population": 2320,
      "latitude": "9.74508000",
      "longitude": "123.82783000",
      "timezone": "Asia/Manila",
      "wikiDataId": "Q31509765",
      "country_code": "PH",
      "state_code": "BAN",
      "state_id": 1344,
      "country_id": 174
    },
    {
      "id": 81803,
      "name": "متاجر صغيرة",
      "name_default": "Botigues",
      "native": "Store",
      "type": "city",
      "level": null,
      "parent_id": null,
      "population": 2959,
      "latitude": "11.09950000",
      "longitude": "123.66750000",
      "timezone": "Asia/Manila",
      "wikiDataId": "Q31510308",
      "country_code": "PH",
      "state_code": "BAN",
      "state_id": 1344,
      "country_id": 174
    },
    {
      "id": 81815,
      "name": "بواجسونج",
      "name_default": "Buagsong",
      "native": "Buagong",
      "type": "section",
      "level": null,
      "parent_id": null,
      "population": 2436,
      "latitude": "10.25302000",
      "longitude": "123.93909000",
      "timezone": "Asia/Manila",
      "wikiDataId": "Q31514426",
      "country_code": "PH",
      "state_code": "BAN",
      "state_id": 1344,
      "country_id": 174
    },
    {
      "id": 81820,
      "name": "بوانو",
      "name_default": "Buanoy",
      "native": "Buese",
      "type": "city",
      "level": null,
      "parent_id": null,
      "population": 12057,
      "latitude": "10.46746000",
      "longitude": "123.69990000",
      "timezone": "Asia/Manila",
      "wikiDataId": "Q31514603",
      "country_code": "PH",
      "state_code": "BAN",
      "state_id": 1344,
      "country_id": 174
    },
    {
      "id": 81842,
      "name": "بوغاس",
      "name_default": "Bugas",
      "native": "rice",
      "type": "city",
      "level": null,
      "parent_id": null,
      "population": 2666,
      "latitude": "9.89804000",
      "longitude": "123.40492000",
      "timezone": "Asia/Manila",
      "wikiDataId": "Q31516446",
      "country_code": "PH",
      "state_code": "BAN",
      "state_id": 1344,
      "country_id": 174
    },
    {
      "id": 81849,
      "name": "بوجسوك",
      "name_default": "Bugsoc",
      "native": "Bugsoc",
      "type": "city",
      "level": null,
      "parent_id": null,
      "population": 2542,
      "latitude": "9.78340000",
      "longitude": "124.27120000",
      "timezone": "Asia/Manila",
      "wikiDataId": "Q31516649",
      "country_code": "PH",
      "state_code": "BAN",
      "state_id": 1344,
      "country_id": 174
    },
    {
      "id": 81869,
      "name": "بولاسا",
      "name_default": "Bulasa",
      "native": "Bulls",
      "type": "city",
      "level": null,
      "parent_id": null,
      "population": 3943,
      "latitude": "9.93206000",
      "longitude": "123.61802000",
      "timezone": "Asia/Manila",
      "wikiDataId": "Q31517497",
      "country_code": "PH",
      "state_code": "BAN",
      "state_id": 1344,
      "country_id": 174
    },
    {
      "id": 81882,
      "name": "بولود",
      "name_default": "Bulod",
      "native": "Bulod",
      "type": "city",
      "level": null,
      "parent_id": null,
      "population": 2140,
      "latitude": "9.68333000",
      "longitude": "123.15000000",
      "timezone": "Asia/Manila",
      "wikiDataId": "Q31518196",
      "country_code": "PH",
      "state_code": "BAN",
      "state_id": 1344,
      "country_id": 174
    },
    {
      "id": 81941,
      "name": "الكابالاوان",
      "name_default": "Cabalawan",
      "native": "Cabalawan",
      "type": "city",
      "level": null,
      "parent_id": null,
      "population": 2829,
      "latitude": "10.74139000",
      "longitude": "123.95250000",
      "timezone": "Asia/Manila",
      "wikiDataId": "Q31522551",
      "country_code": "PH",
      "state_code": "BAN",
      "state_id": 1344,
      "country_id": 174
    },
    {
      "id": 81947,
      "name": "كابانغاهان",
      "name_default": "Cabangahan",
      "native": "Cabanahan",
      "type": "city",
      "level": null,
      "parent_id": null,
      "population": 3861,
      "latitude": "9.07810000",
      "longitude": "122.94690000",
      "timezone": "Asia/Manila",
      "wikiDataId": "Q31522833",
      "country_code": "PH",
      "state_code": "BAN",
      "state_id": 1344,
      "country_id": 174
    },
    {
      "id": 81981,
      "name": "كابول-آن",
      "name_default": "Cabul-an",
      "native": "Cabul-an",
      "type": "city",
      "level": null,
      "parent_id": null,
      "population": 3850,
      "latitude": "10.15684000",
      "longitude": "124.04397000",
      "timezone": "Asia/Manila",
      "wikiDataId": "Q31524093",
      "country_code": "PH",
      "state_code": "BAN",
      "state_id": 1344,
      "country_id": 174
    },
    {
      "id": 82031,
      "name": "كالاب",
      "name_default": "Calape",
      "native": "Calape",
      "type": "adm3",
      "level": null,
      "parent_id": null,
      "population": 3367,
      "latitude": "9.89220000",
      "longitude": "123.87480000",
      "timezone": "Asia/Manila",
      "wikiDataId": "Q404652",
      "country_code": "PH",
      "state_code": "BAN",
      "state_id": 1344,
      "country_id": 174
    },
    {
      "id": 82048,
      "name": "كالرو",
      "name_default": "Calero",
      "native": "Calero",
      "type": "city",
      "level": null,
      "parent_id": null,
      "population": 3232,
      "latitude": "10.37331000",
      "longitude": "123.99786000",
      "timezone": "Asia/Manila",
      "wikiDataId": "Q31528001",
      "country_code": "PH",
      "state_code": "BAN",
      "state_id": 1344,
      "country_id": 174
    },
    {
      "id": 82051,
      "name": "كاليدنجان",
      "name_default": "Calidñgan",
      "native": "Calidngan",
      "type": "city",
      "level": null,
      "parent_id": null,
      "population": 3258,
      "latitude": "10.10000000",
      "longitude": "123.63333000",
      "timezone": "Asia/Manila",
      "wikiDataId": "Q31528189",
      "country_code": "PH",
      "state_code": "BAN",
      "state_id": 1344,
      "country_id": 174
    },
    {
      "id": 82057,
      "name": "كاليتوبان",
      "name_default": "Calituban",
      "native": "Calituban",
      "type": "city",
      "level": null,
      "parent_id": null,
      "population": 3950,
      "latitude": "10.23995000",
      "longitude": "124.29190000",
      "timezone": "Asia/Manila",
      "wikiDataId": "Q274713",
      "country_code": "PH",
      "state_code": "BAN",
      "state_id": 1344,
      "country_id": 174
    },
    {
      "id": 82069,
      "name": "كالومبويان",
      "name_default": "Calumboyan",
      "native": "Calumboyan",
      "type": "city",
      "level": null,
      "parent_id": null,
      "population": 2339,
      "latitude": "10.79129000",
      "longitude": "124.02749000",
      "timezone": "Asia/Manila",
      "wikiDataId": "Q31528830",
      "country_code": "PH",
      "state_code": "BAN",
      "state_id": 1344,
      "country_id": 174
    },
    {
      "id": 82082,
      "name": "كامامبوجان",
      "name_default": "Camambugan",
      "native": "Camambugan",
      "type": "city",
      "level": null,
      "parent_id": null,
      "population": 2591,
      "latitude": "10.05844000",
      "longitude": "124.43811000",
      "timezone": "Asia/Manila",
      "wikiDataId": "Q31529407",
      "country_code": "PH",
      "state_code": "BAN",
      "state_id": 1344,
      "country_id": 174
    },
    {
      "id": 82085,
      "name": "كامباناي",
      "name_default": "Cambanay",
      "native": "Cambanay",
      "type": "city",
      "level": null,
      "parent_id": null,
      "population": 2658,
      "latitude": "10.54361000",
      "longitude": "123.98611000",
      "timezone": "Asia/Manila",
      "wikiDataId": "Q31529678",
      "country_code": "PH",
      "state_code": "BAN",
      "state_id": 1344,
      "country_id": 174
    },
    {
      "id": 82095,
      "name": "كامبويو",
      "name_default": "Campoyo",
      "native": "Campoyo",
      "type": "city",
      "level": null,
      "parent_id": null,
      "population": 2794,
      "latitude": "9.65640000",
      "longitude": "123.14790000",
      "timezone": "Asia/Manila",
      "wikiDataId": "Q31811284",
      "country_code": "PH",
      "state_code": "BAN",
      "state_id": 1344,
      "country_id": 174
    },
    {
      "id": 82096,
      "name": "كامبوسونغ",
      "name_default": "Campusong",
      "native": "Campusong",
      "type": "city",
      "level": null,
      "parent_id": null,
      "population": 2344,
      "latitude": "10.81583000",
      "longitude": "124.03222000",
      "timezone": "Asia/Manila",
      "wikiDataId": "Q31530812",
      "country_code": "PH",
      "state_code": "BAN",
      "state_id": 1344,
      "country_id": 174
    },
    {
      "id": 82099,
      "name": "كان-أسوجان",
      "name_default": "Can-asujan",
      "native": "Canist",
      "type": "city",
      "level": null,
      "parent_id": null,
      "population": 6994,
      "latitude": "10.12990000",
      "longitude": "123.65740000",
      "timezone": "Asia/Manila",
      "wikiDataId": "Q31530908",
      "country_code": "PH",
      "state_code": "BAN",
      "state_id": 1344,
      "country_id": 174
    },
    {
      "id": 82103,
      "name": "كانواي",
      "name_default": "Canauay",
      "native": "Canauay",
      "type": "city",
      "level": null,
      "parent_id": null,
      "population": 3712,
      "latitude": "9.06510000",
      "longitude": "123.05240000",
      "timezone": "Asia/Manila",
      "wikiDataId": "Q31531316",
      "country_code": "PH",
      "state_code": "BAN",
      "state_id": 1344,
      "country_id": 174
    },
    {
      "id": 82106,
      "name": "كاندابونج",
      "name_default": "Candabong",
      "native": "Candabong",
      "type": "city",
      "level": null,
      "parent_id": null,
      "population": 2399,
      "latitude": "9.73430000",
      "longitude": "124.53830000",
      "timezone": "Asia/Manila",
      "wikiDataId": "Q31531572",
      "country_code": "PH",
      "state_code": "BAN",
      "state_id": 1344,
      "country_id": 174
    },
    {
      "id": 82111,
      "name": "كانديجاي",
      "name_default": "Candijay",
      "native": "Candijayy",
      "type": "adm3",
      "level": null,
      "parent_id": null,
      "population": 4125,
      "latitude": "9.81820000",
      "longitude": "124.49770000",
      "timezone": "Asia/Manila",
      "wikiDataId": "Q404680",
      "country_code": "PH",
      "state_code": "BAN",
      "state_id": 1344,
      "country_id": 174
    },
    {
      "id": 82115,
      "name": "كانهاواي",
      "name_default": "Canhaway",
      "native": "Canhaway",
      "type": "city",
      "level": null,
      "parent_id": null,
      "population": 3371,
      "latitude": "9.75010000",
      "longitude": "124.47220000",
      "timezone": "Asia/Manila",
      "wikiDataId": "Q31532018",
      "country_code": "PH",
      "state_code": "BAN",
      "state_id": 1344,
      "country_id": 174
    },
    {
      "id": 82117,
      "name": "كانجولاو",
      "name_default": "Canjulao",
      "native": "Canjulao",
      "type": "city",
      "level": null,
      "parent_id": null,
      "population": 2870,
      "latitude": "9.66050000",
      "longitude": "124.35320000",
      "timezone": "Asia/Manila",
      "wikiDataId": "Q31532244",
      "country_code": "PH",
      "state_code": "BAN",
      "state_id": 1344,
      "country_id": 174
    },
    {
      "id": 82119,
      "name": "كانمايا ديوت",
      "name_default": "Canmaya Diot",
      "native": "I say canmaya",
      "type": "city",
      "level": null,
      "parent_id": null,
      "population": 2610,
      "latitude": "9.93840000",
      "longitude": "124.09420000",
      "timezone": "Asia/Manila",
      "wikiDataId": "Q31532292",
      "country_code": "PH",
      "state_code": "BAN",
      "state_id": 1344,
      "country_id": 174
    },
    {
      "id": 82124,
      "name": "كانسوجي",
      "name_default": "Cansuje",
      "native": "Cansuje",
      "type": "city",
      "level": null,
      "parent_id": null,
      "population": 2436,
      "latitude": "9.92314000",
      "longitude": "123.49629000",
      "timezone": "Asia/Manila",
      "wikiDataId": "Q31532526",
      "country_code": "PH",
      "state_code": "BAN",
      "state_id": 1344,
      "country_id": 174
    },
    {
      "id": 82125,
      "name": "كانتاو-آن",
      "name_default": "Cantao-an",
      "native": "Human",
      "type": "city",
      "level": null,
      "parent_id": null,
      "population": 4177,
      "latitude": "10.24258000",
      "longitude": "123.74960000",
      "timezone": "Asia/Manila",
      "wikiDataId": "Q31532526",
      "country_code": "PH",
      "state_code": "BAN",
      "state_id": 1344,
      "country_id": 174
    },
    {
      "id": 82166,
      "name": "كارميلو",
      "name_default": "Carmelo",
      "native": "Carmelo",
      "type": "city",
      "level": null,
      "parent_id": null,
      "population": 2168,
      "latitude": "10.70510000",
      "longitude": "123.79350000",
      "timezone": "Asia/Manila",
      "wikiDataId": "Q31534728",
      "country_code": "PH",
      "state_code": "BAN",
      "state_id": 1344,
      "country_id": 174
    },
    {
      "id": 82187,
      "name": "كاسالا-ان",
      "name_default": "Casala-an",
      "native": "Filna-an",
      "type": "city",
      "level": null,
      "parent_id": null,
      "population": 2875,
      "latitude": "9.11667000",
      "longitude": "123.05000000",
      "timezone": "Asia/Manila",
      "wikiDataId": "Q31536143",
      "country_code": "PH",
      "state_code": "BAN",
      "state_id": 1344,
      "country_id": 174
    },
    {
      "id": 82189,
      "name": "كاساي",
      "name_default": "Casay",
      "native": "Casay",
      "type": "city",
      "level": null,
      "parent_id": null,
      "population": 3596,
      "latitude": "9.82040000",
      "longitude": "123.54960000",
      "timezone": "Asia/Manila",
      "wikiDataId": "Q31536208",
      "country_code": "PH",
      "state_code": "BAN",
      "state_id": 1344,
      "country_id": 174
    },
    {
      "id": 82212,
      "name": "كاتيكوجان",
      "name_default": "Caticugan",
      "native": "Caticugan",
      "type": "city",
      "level": null,
      "parent_id": null,
      "population": 2558,
      "latitude": "9.10000000",
      "longitude": "123.00000000",
      "timezone": "Asia/Manila",
      "wikiDataId": "Q31537709",
      "country_code": "PH",
      "state_code": "BAN",
      "state_id": 1344,
      "country_id": 174
    },
    {
      "id": 82213,
      "name": "كاتيجبيان",
      "name_default": "Catigbian",
      "native": "Catigbian",
      "type": "adm3",
      "level": null,
      "parent_id": null,
      "population": 0,
      "latitude": "9.85010000",
      "longitude": "123.99940000",
      "timezone": "Asia/Manila",
      "wikiDataId": "Q404750",
      "country_code": "PH",
      "state_code": "BAN",
      "state_id": 1344,
      "country_id": 174
    },
    {
      "id": 82216,
      "name": "كاتموندان",
      "name_default": "Catmondaan",
      "native": "Catmondaan",
      "type": "city",
      "level": null,
      "parent_id": null,
      "population": 3086,
      "latitude": "10.68692000",
      "longitude": "124.01494000",
      "timezone": "Asia/Manila",
      "wikiDataId": "Q31537842",
      "country_code": "PH",
      "state_code": "BAN",
      "state_id": 1344,
      "country_id": 174
    },
    {
      "id": 82221,
      "name": "كاتونجاوان سور",
      "name_default": "Catungawan Sur",
      "native": "Catungawan Sur",
      "type": "city",
      "level": null,
      "parent_id": null,
      "population": 3342,
      "latitude": "9.78170000",
      "longitude": "124.46930000",
      "timezone": "Asia/Manila",
      "wikiDataId": "Q31538007",
      "country_code": "PH",
      "state_code": "BAN",
      "state_id": 1344,
      "country_id": 174
    },
    {
      "id": 82233,
      "name": "كايانغ",
      "name_default": "Cayang",
      "native": "Love",
      "type": "city",
      "level": null,
      "parent_id": null,
      "population": 6353,
      "latitude": "11.06667000",
      "longitude": "123.98333000",
      "timezone": "Asia/Manila",
      "wikiDataId": "Q31538834",
      "country_code": "PH",
      "state_code": "BAN",
      "state_id": 1344,
      "country_id": 174
    },
    {
      "id": 82253,
      "name": "كوجان",
      "name_default": "Cogan",
      "native": "Cogan",
      "type": "city",
      "level": null,
      "parent_id": null,
      "population": 60230,
      "latitude": "10.59306000",
      "longitude": "124.01778000",
      "timezone": "Asia/Manila",
      "wikiDataId": "Q31548513",
      "country_code": "PH",
      "state_code": "BAN",
      "state_id": 1344,
      "country_id": 174
    },
    {
      "id": 82254,
      "name": "كوجون",
      "name_default": "Cogon",
      "native": "Cogon",
      "type": "city",
      "level": null,
      "parent_id": null,
      "population": 2564,
      "latitude": "10.03720000",
      "longitude": "123.45390000",
      "timezone": "Asia/Manila",
      "wikiDataId": "Q31548640",
      "country_code": "PH",
      "state_code": "BAN",
      "state_id": 1344,
      "country_id": 174
    },
    {
      "id": 82257,
      "name": "كوجون كروز",
      "name_default": "Cogon Cruz",
      "native": "Cogon Cruz",
      "type": "city",
      "level": null,
      "parent_id": null,
      "population": 2901,
      "latitude": "10.50944000",
      "longitude": "123.96972000",
      "timezone": "Asia/Manila",
      "wikiDataId": "Q31548730",
      "country_code": "PH",
      "state_code": "BAN",
      "state_id": 1344,
      "country_id": 174
    },
    {
      "id": 82258,
      "name": "كوجتونج",
      "name_default": "Cogtong",
      "native": "Cogtong",
      "type": "city",
      "level": null,
      "parent_id": null,
      "population": 2496,
      "latitude": "9.83740000",
      "longitude": "124.52910000",
      "timezone": "Asia/Manila",
      "wikiDataId": "Q31548759",
      "country_code": "PH",
      "state_code": "BAN",
      "state_id": 1344,
      "country_id": 174
    },
    {
      "id": 82261,
      "name": "كولونيا",
      "name_default": "Colonia",
      "native": "Colonia",
      "type": "city",
      "level": null,
      "parent_id": null,
      "population": 2587,
      "latitude": "10.65530000",
      "longitude": "123.79110000",
      "timezone": "Asia/Manila",
      "wikiDataId": "Q31549999",
      "country_code": "PH",
      "state_code": "BAN",
      "state_id": 1344,
      "country_id": 174
    },
    {
      "id": 82285,
      "name": "كونسويلو",
      "name_default": "Consuelo",
      "native": "Consuelo",
      "type": "city",
      "level": null,
      "parent_id": null,
      "population": 4888,
      "latitude": "10.63480000",
      "longitude": "124.30100000",
      "timezone": "Asia/Manila",
      "wikiDataId": "Q31551953",
      "country_code": "PH",
      "state_code": "BAN",
      "state_id": 1344,
      "country_id": 174
    },
    {
      "id": 82293,
      "name": "كوريلا",
      "name_default": "Corella",
      "native": "Corella",
      "type": "adm3",
      "level": null,
      "parent_id": null,
      "population": 0,
      "latitude": "9.68750000",
      "longitude": "123.92180000",
      "timezone": "Asia/Manila",
      "wikiDataId": "Q404799",
      "country_code": "PH",
      "state_code": "BAN",
      "state_id": 1344,
      "country_id": 174
    },
    {
      "id": 82334,
      "name": "داغوهوي",
      "name_default": "Dagohoy",
      "native": "Dagohoy",
      "type": "adm3",
      "level": null,
      "parent_id": null,
      "population": 2741,
      "latitude": "9.90016000",
      "longitude": "124.28322000",
      "timezone": "Asia/Manila",
      "wikiDataId": "Q404854",
      "country_code": "PH",
      "state_code": "BAN",
      "state_id": 1344,
      "country_id": 174
    },
    {
      "id": 82362,
      "name": "دامولوج",
      "name_default": "Damolog",
      "native": "Damolog",
      "type": "city",
      "level": null,
      "parent_id": null,
      "population": 2946,
      "latitude": "10.77271000",
      "longitude": "124.00639000",
      "timezone": "Asia/Manila",
      "wikiDataId": "Q31560752",
      "country_code": "PH",
      "state_code": "BAN",
      "state_id": 1344,
      "country_id": 174
    },
    {
      "id": 82390,
      "name": "داتاجون",
      "name_default": "Datagon",
      "native": "Datagon",
      "type": "city",
      "level": null,
      "parent_id": null,
      "population": 2584,
      "latitude": "9.44610000",
      "longitude": "123.08910000",
      "timezone": "Asia/Manila",
      "wikiDataId": "Q31562401",
      "country_code": "PH",
      "state_code": "BAN",
      "state_id": 1344,
      "country_id": 174
    },
    {
      "id": 82394,
      "name": "داويس",
      "name_default": "Dauis",
      "native": "Dauis",
      "type": "adm3",
      "level": null,
      "parent_id": null,
      "population": 2553,
      "latitude": "9.62528000",
      "longitude": "123.86583000",
      "timezone": "Asia/Manila",
      "wikiDataId": "Q404908",
      "country_code": "PH",
      "state_code": "BAN",
      "state_id": 1344,
      "country_id": 174
    },
    {
      "id": 82403,
      "name": "دي لا باز",
      "name_default": "De la Paz",
      "native": "Of peace",
      "type": "city",
      "level": null,
      "parent_id": null,
      "population": 2948,
      "latitude": "9.70004000",
      "longitude": "123.86433000",
      "timezone": "Asia/Manila",
      "wikiDataId": "Q31563830",
      "country_code": "PH",
      "state_code": "BAN",
      "state_id": 1344,
      "country_id": 174
    },
    {
      "id": 82432,
      "name": "ديمياو",
      "name_default": "Dimiao",
      "native": "Dimiao",
      "type": "adm3",
      "level": null,
      "parent_id": null,
      "population": 0,
      "latitude": "9.60640000",
      "longitude": "124.16330000",
      "timezone": "Asia/Manila",
      "wikiDataId": "Q404930",
      "country_code": "PH",
      "state_code": "BAN",
      "state_id": 1344,
      "country_id": 174
    },
    {
      "id": 82449,
      "name": "دولجو",
      "name_default": "Doljo",
      "native": "They owi",
      "type": "city",
      "level": null,
      "parent_id": null,
      "population": 2760,
      "latitude": "9.58745000",
      "longitude": "123.73033000",
      "timezone": "Asia/Manila",
      "wikiDataId": "Q31569353",
      "country_code": "PH",
      "state_code": "BAN",
      "state_id": 1344,
      "country_id": 174
    },
    {
      "id": 82461,
      "name": "دونغ",
      "name_default": "Doong",
      "native": "Doong",
      "type": "city",
      "level": null,
      "parent_id": null,
      "population": 2922,
      "latitude": "11.07860000",
      "longitude": "123.63950000",
      "timezone": "Asia/Manila",
      "wikiDataId": "Q174192",
      "country_code": "PH",
      "state_code": "BAN",
      "state_id": 1344,
      "country_id": 174
    },
    {
      "id": 82469,
      "name": "دويرو",
      "name_default": "Duero",
      "native": "Duero",
      "type": "adm3",
      "level": null,
      "parent_id": null,
      "population": 0,
      "latitude": "9.70900000",
      "longitude": "124.40550000",
      "timezone": "Asia/Manila",
      "wikiDataId": "Q404951",
      "country_code": "PH",
      "state_code": "BAN",
      "state_id": 1344,
      "country_id": 174
    },
    {
      "id": 82488,
      "name": "دومانجوج",
      "name_default": "Dumanjog",
      "native": "Dumanjog",
      "type": "city",
      "level": null,
      "parent_id": null,
      "population": 3614,
      "latitude": "10.05700000",
      "longitude": "123.43610000",
      "timezone": "Asia/Manila",
      "wikiDataId": "Q316019",
      "country_code": "PH",
      "state_code": "BAN",
      "state_id": 1344,
      "country_id": 174
    },
    {
      "id": 82506,
      "name": "إل باردو",
      "name_default": "El Pardo",
      "native": "The brown",
      "type": "city",
      "level": null,
      "parent_id": null,
      "population": 3264,
      "latitude": "9.66000000",
      "longitude": "123.49440000",
      "timezone": "Asia/Manila",
      "wikiDataId": "Q31576346",
      "country_code": "PH",
      "state_code": "BAN",
      "state_id": 1344,
      "country_id": 174
    },
    {
      "id": 82518,
      "name": "إسبيرانزا",
      "name_default": "Esperanza",
      "native": "Esperanza",
      "type": "city",
      "level": null,
      "parent_id": null,
      "population": 5257,
      "latitude": "10.69950000",
      "longitude": "124.31430000",
      "timezone": "Asia/Manila",
      "wikiDataId": "Q31579115",
      "country_code": "PH",
      "state_code": "BAN",
      "state_id": 1344,
      "country_id": 174
    },
    {
      "id": 82525,
      "name": "إستاكا",
      "name_default": "Estaca",
      "native": "Stake",
      "type": "city",
      "level": null,
      "parent_id": null,
      "population": 2661,
      "latitude": "9.69330000",
      "longitude": "124.27220000",
      "timezone": "Asia/Manila",
      "wikiDataId": "Q39346",
      "country_code": "PH",
      "state_code": "BAN",
      "state_id": 1344,
      "country_id": 174
    },
    {
      "id": 82549,
      "name": "غابي",
      "name_default": "Gabi",
      "native": "Gabi",
      "type": "city",
      "level": null,
      "parent_id": null,
      "population": 2589,
      "latitude": "10.26306000",
      "longitude": "123.96139000",
      "timezone": "Asia/Manila",
      "wikiDataId": "Q31587597",
      "country_code": "PH",
      "state_code": "BAN",
      "state_id": 1344,
      "country_id": 174
    },
    {
      "id": 82570,
      "name": "جارسيا هيرنانديز",
      "name_default": "Garcia Hernandez",
      "native": "GARCIA HERNANDEZ",
      "type": "city",
      "level": null,
      "parent_id": null,
      "population": 2643,
      "latitude": "9.61440000",
      "longitude": "124.29460000",
      "timezone": "Asia/Manila",
      "wikiDataId": "Q404976",
      "country_code": "PH",
      "state_code": "BAN",
      "state_id": 1344,
      "country_id": 174
    },
    {
      "id": 82587,
      "name": "جياوانغ",
      "name_default": "Giawang",
      "native": "Giawang",
      "type": "city",
      "level": null,
      "parent_id": null,
      "population": 2652,
      "latitude": "9.79220000",
      "longitude": "124.50900000",
      "timezone": "Asia/Manila",
      "wikiDataId": "Q31590672",
      "country_code": "PH",
      "state_code": "BAN",
      "state_id": 1344,
      "country_id": 174
    },
    {
      "id": 82610,
      "name": "غوادالوبي",
      "name_default": "Guadalupe",
      "native": "Guadalupe",
      "type": "city",
      "level": null,
      "parent_id": null,
      "population": 11121,
      "latitude": "10.11650000",
      "longitude": "123.60720000",
      "timezone": "Asia/Manila",
      "wikiDataId": "Q31811344",
      "country_code": "PH",
      "state_code": "BAN",
      "state_id": 1344,
      "country_id": 174
    },
    {
      "id": 82614,
      "name": "غوبا",
      "name_default": "Guba",
      "native": "Guba",
      "type": "city",
      "level": null,
      "parent_id": null,
      "population": 2195,
      "latitude": "10.31310000",
      "longitude": "123.26670000",
      "timezone": "Asia/Manila",
      "wikiDataId": "Q31811348",
      "country_code": "PH",
      "state_code": "BAN",
      "state_id": 1344,
      "country_id": 174
    },
    {
      "id": 82618,
      "name": "جيبودانجان",
      "name_default": "Guibodangan",
      "native": "Guibodangan",
      "type": "city",
      "level": null,
      "parent_id": null,
      "population": 2209,
      "latitude": "10.11570000",
      "longitude": "123.49440000",
      "timezone": "Asia/Manila",
      "wikiDataId": "Q31811351",
      "country_code": "PH",
      "state_code": "BAN",
      "state_id": 1344,
      "country_id": 174
    },
    {
      "id": 82632,
      "name": "جينداروهان",
      "name_default": "Guindarohan",
      "native": "Guindarohan",
      "type": "city",
      "level": null,
      "parent_id": null,
      "population": 2599,
      "latitude": "10.26111000",
      "longitude": "123.76556000",
      "timezone": "Asia/Manila",
      "wikiDataId": "Q31811364",
      "country_code": "PH",
      "state_code": "BAN",
      "state_id": 1344,
      "country_id": 174
    },
    {
      "id": 82633,
      "name": "غويندولمان",
      "name_default": "Guindulman",
      "native": "Guindulman",
      "type": "adm3",
      "level": null,
      "parent_id": null,
      "population": 4686,
      "latitude": "9.76290000",
      "longitude": "124.48780000",
      "timezone": "Asia/Manila",
      "wikiDataId": "Q405058",
      "country_code": "PH",
      "state_code": "BAN",
      "state_id": 1344,
      "country_id": 174
    },
    {
      "id": 82651,
      "name": "غويوانون",
      "name_default": "Guiwanon",
      "native": "Guiwanon",
      "type": "city",
      "level": null,
      "parent_id": null,
      "population": 3003,
      "latitude": "11.19750000",
      "longitude": "123.70800000",
      "timezone": "Asia/Manila",
      "wikiDataId": "Q31811384",
      "country_code": "PH",
      "state_code": "BAN",
      "state_id": 1344,
      "country_id": 174
    },
    {
      "id": 82666,
      "name": "هاجدان",
      "name_default": "Hagdan",
      "native": "Ladder",
      "type": "city",
      "level": null,
      "parent_id": null,
      "population": 3120,
      "latitude": "11.33333000",
      "longitude": "123.90000000",
      "timezone": "Asia/Manila",
      "wikiDataId": "Q31811404",
      "country_code": "PH",
      "state_code": "BAN",
      "state_id": 1344,
      "country_id": 174
    },
    {
      "id": 82667,
      "name": "هاجنايا",
      "name_default": "Hagnaya",
      "native": "Hagnaya",
      "type": "city",
      "level": null,
      "parent_id": null,
      "population": 4127,
      "latitude": "11.09240000",
      "longitude": "123.94350000",
      "timezone": "Asia/Manila",
      "wikiDataId": "Q31811404",
      "country_code": "PH",
      "state_code": "BAN",
      "state_id": 1344,
      "country_id": 174
    },
    {
      "id": 82683,
      "name": "هيبايو",
      "name_default": "Hibaiyo",
      "native": "Hibaiyo",
      "type": "city",
      "level": null,
      "parent_id": null,
      "population": 5209,
      "latitude": "10.27260000",
      "longitude": "123.32100000",
      "timezone": "Asia/Manila",
      "wikiDataId": "Q31811433",
      "country_code": "PH",
      "state_code": "BAN",
      "state_id": 1344,
      "country_id": 174
    },
    {
      "id": 82685,
      "name": "هيلانتاجان",
      "name_default": "Hilantagaan",
      "native": "Heavy",
      "type": "city",
      "level": null,
      "parent_id": null,
      "population": 3396,
      "latitude": "11.19430000",
      "longitude": "123.81310000",
      "timezone": "Asia/Manila",
      "wikiDataId": "Q31811433",
      "country_code": "PH",
      "state_code": "BAN",
      "state_id": 1344,
      "country_id": 174
    },
    {
      "id": 82687,
      "name": "هيلوتونجان",
      "name_default": "Hilotongan",
      "native": "Hilotongan",
      "type": "city",
      "level": null,
      "parent_id": null,
      "population": 2535,
      "latitude": "11.14400000",
      "longitude": "123.64260000",
      "timezone": "Asia/Manila",
      "wikiDataId": "Q213006",
      "country_code": "PH",
      "state_code": "BAN",
      "state_id": 1344,
      "country_id": 174
    },
    {
      "id": 82691,
      "name": "هيمينسولان",
      "name_default": "Himensulan",
      "native": "HIMENSULAN",
      "type": "city",
      "level": null,
      "parent_id": null,
      "population": 2331,
      "latitude": "10.59670000",
      "longitude": "124.28210000",
      "timezone": "Asia/Manila",
      "wikiDataId": "Q31811445",
      "country_code": "PH",
      "state_code": "BAN",
      "state_id": 1344,
      "country_id": 174
    },
    {
      "id": 82697,
      "name": "هينلايجان إيلود",
      "name_default": "Hinlayagan Ilaud",
      "native": "Illustrated",
      "type": "city",
      "level": null,
      "parent_id": null,
      "population": 2788,
      "latitude": "10.03061000",
      "longitude": "124.33457000",
      "timezone": "Asia/Manila",
      "wikiDataId": "Q31811448",
      "country_code": "PH",
      "state_code": "BAN",
      "state_id": 1344,
      "country_id": 174
    },
    {
      "id": 82729,
      "name": "إيليهان",
      "name_default": "Ilihan",
      "native": "Dress",
      "type": "city",
      "level": null,
      "parent_id": null,
      "population": 3245,
      "latitude": "10.90540000",
      "longitude": "123.97040000",
      "timezone": "Asia/Manila",
      "wikiDataId": "Q31811484",
      "country_code": "PH",
      "state_code": "BAN",
      "state_id": 1344,
      "country_id": 174
    },
    {
      "id": 82740,
      "name": "إينابانجا",
      "name_default": "Inabanga",
      "native": "Inabanga",
      "type": "adm3",
      "level": null,
      "parent_id": null,
      "population": 49133,
      "latitude": "10.03070000",
      "longitude": "124.06710000",
      "timezone": "Asia/Manila",
      "wikiDataId": "Q405088",
      "country_code": "PH",
      "state_code": "BAN",
      "state_id": 1344,
      "country_id": 174
    },
    {
      "id": 82744,
      "name": "إينايغان",
      "name_default": "Inayagan",
      "native": "Insay",
      "type": "city",
      "level": null,
      "parent_id": null,
      "population": 6610,
      "latitude": "10.23478000",
      "longitude": "123.76900000",
      "timezone": "Asia/Manila",
      "wikiDataId": "Q31811496",
      "country_code": "PH",
      "state_code": "BAN",
      "state_id": 1344,
      "country_id": 174
    },
    {
      "id": 82779,
      "name": "جاكلوبان",
      "name_default": "Jaclupan",
      "native": "Jaclupan",
      "type": "city",
      "level": null,
      "parent_id": null,
      "population": 9652,
      "latitude": "10.30138000",
      "longitude": "123.81650000",
      "timezone": "Asia/Manila",
      "wikiDataId": "Q31811526",
      "country_code": "PH",
      "state_code": "BAN",
      "state_id": 1344,
      "country_id": 174
    },
    {
      "id": 82782,
      "name": "جاغنا",
      "name_default": "Jagna",
      "native": "Jagna",
      "type": "adm3",
      "level": null,
      "parent_id": null,
      "population": 36674,
      "latitude": "9.65310000",
      "longitude": "124.36970000",
      "timezone": "Asia/Manila",
      "wikiDataId": "Q405110",
      "country_code": "PH",
      "state_code": "BAN",
      "state_id": 1344,
      "country_id": 174
    },
    {
      "id": 82789,
      "name": "جامبانج",
      "name_default": "Jampang",
      "native": "Jampang",
      "type": "city",
      "level": null,
      "parent_id": null,
      "population": 2189,
      "latitude": "9.90761000",
      "longitude": "123.60015000",
      "timezone": "Asia/Manila",
      "wikiDataId": "Q31811536",
      "country_code": "PH",
      "state_code": "BAN",
      "state_id": 1344,
      "country_id": 174
    },
    {
      "id": 82791,
      "name": "جانديان نورتي",
      "name_default": "Jandayan Norte",
      "native": "Jandayan Norte",
      "type": "city",
      "level": null,
      "parent_id": null,
      "population": 2815,
      "latitude": "10.16852000",
      "longitude": "124.18148000",
      "timezone": "Asia/Manila",
      "wikiDataId": "Q31811538",
      "country_code": "PH",
      "state_code": "BAN",
      "state_id": 1344,
      "country_id": 174
    },
    {
      "id": 82794,
      "name": "جانتيانون",
      "name_default": "Jantianon",
      "native": "Jantianon",
      "type": "city",
      "level": null,
      "parent_id": null,
      "population": 2322,
      "latitude": "9.44420000",
      "longitude": "123.16570000",
      "timezone": "Asia/Manila",
      "wikiDataId": "Q31811541",
      "country_code": "PH",
      "state_code": "BAN",
      "state_id": 1344,
      "country_id": 174
    },
    {
      "id": 82795,
      "name": "ياباني",
      "name_default": "Japitan",
      "native": "Japitan",
      "type": "city",
      "level": null,
      "parent_id": null,
      "population": 2736,
      "latitude": "10.12790000",
      "longitude": "123.50350000",
      "timezone": "Asia/Manila",
      "wikiDataId": "Q31811542",
      "country_code": "PH",
      "state_code": "BAN",
      "state_id": 1344,
      "country_id": 174
    },
    {
      "id": 82803,
      "name": "جيتافي",
      "name_default": "Jetafe",
      "native": "Life",
      "type": "adm3",
      "level": null,
      "parent_id": null,
      "population": 33485,
      "latitude": "10.14722000",
      "longitude": "124.15389000",
      "timezone": "Asia/Manila",
      "wikiDataId": "Q405005",
      "country_code": "PH",
      "state_code": "BAN",
      "state_id": 1344,
      "country_id": 174
    },
    {
      "id": 82818,
      "name": "جوغنو",
      "name_default": "Jugno",
      "native": "Jugo",
      "type": "city",
      "level": null,
      "parent_id": null,
      "population": 3778,
      "latitude": "9.46830000",
      "longitude": "123.20380000",
      "timezone": "Asia/Manila",
      "wikiDataId": "Q31811561",
      "country_code": "PH",
      "state_code": "BAN",
      "state_id": 1344,
      "country_id": 174
    },
    {
      "id": 82820,
      "name": "كاباك",
      "name_default": "Kabac",
      "native": "Kabac",
      "type": "city",
      "level": null,
      "parent_id": null,
      "population": 4149,
      "latitude": "11.23530000",
      "longitude": "123.69790000",
      "timezone": "Asia/Manila",
      "wikiDataId": "Q31811564",
      "country_code": "PH",
      "state_code": "BAN",
      "state_id": 1344,
      "country_id": 174
    },
    {
      "id": 82832,
      "name": "كابونغهان",
      "name_default": "Kabungahan",
      "native": "Joy",
      "type": "city",
      "level": null,
      "parent_id": null,
      "population": 2307,
      "latitude": "10.51667000",
      "longitude": "123.98333000",
      "timezone": "Asia/Manila",
      "wikiDataId": "Q31811574",
      "country_code": "PH",
      "state_code": "BAN",
      "state_id": 1344,
      "country_id": 174
    },
    {
      "id": 82861,
      "name": "كاندابونج",
      "name_default": "Kandabong",
      "native": "Kandabong",
      "type": "city",
      "level": null,
      "parent_id": null,
      "population": 2367,
      "latitude": "9.68590000",
      "longitude": "123.07280000",
      "timezone": "Asia/Manila",
      "wikiDataId": "Q31811604",
      "country_code": "PH",
      "state_code": "BAN",
      "state_id": 1344,
      "country_id": 174
    },
    {
      "id": 82865,
      "name": "كاونجكود",
      "name_default": "Kaongkod",
      "native": "Kaongkod",
      "type": "city",
      "level": null,
      "parent_id": null,
      "population": 2329,
      "latitude": "11.25028000",
      "longitude": "123.75556000",
      "timezone": "Asia/Manila",
      "wikiDataId": "Q31811608",
      "country_code": "PH",
      "state_code": "BAN",
      "state_id": 1344,
      "country_id": 174
    },
    {
      "id": 82883,
      "name": "كاويت",
      "name_default": "Kauit",
      "native": "Kauit",
      "type": "city",
      "level": null,
      "parent_id": null,
      "population": 5771,
      "latitude": "11.18600000",
      "longitude": "123.94590000",
      "timezone": "Asia/Manila",
      "wikiDataId": "Q31811625",
      "country_code": "PH",
      "state_code": "BAN",
      "state_id": 1344,
      "country_id": 174
    },
    {
      "id": 82926,
      "name": "كوتكوت",
      "name_default": "Kotkot",
      "native": "Kotkot",
      "type": "city",
      "level": null,
      "parent_id": null,
      "population": 4067,
      "latitude": "10.42500000",
      "longitude": "124.00050000",
      "timezone": "Asia/Manila",
      "wikiDataId": "Q31811675",
      "country_code": "PH",
      "state_code": "BAN",
      "state_id": 1344,
      "country_id": 174
    },
    {
      "id": 82927,
      "name": "كوانوس",
      "name_default": "Kuanos",
      "native": "Kuanos",
      "type": "city",
      "level": null,
      "parent_id": null,
      "population": 2205,
      "latitude": "10.28298000",
      "longitude": "123.78000000",
      "timezone": "Asia/Manila",
      "wikiDataId": "Q31811675",
      "country_code": "PH",
      "state_code": "BAN",
      "state_id": 1344,
      "country_id": 174
    },
    {
      "id": 82942,
      "name": "لا هاسيندا",
      "name_default": "La Hacienda",
      "native": "The hacienda",
      "type": "city",
      "level": null,
      "parent_id": null,
      "population": 3758,
      "latitude": "9.88150000",
      "longitude": "124.39230000",
      "timezone": "Asia/Manila",
      "wikiDataId": "Q31811701",
      "country_code": "PH",
      "state_code": "BAN",
      "state_id": 1344,
      "country_id": 174
    },
    {
      "id": 83007,
      "name": "لاناو",
      "name_default": "Lanao",
      "native": "Lanao",
      "type": "city",
      "level": null,
      "parent_id": null,
      "population": 2875,
      "latitude": "11.25636000",
      "longitude": "124.02423000",
      "timezone": "Asia/Manila",
      "wikiDataId": "Q31811770",
      "country_code": "PH",
      "state_code": "BAN",
      "state_id": 1344,
      "country_id": 174
    },
    {
      "id": 83009,
      "name": "لاناس",
      "name_default": "Lanas",
      "native": "Mutch",
      "type": "city",
      "level": null,
      "parent_id": null,
      "population": 2890,
      "latitude": "10.26667000",
      "longitude": "123.73333000",
      "timezone": "Asia/Manila",
      "wikiDataId": "Q31811771",
      "country_code": "PH",
      "state_code": "BAN",
      "state_id": 1344,
      "country_id": 174
    },
    {
      "id": 83014,
      "name": "لانجوب",
      "name_default": "Langob",
      "native": "cave",
      "type": "city",
      "level": null,
      "parent_id": null,
      "population": 2861,
      "latitude": "10.57740000",
      "longitude": "123.73090000",
      "timezone": "Asia/Manila",
      "wikiDataId": "Q31811777",
      "country_code": "PH",
      "state_code": "BAN",
      "state_id": 1344,
      "country_id": 174
    },
    {
      "id": 83016,
      "name": "لانغتاد",
      "name_default": "Langtad",
      "native": "the field",
      "type": "city",
      "level": null,
      "parent_id": null,
      "population": 2502,
      "latitude": "9.89094000",
      "longitude": "123.60430000",
      "timezone": "Asia/Manila",
      "wikiDataId": "Q31811781",
      "country_code": "PH",
      "state_code": "BAN",
      "state_id": 1344,
      "country_id": 174
    },
    {
      "id": 83031,
      "name": "لاباز",
      "name_default": "Lapaz",
      "native": "Lapaz",
      "type": "city",
      "level": null,
      "parent_id": null,
      "population": 3091,
      "latitude": "10.98870000",
      "longitude": "123.97970000",
      "timezone": "Asia/Manila",
      "wikiDataId": "Q31811797",
      "country_code": "PH",
      "state_code": "BAN",
      "state_id": 1344,
      "country_id": 174
    },
    {
      "id": 83070,
      "name": "ليبانتو",
      "name_default": "Lepanto",
      "native": "Lepanto",
      "type": "city",
      "level": null,
      "parent_id": null,
      "population": 2102,
      "latitude": "9.68450000",
      "longitude": "123.40260000",
      "timezone": "Asia/Manila",
      "wikiDataId": "Q31811834",
      "country_code": "PH",
      "state_code": "BAN",
      "state_id": 1344,
      "country_id": 174
    },
    {
      "id": 83108,
      "name": "ليلى",
      "name_default": "Lila",
      "native": "Lila",
      "type": "adm3",
      "level": null,
      "parent_id": null,
      "population": 0,
      "latitude": "9.59180000",
      "longitude": "124.09580000",
      "timezone": "Asia/Manila",
      "wikiDataId": "Q405141",
      "country_code": "PH",
      "state_code": "BAN",
      "state_id": 1344,
      "country_id": 174
    },
    {
      "id": 83149,
      "name": "ليبايران",
      "name_default": "Lipayran",
      "native": "Lipayran",
      "type": "city",
      "level": null,
      "parent_id": null,
      "population": 6813,
      "latitude": "11.05930000",
      "longitude": "123.63420000",
      "timezone": "Asia/Manila",
      "wikiDataId": "Q31811919",
      "country_code": "PH",
      "state_code": "BAN",
      "state_id": 1344,
      "country_id": 174
    },
    {
      "id": 83157,
      "name": "لؤي",
      "name_default": "Loay",
      "native": "Struggling",
      "type": "adm3",
      "level": null,
      "parent_id": null,
      "population": 0,
      "latitude": "9.60060000",
      "longitude": "124.01420000",
      "timezone": "Asia/Manila",
      "wikiDataId": "Q405171",
      "country_code": "PH",
      "state_code": "BAN",
      "state_id": 1344,
      "country_id": 174
    },
    {
      "id": 83159,
      "name": "لوبوك",
      "name_default": "Loboc",
      "native": "Loboc",
      "type": "adm3",
      "level": null,
      "parent_id": null,
      "population": 17338,
      "latitude": "9.63833000",
      "longitude": "124.03482000",
      "timezone": "Asia/Manila",
      "wikiDataId": "Q405197",
      "country_code": "PH",
      "state_code": "BAN",
      "state_id": 1344,
      "country_id": 174
    },
    {
      "id": 83162,
      "name": "تسجيل الدخول",
      "name_default": "Logon",
      "native": "Logon",
      "type": "city",
      "level": null,
      "parent_id": null,
      "population": 3644,
      "latitude": "11.33030000",
      "longitude": "124.11460000",
      "timezone": "Asia/Manila",
      "wikiDataId": "Q31811933",
      "country_code": "PH",
      "state_code": "BAN",
      "state_id": 1344,
      "country_id": 174
    },
    {
      "id": 83165,
      "name": "لومبوغ",
      "name_default": "Lombog",
      "native": "Lombog",
      "type": "city",
      "level": null,
      "parent_id": null,
      "population": 2149,
      "latitude": "9.77880000",
      "longitude": "124.41740000",
      "timezone": "Asia/Manila",
      "wikiDataId": "Q31811936",
      "country_code": "PH",
      "state_code": "BAN",
      "state_id": 1344,
      "country_id": 174
    },
    {
      "id": 83175,
      "name": "غواص",
      "name_default": "Loon",
      "native": "Loon",
      "type": "adm3",
      "level": null,
      "parent_id": null,
      "population": 9484,
      "latitude": "9.79980000",
      "longitude": "123.79290000",
      "timezone": "Asia/Manila",
      "wikiDataId": "Q405224",
      "country_code": "PH",
      "state_code": "BAN",
      "state_id": 1344,
      "country_id": 174
    },
    {
      "id": 83206,
      "name": "لوغو",
      "name_default": "Lugo",
      "native": "Lugo",
      "type": "city",
      "level": null,
      "parent_id": null,
      "population": 2372,
      "latitude": "10.81672000",
      "longitude": "123.98626000",
      "timezone": "Asia/Manila",
      "wikiDataId": "Q31811976",
      "country_code": "PH",
      "state_code": "BAN",
      "state_id": 1344,
      "country_id": 174
    },
    {
      "id": 83236,
      "name": "لوناس",
      "name_default": "Lunas",
      "native": "Remedy",
      "type": "city",
      "level": null,
      "parent_id": null,
      "population": 5789,
      "latitude": "10.64020000",
      "longitude": "123.75250000",
      "timezone": "Asia/Manila",
      "wikiDataId": "Q31812004",
      "country_code": "PH",
      "state_code": "BAN",
      "state_id": 1344,
      "country_id": 174
    },
    {
      "id": 83250,
      "name": "لوت-أود",
      "name_default": "Lut-od",
      "native": "Lut-on",
      "type": "city",
      "level": null,
      "parent_id": null,
      "population": 2418,
      "latitude": "10.25722000",
      "longitude": "123.62944000",
      "timezone": "Asia/Manila",
      "wikiDataId": "Q31812017",
      "country_code": "PH",
      "state_code": "BAN",
      "state_id": 1344,
      "country_id": 174
    },
    {
      "id": 83263,
      "name": "مايونغ توبيغ",
      "name_default": "Maayong Tubig",
      "native": "Goodwater",
      "type": "city",
      "level": null,
      "parent_id": null,
      "population": 4922,
      "latitude": "9.16720000",
      "longitude": "123.24690000",
      "timezone": "Asia/Manila",
      "wikiDataId": "Q31812032",
      "country_code": "PH",
      "state_code": "BAN",
      "state_id": 1344,
      "country_id": 174
    },
    {
      "id": 83274,
      "name": "مابيناي",
      "name_default": "Mabinay",
      "native": "Benefact",
      "type": "adm3",
      "level": null,
      "parent_id": null,
      "population": 5506,
      "latitude": "9.72722000",
      "longitude": "122.90167000",
      "timezone": "Asia/Manila",
      "wikiDataId": "Q195004",
      "country_code": "PH",
      "state_code": "BAN",
      "state_id": 1344,
      "country_id": 174
    },
    {
      "id": 83280,
      "name": "مابيني",
      "name_default": "Mabini",
      "native": "Mabini",
      "type": "adm3",
      "level": null,
      "parent_id": null,
      "population": 5999,
      "latitude": "9.86490000",
      "longitude": "124.52150000",
      "timezone": "Asia/Manila",
      "wikiDataId": "Q405268",
      "country_code": "PH",
      "state_code": "BAN",
      "state_id": 1344,
      "country_id": 174
    },
    {
      "id": 83293,
      "name": "ماكاس",
      "name_default": "Macaas",
      "native": "Macaas",
      "type": "city",
      "level": null,
      "parent_id": null,
      "population": 2703,
      "latitude": "10.69885000",
      "longitude": "124.01154000",
      "timezone": "Asia/Manila",
      "wikiDataId": "Q31812056",
      "country_code": "PH",
      "state_code": "BAN",
      "state_id": 1344,
      "country_id": 174
    },
    {
      "id": 83329,
      "name": "ماجاي",
      "name_default": "Magay",
      "native": "Magay",
      "type": "city",
      "level": null,
      "parent_id": null,
      "population": 2391,
      "latitude": "10.47190000",
      "longitude": "124.01320000",
      "timezone": "Asia/Manila",
      "wikiDataId": "Q31812082",
      "country_code": "PH",
      "state_code": "BAN",
      "state_id": 1344,
      "country_id": 174
    },
    {
      "id": 83389,
      "name": "مالابوغاس",
      "name_default": "Malabugas",
      "native": "Free",
      "type": "city",
      "level": null,
      "parent_id": null,
      "population": 4646,
      "latitude": "9.36920000",
      "longitude": "122.77020000",
      "timezone": "Asia/Manila",
      "wikiDataId": "Q31812131",
      "country_code": "PH",
      "state_code": "BAN",
      "state_id": 1344,
      "country_id": 174
    },
    {
      "id": 83394,
      "name": "ماليبا",
      "name_default": "Malaiba",
      "native": "Malaiba",
      "type": "city",
      "level": null,
      "parent_id": null,
      "population": 6888,
      "latitude": "10.33333000",
      "longitude": "123.31667000",
      "timezone": "Asia/Manila",
      "wikiDataId": "Q31812136",
      "country_code": "PH",
      "state_code": "BAN",
      "state_id": 1344,
      "country_id": 174
    },
    {
      "id": 83422,
      "name": "مالبوغ",
      "name_default": "Malbug",
      "native": "Malbug",
      "type": "city",
      "level": null,
      "parent_id": null,
      "population": 2614,
      "latitude": "9.73270000",
      "longitude": "123.34020000",
      "timezone": "Asia/Manila",
      "wikiDataId": "Q31812164",
      "country_code": "PH",
      "state_code": "BAN",
      "state_id": 1344,
      "country_id": 174
    },
    {
      "id": 83423,
      "name": "مالهايو",
      "name_default": "Malhiao",
      "native": "Mhahar eoo",
      "type": "city",
      "level": null,
      "parent_id": null,
      "population": 2966,
      "latitude": "9.88487000",
      "longitude": "123.40641000",
      "timezone": "Asia/Manila",
      "wikiDataId": "Q31812166",
      "country_code": "PH",
      "state_code": "BAN",
      "state_id": 1344,
      "country_id": 174
    },
    {
      "id": 83441,
      "name": "مالينغين",
      "name_default": "Malingin",
      "native": "round",
      "type": "city",
      "level": null,
      "parent_id": null,
      "population": 2672,
      "latitude": "11.05000000",
      "longitude": "123.98333000",
      "timezone": "Asia/Manila",
      "wikiDataId": "Q31812180",
      "country_code": "PH",
      "state_code": "BAN",
      "state_id": 1344,
      "country_id": 174
    },
    {
      "id": 83453,
      "name": "مالوه",
      "name_default": "Maloh",
      "native": "Maloh",
      "type": "city",
      "level": null,
      "parent_id": null,
      "population": 5105,
      "latitude": "9.05600000",
      "longitude": "122.98510000",
      "timezone": "Asia/Manila",
      "wikiDataId": "Q31812190",
      "country_code": "PH",
      "state_code": "BAN",
      "state_id": 1344,
      "country_id": 174
    },
    {
      "id": 83462,
      "name": "مالوساي",
      "name_default": "Malusay",
      "native": "Tellete",
      "type": "city",
      "level": null,
      "parent_id": null,
      "population": 2473,
      "latitude": "10.14390000",
      "longitude": "123.27170000",
      "timezone": "Asia/Manila",
      "wikiDataId": "Q31812198",
      "country_code": "PH",
      "state_code": "BAN",
      "state_id": 1344,
      "country_id": 174
    },
    {
      "id": 83466,
      "name": "مالواي",
      "name_default": "Malway",
      "native": "Malway",
      "type": "city",
      "level": null,
      "parent_id": null,
      "population": 2878,
      "latitude": "9.13190000",
      "longitude": "123.22030000",
      "timezone": "Asia/Manila",
      "wikiDataId": "Q31812202",
      "country_code": "PH",
      "state_code": "BAN",
      "state_id": 1344,
      "country_id": 174
    },
    {
      "id": 83488,
      "name": "مانالونجون",
      "name_default": "Manalongon",
      "native": "Manalongon",
      "type": "city",
      "level": null,
      "parent_id": null,
      "population": 9321,
      "latitude": "9.22090000",
      "longitude": "122.88600000",
      "timezone": "Asia/Manila",
      "wikiDataId": "Q31812222",
      "country_code": "PH",
      "state_code": "BAN",
      "state_id": 1344,
      "country_id": 174
    },
    {
      "id": 83500,
      "name": "مانسيلانغ",
      "name_default": "Mancilang",
      "native": "MANCILANG",
      "type": "city",
      "level": null,
      "parent_id": null,
      "population": 4091,
      "latitude": "11.28350000",
      "longitude": "123.74620000",
      "timezone": "Asia/Manila",
      "wikiDataId": "Q31812236",
      "country_code": "PH",
      "state_code": "BAN",
      "state_id": 1344,
      "country_id": 174
    },
    {
      "id": 83504,
      "name": "مدينة مانداوي",
      "name_default": "Mandaue City",
      "native": "Mandaue City",
      "type": "adm3",
      "level": null,
      "parent_id": null,
      "population": 331320,
      "latitude": "10.32361000",
      "longitude": "123.92222000",
      "timezone": "Asia/Manila",
      "wikiDataId": "Q1889017",
      "country_code": "PH",
      "state_code": "BAN",
      "state_id": 1344,
      "country_id": 174
    },
    {
      "id": 83525,
      "name": "مانيني هون",
      "name_default": "Maninihon",
      "native": "potter",
      "type": "city",
      "level": null,
      "parent_id": null,
      "population": 6150,
      "latitude": "9.37110000",
      "longitude": "122.84050000",
      "timezone": "Asia/Manila",
      "wikiDataId": "Q31812258",
      "country_code": "PH",
      "state_code": "BAN",
      "state_id": 1344,
      "country_id": 174
    },
    {
      "id": 83654,
      "name": "مانيو",
      "name_default": "Maño",
      "native": "Hand",
      "type": "city",
      "level": null,
      "parent_id": null,
      "population": 2737,
      "latitude": "11.04167000",
      "longitude": "123.94472000",
      "timezone": "Asia/Manila",
      "wikiDataId": "Q31812379",
      "country_code": "PH",
      "state_code": "BAN",
      "state_id": 1344,
      "country_id": 174
    },
    {
      "id": 83536,
      "name": "مانتالونجون",
      "name_default": "Mantalongon",
      "native": "Mantalongon",
      "type": "city",
      "level": null,
      "parent_id": null,
      "population": 6517,
      "latitude": "9.81060000",
      "longitude": "123.46170000",
      "timezone": "Asia/Manila",
      "wikiDataId": "Q31812268",
      "country_code": "PH",
      "state_code": "BAN",
      "state_id": 1344,
      "country_id": 174
    },
    {
      "id": 83540,
      "name": "مانتيكل",
      "name_default": "Mantiquil",
      "native": "Mantiquil",
      "type": "city",
      "level": null,
      "parent_id": null,
      "population": 2281,
      "latitude": "9.16667000",
      "longitude": "123.05000000",
      "timezone": "Asia/Manila",
      "wikiDataId": "Q31812271",
      "country_code": "PH",
      "state_code": "BAN",
      "state_id": 1344,
      "country_id": 174
    },
    {
      "id": 83565,
      "name": "مارافيلا",
      "name_default": "Maravilla",
      "native": "Wonder",
      "type": "city",
      "level": null,
      "parent_id": null,
      "population": 2573,
      "latitude": "10.90110000",
      "longitude": "123.89180000",
      "timezone": "Asia/Manila",
      "wikiDataId": "Q31812293",
      "country_code": "PH",
      "state_code": "BAN",
      "state_id": 1344,
      "country_id": 174
    },
    {
      "id": 83578,
      "name": "ماريبوجوك",
      "name_default": "Maribojoc",
      "native": "Maribojoc",
      "type": "adm3",
      "level": null,
      "parent_id": null,
      "population": 2476,
      "latitude": "9.74170000",
      "longitude": "123.84460000",
      "timezone": "Asia/Manila",
      "wikiDataId": "Q173449",
      "country_code": "PH",
      "state_code": "BAN",
      "state_id": 1344,
      "country_id": 174
    },
    {
      "id": 83580,
      "name": "ماريكابان",
      "name_default": "Maricaban",
      "native": "Maricaban",
      "type": "city",
      "level": null,
      "parent_id": null,
      "population": 2779,
      "latitude": "11.15160000",
      "longitude": "123.76790000",
      "timezone": "Asia/Manila",
      "wikiDataId": "Q31812303",
      "country_code": "PH",
      "state_code": "BAN",
      "state_id": 1344,
      "country_id": 174
    },
    {
      "id": 83590,
      "name": "ماسابا",
      "name_default": "Masaba",
      "native": "Monaba",
      "type": "city",
      "level": null,
      "parent_id": null,
      "population": 2456,
      "latitude": "10.53333000",
      "longitude": "123.96667000",
      "timezone": "Asia/Manila",
      "wikiDataId": "Q31812312",
      "country_code": "PH",
      "state_code": "BAN",
      "state_id": 1344,
      "country_id": 174
    },
    {
      "id": 83643,
      "name": "مايا",
      "name_default": "Maya",
      "native": "Maya",
      "type": "city",
      "level": null,
      "parent_id": null,
      "population": 7572,
      "latitude": "11.27442000",
      "longitude": "124.05526000",
      "timezone": "Asia/Manila",
      "wikiDataId": "Q31812368",
      "country_code": "PH",
      "state_code": "BAN",
      "state_id": 1344,
      "country_id": 174
    },
    {
      "id": 83644,
      "name": "مايابون",
      "name_default": "Mayabon",
      "native": "Mayabon",
      "type": "city",
      "level": null,
      "parent_id": null,
      "population": 6521,
      "latitude": "9.09610000",
      "longitude": "123.17380000",
      "timezone": "Asia/Manila",
      "wikiDataId": "Q31812369",
      "country_code": "PH",
      "state_code": "BAN",
      "state_id": 1344,
      "country_id": 174
    },
    {
      "id": 83645,
      "name": "مايانا",
      "name_default": "Mayana",
      "native": "Mayana",
      "type": "city",
      "level": null,
      "parent_id": null,
      "population": 2305,
      "latitude": "9.75611000",
      "longitude": "124.35222000",
      "timezone": "Asia/Manila",
      "wikiDataId": "Q31812370",
      "country_code": "PH",
      "state_code": "BAN",
      "state_id": 1344,
      "country_id": 174
    },
    {
      "id": 83647,
      "name": "مايابوسي",
      "name_default": "Mayapusi",
      "native": "Mayapusi",
      "type": "city",
      "level": null,
      "parent_id": null,
      "population": 2538,
      "latitude": "9.62410000",
      "longitude": "123.01880000",
      "timezone": "Asia/Manila",
      "wikiDataId": "Q31812371",
      "country_code": "PH",
      "state_code": "BAN",
      "state_id": 1344,
      "country_id": 174
    },
    {
      "id": 83655,
      "name": "ماكينلي",
      "name_default": "McKinley",
      "native": "McKinley",
      "type": "city",
      "level": null,
      "parent_id": null,
      "population": 2213,
      "latitude": "10.08440000",
      "longitude": "123.25920000",
      "timezone": "Asia/Manila",
      "wikiDataId": "Q31812386",
      "country_code": "PH",
      "state_code": "BAN",
      "state_id": 1344,
      "country_id": 174
    },
    {
      "id": 83687,
      "name": "مينولوس",
      "name_default": "Minolos",
      "native": "Minolos",
      "type": "city",
      "level": null,
      "parent_id": null,
      "population": 2399,
      "latitude": "10.10190000",
      "longitude": "123.47270000",
      "timezone": "Asia/Manila",
      "wikiDataId": "Q31812442",
      "country_code": "PH",
      "state_code": "BAN",
      "state_id": 1344,
      "country_id": 174
    },
    {
      "id": 83705,
      "name": "مونتانيزا",
      "name_default": "Montaneza",
      "native": "Montaneza",
      "type": "city",
      "level": null,
      "parent_id": null,
      "population": 3229,
      "latitude": "9.68460000",
      "longitude": "123.32890000",
      "timezone": "Asia/Manila",
      "wikiDataId": "Q31812466",
      "country_code": "PH",
      "state_code": "BAN",
      "state_id": 1344,
      "country_id": 174
    },
    {
      "id": 83744,
      "name": "ناغبالاي",
      "name_default": "Nagbalaye",
      "native": "Bagalaye",
      "type": "city",
      "level": null,
      "parent_id": null,
      "population": 5108,
      "latitude": "9.24920000",
      "longitude": "122.87590000",
      "timezone": "Asia/Manila",
      "wikiDataId": "Q31812526",
      "country_code": "PH",
      "state_code": "BAN",
      "state_id": 1344,
      "country_id": 174
    },
    {
      "id": 83756,
      "name": "نهاوان",
      "name_default": "Nahawan",
      "native": "cleared",
      "type": "city",
      "level": null,
      "parent_id": null,
      "population": 2202,
      "latitude": "9.97110000",
      "longitude": "124.04840000",
      "timezone": "Asia/Manila",
      "wikiDataId": "Q31812536",
      "country_code": "PH",
      "state_code": "BAN",
      "state_id": 1344,
      "country_id": 174
    },
    {
      "id": 83759,
      "name": "نايلونج",
      "name_default": "Nailong",
      "native": "Nailong",
      "type": "city",
      "level": null,
      "parent_id": null,
      "population": 5379,
      "latitude": "11.05370000",
      "longitude": "124.03850000",
      "timezone": "Asia/Manila",
      "wikiDataId": "Q31812538",
      "country_code": "PH",
      "state_code": "BAN",
      "state_id": 1344,
      "country_id": 174
    },
    {
      "id": 83762,
      "name": "نالوندان",
      "name_default": "Nalundan",
      "native": "Nalade",
      "type": "city",
      "level": null,
      "parent_id": null,
      "population": 9674,
      "latitude": "9.75000000",
      "longitude": "123.06667000",
      "timezone": "Asia/Manila",
      "wikiDataId": "Q31812541",
      "country_code": "PH",
      "state_code": "BAN",
      "state_id": 1344,
      "country_id": 174
    },
    {
      "id": 83773,
      "name": "نانغكا",
      "name_default": "Nangka",
      "native": "Jackfruit",
      "type": "city",
      "level": null,
      "parent_id": null,
      "population": 9708,
      "latitude": "9.40230000",
      "longitude": "122.82440000",
      "timezone": "Asia/Manila",
      "wikiDataId": "Q31812575",
      "country_code": "PH",
      "state_code": "BAN",
      "state_id": 1344,
      "country_id": 174
    },
    {
      "id": 83823,
      "name": "نوفالاس",
      "name_default": "Novallas",
      "native": "Novallas",
      "type": "city",
      "level": null,
      "parent_id": null,
      "population": 5525,
      "latitude": "9.51170000",
      "longitude": "123.12250000",
      "timezone": "Asia/Manila",
      "wikiDataId": "Q31812669",
      "country_code": "PH",
      "state_code": "BAN",
      "state_id": 1344,
      "country_id": 174
    },
    {
      "id": 83826,
      "name": "القوة الجديدة",
      "name_default": "Nueva Fuerza",
      "native": "New force",
      "type": "city",
      "level": null,
      "parent_id": null,
      "population": 2433,
      "latitude": "9.84640000",
      "longitude": "124.16700000",
      "timezone": "Asia/Manila",
      "wikiDataId": "Q31812670",
      "country_code": "PH",
      "state_code": "BAN",
      "state_id": 1344,
      "country_id": 174
    },
    {
      "id": 83828,
      "name": "نويفا فيدا سور",
      "name_default": "Nueva Vida Sur",
      "native": "New southern life",
      "type": "city",
      "level": null,
      "parent_id": null,
      "population": 3058,
      "latitude": "9.78460000",
      "longitude": "124.17450000",
      "timezone": "Asia/Manila",
      "wikiDataId": "Q31812673",
      "country_code": "PH",
      "state_code": "BAN",
      "state_id": 1344,
      "country_id": 174
    },
    {
      "id": 83829,
      "name": "نوجاس",
      "name_default": "Nugas",
      "native": "Toys",
      "type": "city",
      "level": null,
      "parent_id": null,
      "population": 2844,
      "latitude": "9.69680000",
      "longitude": "123.44150000",
      "timezone": "Asia/Manila",
      "wikiDataId": "Q31812674",
      "country_code": "PH",
      "state_code": "BAN",
      "state_id": 1344,
      "country_id": 174
    },
    {
      "id": 83836,
      "name": "أوبونج",
      "name_default": "Obong",
      "native": "Burn",
      "type": "city",
      "level": null,
      "parent_id": null,
      "population": 5576,
      "latitude": "9.74100000",
      "longitude": "123.50980000",
      "timezone": "Asia/Manila",
      "wikiDataId": "Q31812689",
      "country_code": "PH",
      "state_code": "BAN",
      "state_id": 1344,
      "country_id": 174
    },
    {
      "id": 83838,
      "name": "أوكانيا",
      "name_default": "Ocaña",
      "native": "Ocaña",
      "type": "city",
      "level": null,
      "parent_id": null,
      "population": 13898,
      "latitude": "10.06560000",
      "longitude": "123.62440000",
      "timezone": "Asia/Manila",
      "wikiDataId": "Q31812690",
      "country_code": "PH",
      "state_code": "BAN",
      "state_id": 1344,
      "country_id": 174
    },
    {
      "id": 83840,
      "name": "أوكوي",
      "name_default": "Ocoy",
      "native": "Ocoy",
      "type": "city",
      "level": null,
      "parent_id": null,
      "population": 3099,
      "latitude": "11.17160000",
      "longitude": "123.79480000",
      "timezone": "Asia/Manila",
      "wikiDataId": "Q31812695",
      "country_code": "PH",
      "state_code": "BAN",
      "state_id": 1344,
      "country_id": 174
    },
    {
      "id": 83849,
      "name": "أوكيوت",
      "name_default": "Okiot",
      "native": "Okiot",
      "type": "city",
      "level": null,
      "parent_id": null,
      "population": 3370,
      "latitude": "9.56667000",
      "longitude": "123.16667000",
      "timezone": "Asia/Manila",
      "wikiDataId": "Q31812707",
      "country_code": "PH",
      "state_code": "BAN",
      "state_id": 1344,
      "country_id": 174
    },
    {
      "id": 83869,
      "name": "أوواك",
      "name_default": "Owak",
      "native": "Oak",
      "type": "city",
      "level": null,
      "parent_id": null,
      "population": 3855,
      "latitude": "10.55000000",
      "longitude": "123.70000000",
      "timezone": "Asia/Manila",
      "wikiDataId": "Q31812737",
      "country_code": "PH",
      "state_code": "BAN",
      "state_id": 1344,
      "country_id": 174
    },
    {
      "id": 83884,
      "name": "الأب زامورا",
      "name_default": "Padre Zamora",
      "native": "Father Zamora",
      "type": "city",
      "level": null,
      "parent_id": null,
      "population": 2271,
      "latitude": "10.06667000",
      "longitude": "123.25000000",
      "timezone": "Asia/Manila",
      "wikiDataId": "Q31457212",
      "country_code": "PH",
      "state_code": "BAN",
      "state_id": 1344,
      "country_id": 174
    },
    {
      "id": 83904,
      "name": "باجو",
      "name_default": "Pajo",
      "native": "Pajo",
      "type": "city",
      "level": null,
      "parent_id": null,
      "population": 3634,
      "latitude": "11.24121000",
      "longitude": "124.01067000",
      "timezone": "Asia/Manila",
      "wikiDataId": "Q31457983",
      "country_code": "PH",
      "state_code": "BAN",
      "state_id": 1344,
      "country_id": 174
    },
    {
      "id": 83949,
      "name": "باناليبان",
      "name_default": "Panalipan",
      "native": "Lake",
      "type": "city",
      "level": null,
      "parent_id": null,
      "population": 2679,
      "latitude": "10.64833000",
      "longitude": "124.02167000",
      "timezone": "Asia/Manila",
      "wikiDataId": "Q31461175",
      "country_code": "PH",
      "state_code": "BAN",
      "state_id": 1344,
      "country_id": 174
    },
    {
      "id": 83955,
      "name": "بانايتايون",
      "name_default": "Panaytayon",
      "native": "Footide",
      "type": "city",
      "level": null,
      "parent_id": null,
      "population": 2230,
      "latitude": "9.95000000",
      "longitude": "123.98333000",
      "timezone": "Asia/Manila",
      "wikiDataId": "Q31461351",
      "country_code": "PH",
      "state_code": "BAN",
      "state_id": 1344,
      "country_id": 174
    },
    {
      "id": 83975,
      "name": "بانجدان",
      "name_default": "Pangdan",
      "native": "Letband",
      "type": "city",
      "level": null,
      "parent_id": null,
      "population": 4730,
      "latitude": "10.23078000",
      "longitude": "123.73790000",
      "timezone": "Asia/Manila",
      "wikiDataId": "Q31461865",
      "country_code": "PH",
      "state_code": "BAN",
      "state_id": 1344,
      "country_id": 174
    },
    {
      "id": 83979,
      "name": "بانجلاو",
      "name_default": "Panglao",
      "native": "Panglao",
      "type": "adm3",
      "level": null,
      "parent_id": null,
      "population": 6854,
      "latitude": "9.57806000",
      "longitude": "123.74583000",
      "timezone": "Asia/Manila",
      "wikiDataId": "Q178330",
      "country_code": "PH",
      "state_code": "BAN",
      "state_id": 1344,
      "country_id": 174
    },
    {
      "id": 83995,
      "name": "بانوجناوان",
      "name_default": "Panognawan",
      "native": "Panognawan",
      "type": "city",
      "level": null,
      "parent_id": null,
      "population": 2154,
      "latitude": "11.16190000",
      "longitude": "124.00500000",
      "timezone": "Asia/Manila",
      "wikiDataId": "Q31462401",
      "country_code": "PH",
      "state_code": "BAN",
      "state_id": 1344,
      "country_id": 174
    },
    {
      "id": 84039,
      "name": "باتاو",
      "name_default": "Patao",
      "native": "Patao",
      "type": "city",
      "level": null,
      "parent_id": null,
      "population": 5963,
      "latitude": "11.22020000",
      "longitude": "123.69250000",
      "timezone": "Asia/Manila",
      "wikiDataId": "Q31464177",
      "country_code": "PH",
      "state_code": "BAN",
      "state_id": 1344,
      "country_id": 174
    },
    {
      "id": 84065,
      "name": "بايبون",
      "name_default": "Payabon",
      "native": "Payabon",
      "type": "city",
      "level": null,
      "parent_id": null,
      "population": 3600,
      "latitude": "9.75900000",
      "longitude": "123.14120000",
      "timezone": "Asia/Manila",
      "wikiDataId": "Q194916",
      "country_code": "PH",
      "state_code": "BAN",
      "state_id": 1344,
      "country_id": 174
    },
    {
      "id": 84070,
      "name": "ادفع ادفع",
      "name_default": "Paypay",
      "native": "Paypay",
      "type": "city",
      "level": null,
      "parent_id": null,
      "population": 2888,
      "latitude": "11.21520000",
      "longitude": "123.97620000",
      "timezone": "Asia/Manila",
      "wikiDataId": "Q31465604",
      "country_code": "PH",
      "state_code": "BAN",
      "state_id": 1344,
      "country_id": 174
    },
    {
      "id": 84075,
      "name": "بيريلوس",
      "name_default": "Perrelos",
      "native": "Perrelos",
      "type": "city",
      "level": null,
      "parent_id": null,
      "population": 10971,
      "latitude": "10.11690000",
      "longitude": "123.67380000",
      "timezone": "Asia/Manila",
      "wikiDataId": "Q31466671",
      "country_code": "PH",
      "state_code": "BAN",
      "state_id": 1344,
      "country_id": 174
    },
    {
      "id": 84106,
      "name": "بينامونجاهان",
      "name_default": "Pinamungahan",
      "native": "Damn",
      "type": "city",
      "level": null,
      "parent_id": null,
      "population": 23068,
      "latitude": "10.27080000",
      "longitude": "123.58390000",
      "timezone": "Asia/Manila",
      "wikiDataId": "Q316259",
      "country_code": "PH",
      "state_code": "BAN",
      "state_id": 1344,
      "country_id": 174
    },
    {
      "id": 84108,
      "name": "بيناياغان نورتي",
      "name_default": "Pinayagan Norte",
      "native": "Allowed Norte",
      "type": "city",
      "level": null,
      "parent_id": null,
      "population": 4498,
      "latitude": "9.93333000",
      "longitude": "123.95000000",
      "timezone": "Asia/Manila",
      "wikiDataId": "Q31469161",
      "country_code": "PH",
      "state_code": "BAN",
      "state_id": 1344,
      "country_id": 174
    },
    {
      "id": 84113,
      "name": "بينوكاوان",
      "name_default": "Pinokawan",
      "native": "Pinokawan",
      "type": "city",
      "level": null,
      "parent_id": null,
      "population": 4489,
      "latitude": "10.34117000",
      "longitude": "123.29390000",
      "timezone": "Asia/Manila",
      "wikiDataId": "Q31470569",
      "country_code": "PH",
      "state_code": "BAN",
      "state_id": 1344,
      "country_id": 174
    },
    {
      "id": 84150,
      "name": "بولو",
      "name_default": "Polo",
      "native": "Polo",
      "type": "city",
      "level": null,
      "parent_id": null,
      "population": 4046,
      "latitude": "9.48160000",
      "longitude": "123.18020000",
      "timezone": "Asia/Manila",
      "wikiDataId": "Q31474238",
      "country_code": "PH",
      "state_code": "BAN",
      "state_id": 1344,
      "country_id": 174
    },
    {
      "id": 84288,
      "name": "بوتات",
      "name_default": "Putat",
      "native": "Suppose",
      "type": "city",
      "level": null,
      "parent_id": null,
      "population": 4171,
      "latitude": "10.78580000",
      "longitude": "123.84690000",
      "timezone": "Asia/Manila",
      "wikiDataId": "Q31480847",
      "country_code": "PH",
      "state_code": "BAN",
      "state_id": 1344,
      "country_id": 174
    },
    {
      "id": 84365,
      "name": "سافيدرا",
      "name_default": "Saavedra",
      "native": "Saavedra",
      "type": "city",
      "level": null,
      "parent_id": null,
      "population": 2190,
      "latitude": "9.98517000",
      "longitude": "123.37158000",
      "timezone": "Asia/Manila",
      "wikiDataId": "Q31497076",
      "country_code": "PH",
      "state_code": "BAN",
      "state_id": 1344,
      "country_id": 174
    },
    {
      "id": 84388,
      "name": "ساجبايان",
      "name_default": "Sagbayan",
      "native": "beams",
      "type": "adm3",
      "level": null,
      "parent_id": null,
      "population": 4934,
      "latitude": "9.91440000",
      "longitude": "124.09190000",
      "timezone": "Asia/Manila",
      "wikiDataId": "Q405472",
      "country_code": "PH",
      "state_code": "BAN",
      "state_id": 1344,
      "country_id": 174
    },