{
  "locale": "de",
  "country": {
    "id": 176,
    "code": "PL",
    "iso3": "POL",
    "numeric_code": "616",
    "name": "Polen",
    "name_default": "Poland",
    "native": "Polska",
    "capital": "Warsaw",
    "phonecode": "48",
    "currency": "PLN",
    "currency_name": "Polish złoty",
    "currency_symbol": "zł",
    "tld": ".pl",
    "population": 37401000,
    "gdp": 979960,
    "region": "Europe",
    "region_id": 4,
    "subregion": "Eastern Europe",
    "subregion_id": 15,
    "nationality": "Polish",
    "timezones": [
      {
        "zoneName": "Europe/Warsaw",
        "gmtOffset": 3600,
        "gmtOffsetName": "UTC+01:00",
        "abbreviation": "CET",
        "tzName": "Central European Time"
      }
    ],
    "latitude": "52.00000000",
    "longitude": "20.00000000",
    "emoji": "🇵🇱",
    "emojiU": "U+1F1F5 U+1F1F1"
  },
  "state": {
    "id": 1638,
    "code": "06",
    "iso2": "06",
    "iso3166_2": "PL-06",
    "fips_code": "75",
    "name": "Lublin",
    "name_default": "Lublin",
    "native": "Lublin",
    "type": "voivodship",
    "level": null,
    "parent_id": null,
    "population": null,
    "latitude": "51.25055900",
    "longitude": "22.57010220",
    "timezone": "Europe/Warsaw",
    "wikiDataId": "Q54155",
    "country_code": "PL"
  },
  "cities": [
    {
      "id": 85775,
      "name": "Abramów",
      "name_default": "Abramów",
      "native": "Abramów",
      "type": "adm3",
      "level": null,
      "parent_id": null,
      "population": 595,
      "latitude": "51.45647000",
      "longitude": "22.31521000",
      "timezone": "Europe/Warsaw",
      "wikiDataId": "Q2277800",
      "country_code": "PL",
      "state_code": "06",
      "state_id": 1638,
      "country_id": 176
    },
    {
      "id": 85776,
      "name": "Adamów",
      "name_default": "Adamów",
      "native": "Adamów",
      "type": "city",
      "level": null,
      "parent_id": null,
      "population": 2100,
      "latitude": "51.74335000",
      "longitude": "22.26414000",
      "timezone": "Europe/Warsaw",
      "wikiDataId": "Q2035593",
      "country_code": "PL",
      "state_code": "06",
      "state_id": 1638,
      "country_id": 176
    },
    {
      "id": 85779,
      "name": "Aleksandrów",
      "name_default": "Aleksandrów",
      "native": "Aleksandrów",
      "type": "adm3",
      "level": null,
      "parent_id": null,
      "population": 3135,
      "latitude": "50.46630000",
      "longitude": "22.89225000",
      "timezone": "Europe/Warsaw",
      "wikiDataId": "Q2606206",
      "country_code": "PL",
      "state_code": "06",
      "state_id": 1638,
      "country_id": 176
    },
    {
      "id": 85786,
      "name": "Annopol",
      "name_default": "Annopol",
      "native": "Annopol",
      "type": "adm3",
      "level": null,
      "parent_id": null,
      "population": 2335,
      "latitude": "50.88551000",
      "longitude": "21.85678000",
      "timezone": "Europe/Warsaw",
      "wikiDataId": "Q567332",
      "country_code": "PL",
      "state_code": "06",
      "state_id": 1638,
      "country_id": 176
    },
    {
      "id": 85804,
      "name": "Baranów",
      "name_default": "Baranów",
      "native": "Baranów",
      "type": "adm3",
      "level": null,
      "parent_id": null,
      "population": 1491,
      "latitude": "51.55786000",
      "longitude": "22.13625000",
      "timezone": "Europe/Warsaw",
      "wikiDataId": "Q2147121",
      "country_code": "PL",
      "state_code": "06",
      "state_id": 1638,
      "country_id": 176
    },
    {
      "id": 85818,
      "name": "Batorz",
      "name_default": "Batorz",
      "native": "Batorz",
      "type": "adm3",
      "level": null,
      "parent_id": null,
      "population": 873,
      "latitude": "50.85050000",
      "longitude": "22.49313000",
      "timezone": "Europe/Warsaw",
      "wikiDataId": "Q2185382",
      "country_code": "PL",
      "state_code": "06",
      "state_id": 1638,
      "country_id": 176
    },
    {
      "id": 85831,
      "name": "Bełżec",
      "name_default": "Bełżec",
      "native": "Bełżec",
      "type": "adm3",
      "level": null,
      "parent_id": null,
      "population": 2723,
      "latitude": "50.38453000",
      "longitude": "23.43839000",
      "timezone": "Europe/Warsaw",
      "wikiDataId": "Q2179399",
      "country_code": "PL",
      "state_code": "06",
      "state_id": 1638,
      "country_id": 176
    },
    {
      "id": 85832,
      "name": "Bełżyce",
      "name_default": "Bełżyce",
      "native": "Bełżyce",
      "type": "adm3",
      "level": null,
      "parent_id": null,
      "population": 6142,
      "latitude": "51.17415000",
      "longitude": "22.28027000",
      "timezone": "Europe/Warsaw",
      "wikiDataId": "Q854624",
      "country_code": "PL",
      "state_code": "06",
      "state_id": 1638,
      "country_id": 176
    },
    {
      "id": 85836,
      "name": "Biała Podlaska",
      "name_default": "Biała Podlaska",
      "native": "Biała Podlaska",
      "type": "adm2",
      "level": null,
      "parent_id": null,
      "population": 55429,
      "latitude": "52.03238000",
      "longitude": "23.11652000",
      "timezone": "Europe/Warsaw",
      "wikiDataId": "Q209932",
      "country_code": "PL",
      "state_code": "06",
      "state_id": 1638,
      "country_id": 176
    },
    {
      "id": 85878,
      "name": "Biłgoraj",
      "name_default": "Biłgoraj",
      "native": "Biłgoraj",
      "type": "adm2",
      "level": null,
      "parent_id": null,
      "population": 25459,
      "latitude": "50.54114000",
      "longitude": "22.72204000",
      "timezone": "Europe/Warsaw",
      "wikiDataId": "Q319445",
      "country_code": "PL",
      "state_code": "06",
      "state_id": 1638,
      "country_id": 176
    },
    {
      "id": 85876,
      "name": "Biszcza",
      "name_default": "Biszcza",
      "native": "Biszcza",
      "type": "adm3",
      "level": null,
      "parent_id": null,
      "population": 1841,
      "latitude": "50.40146000",
      "longitude": "22.65063000",
      "timezone": "Europe/Warsaw",
      "wikiDataId": "Q673585",
      "country_code": "PL",
      "state_code": "06",
      "state_id": 1638,
      "country_id": 176
    },
    {
      "id": 85920,
      "name": "Borki",
      "name_default": "Borki",
      "native": "Czy",
      "type": "adm3",
      "level": null,
      "parent_id": null,
      "population": 732,
      "latitude": "51.72161000",
      "longitude": "22.52129000",
      "timezone": "Europe/Warsaw",
      "wikiDataId": "Q1005972",
      "country_code": "PL",
      "state_code": "06",
      "state_id": 1638,
      "country_id": 176
    },
    {
      "id": 85928,
      "name": "Borzechów",
      "name_default": "Borzechów",
      "native": "Borzechów",
      "type": "adm3",
      "level": null,
      "parent_id": null,
      "population": 425,
      "latitude": "51.09258000",
      "longitude": "22.28414000",
      "timezone": "Europe/Warsaw",
      "wikiDataId": "Q2246402",
      "country_code": "PL",
      "state_code": "06",
      "state_id": 1638,
      "country_id": 176
    },
    {
      "id": 85997,
      "name": "Bychawa",
      "name_default": "Bychawa",
      "native": "Bychawa",
      "type": "adm3",
      "level": null,
      "parent_id": null,
      "population": 4677,
      "latitude": "51.01608000",
      "longitude": "22.53296000",
      "timezone": "Europe/Warsaw",
      "wikiDataId": "Q995820",
      "country_code": "PL",
      "state_code": "06",
      "state_id": 1638,
      "country_id": 176
    },
    {
      "id": 86027,
      "name": "Chełm",
      "name_default": "Chełm",
      "native": "Chełm",
      "type": "city",
      "level": null,
      "parent_id": null,
      "population": 59546,
      "latitude": "51.14312000",
      "longitude": "23.47160000",
      "timezone": "Europe/Warsaw",
      "wikiDataId": "Q234184",
      "country_code": "PL",
      "state_code": "06",
      "state_id": 1638,
      "country_id": 176
    },
    {
      "id": 86045,
      "name": "Chodel",
      "name_default": "Chodel",
      "native": "Chodel",
      "type": "adm3",
      "level": null,
      "parent_id": null,
      "population": 1317,
      "latitude": "51.11177000",
      "longitude": "22.13269000",
      "timezone": "Europe/Warsaw",
      "wikiDataId": "Q2264237",
      "country_code": "PL",
      "state_code": "06",
      "state_id": 1638,
      "country_id": 176
    },
    {
      "id": 86061,
      "name": "Chrzanów",
      "name_default": "Chrzanów",
      "native": "Chrzanów",
      "type": "adm3",
      "level": null,
      "parent_id": null,
      "population": 3506,
      "latitude": "50.77256000",
      "longitude": "22.60351000",
      "timezone": "Europe/Warsaw",
      "wikiDataId": "Q5115091",
      "country_code": "PL",
      "state_code": "06",
      "state_id": 1638,
      "country_id": 176
    },
    {
      "id": 86097,
      "name": "Cyców",
      "name_default": "Cyców",
      "native": "Cyców",
      "type": "adm3",
      "level": null,
      "parent_id": null,
      "population": 1200,
      "latitude": "51.29928000",
      "longitude": "23.14124000",
      "timezone": "Europe/Warsaw",
      "wikiDataId": "Q2128677",
      "country_code": "PL",
      "state_code": "06",
      "state_id": 1638,
      "country_id": 176
    },
    {
      "id": 86124,
      "name": "Czemierniki",
      "name_default": "Czemierniki",
      "native": "Czemierniki",
      "type": "city",
      "level": null,
      "parent_id": null,
      "population": 3700,
      "latitude": "51.67298000",
      "longitude": "22.63887000",
      "timezone": "Europe/Warsaw",
      "wikiDataId": "Q2557505",
      "country_code": "PL",
      "state_code": "06",
      "state_id": 1638,
      "country_id": 176
    },
    {
      "id": 86248,
      "name": "Dęblin",
      "name_default": "Dęblin",
      "native": "Dęblin",
      "type": "adm3",
      "level": null,
      "parent_id": null,
      "population": 14791,
      "latitude": "51.55912000",
      "longitude": "21.84829000",
      "timezone": "Europe/Warsaw",
      "wikiDataId": "Q983732",
      "country_code": "PL",
      "state_code": "06",
      "state_id": 1638,
      "country_id": 176
    },
    {
      "id": 86253,
      "name": "Dębowa Kłoda",
      "name_default": "Dębowa Kłoda",
      "native": "Dębowa Kłoda",
      "type": "adm3",
      "level": null,
      "parent_id": null,
      "population": 397,
      "latitude": "51.59446000",
      "longitude": "23.00640000",
      "timezone": "Europe/Warsaw",
      "wikiDataId": "Q3744963",
      "country_code": "PL",
      "state_code": "06",
      "state_id": 1638,
      "country_id": 176
    },
    {
      "id": 86192,
      "name": "Dołhobyczów",
      "name_default": "Dołhobyczów",
      "native": "Dołhobyczów",
      "type": "city",
      "level": null,
      "parent_id": null,
      "population": 1491,
      "latitude": "50.58591000",
      "longitude": "24.03594000",
      "timezone": "Europe/Warsaw",
      "wikiDataId": "Q656888",
      "country_code": "PL",
      "state_code": "06",
      "state_id": 1638,
      "country_id": 176
    },
    {
      "id": 86190,
      "name": "Dorohusk",
      "name_default": "Dorohusk",
      "native": "Dorohusk",
      "type": "adm3",
      "level": null,
      "parent_id": null,
      "population": 435,
      "latitude": "51.15475000",
      "longitude": "23.80325000",
      "timezone": "Europe/Warsaw",
      "wikiDataId": "Q594248",
      "country_code": "PL",
      "state_code": "06",
      "state_id": 1638,
      "country_id": 176
    },
    {
      "id": 86196,
      "name": "Drelów",
      "name_default": "Drelów",
      "native": "Drelów",
      "type": "adm3",
      "level": null,
      "parent_id": null,
      "population": 902,
      "latitude": "51.91219000",
      "longitude": "22.87165000",
      "timezone": "Europe/Warsaw",
      "wikiDataId": "Q326123",
      "country_code": "PL",
      "state_code": "06",
      "state_id": 1638,
      "country_id": 176
    },
    {
      "id": 86205,
      "name": "Dubienka",
      "name_default": "Dubienka",
      "native": "Dubienka",
      "type": "city",
      "level": null,
      "parent_id": null,
      "population": 1042,
      "latitude": "51.04862000",
      "longitude": "23.89252000",
      "timezone": "Europe/Warsaw",
      "wikiDataId": "Q2398279",
      "country_code": "PL",
      "state_code": "06",
      "state_id": 1638,
      "country_id": 176
    },
    {
      "id": 86232,
      "name": "Dzwola",
      "name_default": "Dzwola",
      "native": "Senny",
      "type": "adm3",
      "level": null,
      "parent_id": null,
      "population": 825,
      "latitude": "50.69657000",
      "longitude": "22.56729000",
      "timezone": "Europe/Warsaw",
      "wikiDataId": "Q5320040",
      "country_code": "PL",
      "state_code": "06",
      "state_id": 1638,
      "country_id": 176
    },
    {
      "id": 86267,
      "name": "Fajsławice",
      "name_default": "Fajsławice",
      "native": "Fajsławice",
      "type": "adm3",
      "level": null,
      "parent_id": null,
      "population": 1347,
      "latitude": "51.09592000",
      "longitude": "22.96323000",
      "timezone": "Europe/Warsaw",
      "wikiDataId": "Q2388556",
      "country_code": "PL",
      "state_code": "06",
      "state_id": 1638,
      "country_id": 176
    },
    {
      "id": 86271,
      "name": "Firlej",
      "name_default": "Firlej",
      "native": "Firlej",
      "type": "adm3",
      "level": null,
      "parent_id": null,
      "population": 1184,
      "latitude": "51.55882000",
      "longitude": "22.50841000",
      "timezone": "Europe/Warsaw",
      "wikiDataId": "Q2221577",
      "country_code": "PL",
      "state_code": "06",
      "state_id": 1638,
      "country_id": 176
    },
    {
      "id": 86273,
      "name": "Frampol",
      "name_default": "Frampol",
      "native": "FRAMPOL",
      "type": "adm3",
      "level": null,
      "parent_id": null,
      "population": 1361,
      "latitude": "50.67159000",
      "longitude": "22.67061000",
      "timezone": "Europe/Warsaw",
      "wikiDataId": "Q985646",
      "country_code": "PL",
      "state_code": "06",
      "state_id": 1638,
      "country_id": 176
    },
    {
      "id": 86282,
      "name": "Garbów",
      "name_default": "Garbów",
      "native": "Garbów",
      "type": "adm3",
      "level": null,
      "parent_id": null,
      "population": 2060,
      "latitude": "51.35517000",
      "longitude": "22.32937000",
      "timezone": "Europe/Warsaw",
      "wikiDataId": "Q948075",
      "country_code": "PL",
      "state_code": "06",
      "state_id": 1638,
      "country_id": 176
    },
    {
      "id": 86320,
      "name": "Godziszów",
      "name_default": "Godziszów",
      "native": "Godziszów",
      "type": "adm3",
      "level": null,
      "parent_id": null,
      "population": 1963,
      "latitude": "50.74889000",
      "longitude": "22.49794000",
      "timezone": "Europe/Warsaw",
      "wikiDataId": "Q2074140",
      "country_code": "PL",
      "state_code": "06",
      "state_id": 1638,
      "country_id": 176
    },
    {
      "id": 86321,
      "name": "Godziszów Pierwszy",
      "name_default": "Godziszów Pierwszy",
      "native": "Godziszów Pierwszy",
      "type": "section",
      "level": null,
      "parent_id": null,
      "population": 1108,
      "latitude": "50.75753000",
      "longitude": "22.48386000",
      "timezone": "Europe/Warsaw",
      "wikiDataId": "Q2074140",
      "country_code": "PL",
      "state_code": "06",
      "state_id": 1638,
      "country_id": 176
    },
    {
      "id": 86332,
      "name": "Goraj",
      "name_default": "Goraj",
      "native": "Goraj",
      "type": "adm3",
      "level": null,
      "parent_id": null,
      "population": 883,
      "latitude": "50.72184000",
      "longitude": "22.66651000",
      "timezone": "Europe/Warsaw",
      "wikiDataId": "Q2461391",
      "country_code": "PL",
      "state_code": "06",
      "state_id": 1638,
      "country_id": 176
    },
    {
      "id": 86337,
      "name": "Gorzków",
      "name_default": "Gorzków",
      "native": "Gorzków",
      "type": "adm3",
      "level": null,
      "parent_id": null,
      "population": 246,
      "latitude": "50.94778000",
      "longitude": "23.01267000",
      "timezone": "Europe/Warsaw",
      "wikiDataId": "Q2313432",
      "country_code": "PL",
      "state_code": "06",
      "state_id": 1638,
      "country_id": 176
    },
    {
      "id": 86360,
      "name": "Gościeradów",
      "name_default": "Gościeradów",
      "native": "Gościeradów",
      "type": "adm3",
      "level": null,
      "parent_id": null,
      "population": 880,
      "latitude": "50.86859000",
      "longitude": "22.00536000",
      "timezone": "Europe/Warsaw",
      "wikiDataId": "Q5590445",
      "country_code": "PL",
      "state_code": "06",
      "state_id": 1638,
      "country_id": 176
    },
    {
      "id": 86365,
      "name": "Grabowiec",
      "name_default": "Grabowiec",
      "native": "Grabowiec",
      "type": "adm3",
      "level": null,
      "parent_id": null,
      "population": 755,
      "latitude": "50.82090000",
      "longitude": "23.55057000",
      "timezone": "Europe/Warsaw",
      "wikiDataId": "Q2261958",
      "country_code": "PL",
      "state_code": "06",
      "state_id": 1638,
      "country_id": 176
    },
    {
      "id": 86444,
      "name": "Hansk",
      "name_default": "Hańsk",
      "native": "Hańsk",
      "type": "city",
      "level": null,
      "parent_id": null,
      "population": 843,
      "latitude": "51.41286000",
      "longitude": "23.39942000",
      "timezone": "Europe/Warsaw",
      "wikiDataId": "Q3017017",
      "country_code": "PL",
      "state_code": "06",
      "state_id": 1638,
      "country_id": 176
    },
    {
      "id": 86450,
      "name": "Horodło",
      "name_default": "Horodło",
      "native": "Horodło",
      "type": "city",
      "level": null,
      "parent_id": null,
      "population": 938,
      "latitude": "50.89459000",
      "longitude": "24.03723000",
      "timezone": "Europe/Warsaw",
      "wikiDataId": "Q934815",
      "country_code": "PL",
      "state_code": "06",
      "state_id": 1638,
      "country_id": 176
    },
    {
      "id": 86452,
      "name": "Hrubieszów",
      "name_default": "Hrubieszów",
      "native": "Hrubieszów",
      "type": "adm3",
      "level": null,
      "parent_id": null,
      "population": 16832,
      "latitude": "50.80502000",
      "longitude": "23.89251000",
      "timezone": "Europe/Warsaw",
      "wikiDataId": "Q924103",
      "country_code": "PL",
      "state_code": "06",
      "state_id": 1638,
      "country_id": 176
    },
    {
      "id": 86468,
      "name": "Izbica",
      "name_default": "Izbica",
      "native": "BROJ",
      "type": "adm3",
      "level": null,
      "parent_id": null,
      "population": 1933,
      "latitude": "50.88728000",
      "longitude": "23.15248000",
      "timezone": "Europe/Warsaw",
      "wikiDataId": "Q2039456",
      "country_code": "PL",
      "state_code": "06",
      "state_id": 1638,
      "country_id": 176
    },
    {
      "id": 86486,
      "name": "Jabłoń",
      "name_default": "Jabłoń",
      "native": "Jabłoń",
      "type": "adm3",
      "level": null,
      "parent_id": null,
      "population": 1251,
      "latitude": "51.72501000",
      "longitude": "23.08743000",
      "timezone": "Europe/Warsaw",
      "wikiDataId": "Q2270968",
      "country_code": "PL",
      "state_code": "06",
      "state_id": 1638,
      "country_id": 176
    },
    {
      "id": 86481,
      "name": "Jabłonna",
      "name_default": "Jabłonna",
      "native": "Jabłonna",
      "type": "adm3",
      "level": null,
      "parent_id": null,
      "population": 2041,
      "latitude": "51.08875000",
      "longitude": "22.59364000",
      "timezone": "Europe/Warsaw",
      "wikiDataId": "Q1906165",
      "country_code": "PL",
      "state_code": "06",
      "state_id": 1638,
      "country_id": 176
    },
    {
      "id": 86491,
      "name": "Jakubowice Murowane",
      "name_default": "Jakubowice Murowane",
      "native": "Jakubowice Murowane",
      "type": "adm3",
      "level": null,
      "parent_id": null,
      "population": 242,
      "latitude": "51.26992000",
      "longitude": "22.63415000",
      "timezone": "Europe/Warsaw",
      "wikiDataId": "Q2755421",
      "country_code": "PL",
      "state_code": "06",
      "state_id": 1638,
      "country_id": 176
    },
    {
      "id": 86503,
      "name": "Janów Lubelski",
      "name_default": "Janów Lubelski",
      "native": "Janów Lubelski",
      "type": "adm2",
      "level": null,
      "parent_id": null,
      "population": 11308,
      "latitude": "50.70695000",
      "longitude": "22.41039000",
      "timezone": "Europe/Warsaw",
      "wikiDataId": "Q991840",
      "country_code": "PL",
      "state_code": "06",
      "state_id": 1638,
      "country_id": 176
    },
    {
      "id": 86504,
      "name": "Janów Podlaski",
      "name_default": "Janów Podlaski",
      "native": "Janów Podlaski",
      "type": "adm3",
      "level": null,
      "parent_id": null,
      "population": 2659,
      "latitude": "52.19398000",
      "longitude": "23.21218000",
      "timezone": "Europe/Warsaw",
      "wikiDataId": "Q2199195",
      "country_code": "PL",
      "state_code": "06",
      "state_id": 1638,
      "country_id": 176
    },
    {
      "id": 86500,
      "name": "Janowiec",
      "name_default": "Janowiec",
      "native": "Janowiec",
      "type": "adm3",
      "level": null,
      "parent_id": null,
      "population": 1000,
      "latitude": "51.32359000",
      "longitude": "21.88940000",
      "timezone": "Europe/Warsaw",
      "wikiDataId": "Q1682963",
      "country_code": "PL",
      "state_code": "06",
      "state_id": 1638,
      "country_id": 176
    },
    {
      "id": 86506,
      "name": "Jarczów",
      "name_default": "Jarczów",
      "native": "Jarczów",
      "type": "adm3",
      "level": null,
      "parent_id": null,
      "population": 876,
      "latitude": "50.42438000",
      "longitude": "23.58576000",
      "timezone": "Europe/Warsaw",
      "wikiDataId": "Q2148486",
      "country_code": "PL",
      "state_code": "06",
      "state_id": 1638,
      "country_id": 176
    },
    {
      "id": 86521,
      "name": "Jastków",
      "name_default": "Jastków",
      "native": "Jastków",
      "type": "adm3",
      "level": null,
      "parent_id": null,
      "population": 700,
      "latitude": "51.30411000",
      "longitude": "22.43546000",
      "timezone": "Europe/Warsaw",
      "wikiDataId": "Q2461112",
      "country_code": "PL",
      "state_code": "06",
      "state_id": 1638,
      "country_id": 176
    },
    {
      "id": 86557,
      "name": "Jeziorzany",
      "name_default": "Jeziorzany",
      "native": "Jeziorzany",
      "type": "adm3",
      "level": null,
      "parent_id": null,
      "population": 780,
      "latitude": "51.60245000",
      "longitude": "22.27667000",
      "timezone": "Europe/Warsaw",
      "wikiDataId": "Q744063",
      "country_code": "PL",
      "state_code": "06",
      "state_id": 1638,
      "country_id": 176
    },
    {
      "id": 86575,
      "name": "Józefów",
      "name_default": "Józefów",
      "native": "Józefów",
      "type": "adm3",
      "level": null,
      "parent_id": null,
      "population": 2418,
      "latitude": "50.48119000",
      "longitude": "23.05404000",
      "timezone": "Europe/Warsaw",
      "wikiDataId": "Q1025336",
      "country_code": "PL",
      "state_code": "06",
      "state_id": 1638,
      "country_id": 176
    },
    {
      "id": 86577,
      "name": "Józefów nad Wisłą",
      "name_default": "Józefów nad Wisłą",
      "native": "Józefów nad Wisłą",
      "type": "adm3",
      "level": null,
      "parent_id": null,
      "population": 833,
      "latitude": "51.04183000",
      "longitude": "21.83018000",
      "timezone": "Europe/Warsaw",
      "wikiDataId": "Q2460974",
      "country_code": "PL",
      "state_code": "06",
      "state_id": 1638,
      "country_id": 176
    },
    {
      "id": 86603,
      "name": "Kamionka",
      "name_default": "Kamionka",
      "native": "Kamionka",
      "type": "adm3",
      "level": null,
      "parent_id": null,
      "population": 1800,
      "latitude": "51.47165000",
      "longitude": "22.46275000",
      "timezone": "Europe/Warsaw",
      "wikiDataId": "Q991887",
      "country_code": "PL",
      "state_code": "06",
      "state_id": 1638,
      "country_id": 176
    },
    {
      "id": 86610,
      "name": "Karczmiska",
      "name_default": "Karczmiska",
      "native": "Karczmiska",
      "type": "adm3",
      "level": null,
      "parent_id": null,
      "population": 800,
      "latitude": "51.22952000",
      "longitude": "21.98158000",
      "timezone": "Europe/Warsaw",
      "wikiDataId": "Q2234291",
      "country_code": "PL",
      "state_code": "06",
      "state_id": 1638,
      "country_id": 176
    },
    {
      "id": 86626,
      "name": "Kazimierz Dolny",
      "name_default": "Kazimierz Dolny",
      "native": "Kazimierz Dolny",
      "type": "adm3",
      "level": null,
      "parent_id": null,
      "population": 3255,
      "latitude": "51.31911000",
      "longitude": "21.95502000",
      "timezone": "Europe/Warsaw",
      "wikiDataId": "Q774098",
      "country_code": "PL",
      "state_code": "06",
      "state_id": 1638,
      "country_id": 176
    },
    {
      "id": 86863,
      "name": "Kłoczew",
      "name_default": "Kłoczew",
      "native": "Kłoczew",
      "type": "adm3",
      "level": null,
      "parent_id": null,
      "population": 886,
      "latitude": "51.72134000",
      "longitude": "21.96493000",
      "timezone": "Europe/Warsaw",
      "wikiDataId": "Q2315541",
      "country_code": "PL",
      "state_code": "06",
      "state_id": 1638,
      "country_id": 176
    },
    {
      "id": 86672,
      "name": "Kock",
      "name_default": "Kock",
      "native": "Kock",
      "type": "adm3",
      "level": null,
      "parent_id": null,
      "population": 2976,
      "latitude": "51.63997000",
      "longitude": "22.44391000",
      "timezone": "Europe/Warsaw",
      "wikiDataId": "Q991819",
      "country_code": "PL",
      "state_code": "06",
      "state_id": 1638,
      "country_id": 176
    },
    {
      "id": 86674,
      "name": "Kodeń",
      "name_default": "Kodeń",
      "native": "Kodeń",
      "type": "adm3",
      "level": null,
      "parent_id": null,
      "population": 1900,
      "latitude": "51.91171000",
      "longitude": "23.60301000",
      "timezone": "Europe/Warsaw",
      "wikiDataId": "Q614142",
      "country_code": "PL",
      "state_code": "06",
      "state_id": 1638,
      "country_id": 176
    },
    {
      "id": 86683,
      "name": "Komarów-Osada",
      "name_default": "Komarów-Osada",
      "native": "Komarów-Osada",
      "type": "adm3",
      "level": null,
      "parent_id": null,
      "population": 1044,
      "latitude": "50.62888000",
      "longitude": "23.47740000",
      "timezone": "Europe/Warsaw",
      "wikiDataId": "Q2648217",
      "country_code": "PL",
      "state_code": "06",
      "state_id": 1638,
      "country_id": 176
    },
    {
      "id": 86684,
      "name": "Komarówka Podlaska",
      "name_default": "Komarówka Podlaska",
      "native": "Komarówka Podlaska",
      "type": "city",
      "level": null,
      "parent_id": null,
      "population": 1077,
      "latitude": "51.80315000",
      "longitude": "22.94392000",
      "timezone": "Europe/Warsaw",
      "wikiDataId": "Q2436138",
      "country_code": "PL",
      "state_code": "06",
      "state_id": 1638,
      "country_id": 176
    },
    {
      "id": 86751,
      "name": "Końskowola",
      "name_default": "Końskowola",
      "native": "KNYSKOWOLA",
      "type": "adm3",
      "level": null,
      "parent_id": null,
      "population": 1985,
      "latitude": "51.40922000",
      "longitude": "22.05175000",
      "timezone": "Europe/Warsaw",
      "wikiDataId": "Q1959",
      "country_code": "PL",
      "state_code": "06",
      "state_id": 1638,
      "country_id": 176
    },
    {
      "id": 86697,
      "name": "Konstantynów",
      "name_default": "Konstantynów",
      "native": "Konstantynów",
      "type": "city",
      "level": null,
      "parent_id": null,
      "population": 1437,
      "latitude": "52.20746000",
      "longitude": "23.08530000",
      "timezone": "Europe/Warsaw",
      "wikiDataId": "Q614343",
      "country_code": "PL",
      "state_code": "06",
      "state_id": 1638,
      "country_id": 176
    },
    {
      "id": 86736,
      "name": "Kozubszczyzna",
      "name_default": "Kozubszczyzna",
      "native": "Kozubszczyzna",
      "type": "adm3",
      "level": null,
      "parent_id": null,
      "population": 750,
      "latitude": "51.22323000",
      "longitude": "22.42747000",
      "timezone": "Europe/Warsaw",
      "wikiDataId": "Q2691704",
      "country_code": "PL",
      "state_code": "06",
      "state_id": 1638,
      "country_id": 176
    },
    {
      "id": 86776,
      "name": "Kraśniczyn",
      "name_default": "Kraśniczyn",
      "native": "Kraśniczyn",
      "type": "adm3",
      "level": null,
      "parent_id": null,
      "population": 359,
      "latitude": "50.93171000",
      "longitude": "23.34929000",
      "timezone": "Europe/Warsaw",
      "wikiDataId": "Q2137339",
      "country_code": "PL",
      "state_code": "06",
      "state_id": 1638,
      "country_id": 176
    },
    {
      "id": 86777,
      "name": "Kraśnik",
      "name_default": "Kraśnik",
      "native": "Kraśnik",
      "type": "adm2",
      "level": null,
      "parent_id": null,
      "population": 32593,
      "latitude": "50.92360000",
      "longitude": "22.22706000",
      "timezone": "Europe/Warsaw",
      "wikiDataId": "Q983723",
      "country_code": "PL",
      "state_code": "06",
      "state_id": 1638,
      "country_id": 176
    },
    {
      "id": 86770,
      "name": "Krasnobród",
      "name_default": "Krasnobród",
      "native": "Krasnobród",
      "type": "adm3",
      "level": null,
      "parent_id": null,
      "population": 3013,
      "latitude": "50.54551000",
      "longitude": "23.21308000",
      "timezone": "Europe/Warsaw",
      "wikiDataId": "Q999623",
      "country_code": "PL",
      "state_code": "06",
      "state_id": 1638,
      "country_id": 176
    },
    {
      "id": 86773,
      "name": "Krasnystaw",
      "name_default": "Krasnystaw",
      "native": "Krasnystaw",
      "type": "adm2",
      "level": null,
      "parent_id": null,
      "population": 17519,
      "latitude": "50.98464000",
      "longitude": "23.17420000",
      "timezone": "Europe/Warsaw",
      "wikiDataId": "Q155088",
      "country_code": "PL",
      "state_code": "06",
      "state_id": 1638,
      "country_id": 176
    },
    {
      "id": 86796,
      "name": "Krynice",
      "name_default": "Krynice",
      "native": "Kryształ",
      "type": "adm3",
      "level": null,
      "parent_id": null,
      "population": 455,
      "latitude": "50.58760000",
      "longitude": "23.38157000",
      "timezone": "Europe/Warsaw",
      "wikiDataId": "Q2563569",
      "country_code": "PL",
      "state_code": "06",
      "state_id": 1638,
      "country_id": 176
    },
    {
      "id": 86802,
      "name": "Krzczonów",
      "name_default": "Krzczonów",
      "native": "Krzczonów",
      "type": "adm3",
      "level": null,
      "parent_id": null,
      "population": 1462,
      "latitude": "51.00727000",
      "longitude": "22.71097000",
      "timezone": "Europe/Warsaw",
      "wikiDataId": "Q2291444",
      "country_code": "PL",
      "state_code": "06",
      "state_id": 1638,
      "country_id": 176
    },
    {
      "id": 86819,
      "name": "Krzywda",
      "name_default": "Krzywda",
      "native": "Krzywda",
      "type": "city",
      "level": null,
      "parent_id": null,
      "population": 1750,
      "latitude": "51.79519000",
      "longitude": "22.19994000",
      "timezone": "Europe/Warsaw",
      "wikiDataId": "Q2636567",
      "country_code": "PL",
      "state_code": "06",
      "state_id": 1638,
      "country_id": 176
    },
    {
      "id": 86832,
      "name": "Księżomierz",
      "name_default": "Księżomierz",
      "native": "Księżomierz",
      "type": "city",
      "level": null,
      "parent_id": null,
      "population": 1153,
      "latitude": "50.90855000",
      "longitude": "21.98965000",
      "timezone": "Europe/Warsaw",
      "wikiDataId": "Q3817245",
      "country_code": "PL",
      "state_code": "06",
      "state_id": 1638,
      "country_id": 176
    },
    {
      "id": 86833,
      "name": "Księżpol",
      "name_default": "Księżpol",
      "native": "Księżpol",
      "type": "adm3",
      "level": null,
      "parent_id": null,
      "population": 1145,
      "latitude": "50.42323000",
      "longitude": "22.73526000",
      "timezone": "Europe/Warsaw",
      "wikiDataId": "Q2461121",
      "country_code": "PL",
      "state_code": "06",
      "state_id": 1638,
      "country_id": 176
    },
    {
      "id": 86843,
      "name": "Kurów",
      "name_default": "Kurów",
      "native": "Kurów",
      "type": "adm3",
      "level": null,
      "parent_id": null,
      "population": 2804,
      "latitude": "51.38941000",
      "longitude": "22.18637000",
      "timezone": "Europe/Warsaw",
      "wikiDataId": "Q2316",
      "country_code": "PL",
      "state_code": "06",
      "state_id": 1638,
      "country_id": 176
    },
    {
      "id": 86890,
      "name": "Leśna Podlaska",
      "name_default": "Leśna Podlaska",
      "native": "Leśna Podlaska",
      "type": "adm3",
      "level": null,
      "parent_id": null,
      "population": 895,
      "latitude": "52.13317000",
      "longitude": "23.02786000",
      "timezone": "Europe/Warsaw",
      "wikiDataId": "Q614327",
      "country_code": "PL",
      "state_code": "06",
      "state_id": 1638,
      "country_id": 176
    },
    {
      "id": 86932,
      "name": "Lubartów",
      "name_default": "Lubartów",
      "native": "Lubartów",
      "type": "adm2",
      "level": null,
      "parent_id": null,
      "population": 20494,
      "latitude": "51.46026000",
      "longitude": "22.60952000",
      "timezone": "Europe/Warsaw",
      "wikiDataId": "Q283885",
      "country_code": "PL",
      "state_code": "06",
      "state_id": 1638,
      "country_id": 176
    },
    {
      "id": 86947,
      "name": "Lublin",
      "name_default": "Lublin",
      "native": "Lublin",
      "type": "adm1",
      "level": null,
      "parent_id": null,
      "population": 163749,
      "latitude": "51.25000000",
      "longitude": "22.56667000",
      "timezone": "Europe/Warsaw",
      "wikiDataId": "Q37333",
      "country_code": "PL",
      "state_code": "06",
      "state_id": 1638,
      "country_id": 176
    },
    {
      "id": 86962,
      "name": "Lubycza Królewska",
      "name_default": "Lubycza Królewska",
      "native": "Lubycza Królewska",
      "type": "adm3",
      "level": null,
      "parent_id": null,
      "population": 2204,
      "latitude": "50.34102000",
      "longitude": "23.51941000",
      "timezone": "Europe/Warsaw",
      "wikiDataId": "Q149111",
      "country_code": "PL",
      "state_code": "06",
      "state_id": 1638,
      "country_id": 176
    },
    {
      "id": 86964,
      "name": "Ludwin",
      "name_default": "Ludwin",
      "native": "Ludwin",
      "type": "adm3",
      "level": null,
      "parent_id": null,
      "population": 5041,
      "latitude": "51.34605000",
      "longitude": "22.90581000",
      "timezone": "Europe/Warsaw",
      "wikiDataId": "Q2460605",
      "country_code": "PL",
      "state_code": "06",
      "state_id": 1638,
      "country_id": 176
    },
    {
      "id": 88757,
      "name": "Łabunie",
      "name_default": "Łabunie",
      "native": "Łabunie",
      "type": "adm3",
      "level": null,
      "parent_id": null,
      "population": 1692,
      "latitude": "50.65517000",
      "longitude": "23.36620000",
      "timezone": "Europe/Warsaw",
      "wikiDataId": "Q2138970",
      "country_code": "PL",
      "state_code": "06",
      "state_id": 1638,
      "country_id": 176
    },
    {
      "id": 88772,
      "name": "Łaszczów",
      "name_default": "Łaszczów",
      "native": "Łaszczów",
      "type": "adm3",
      "level": null,
      "parent_id": null,
      "population": 2010,
      "latitude": "50.53332000",
      "longitude": "23.72562000",
      "timezone": "Europe/Warsaw",
      "wikiDataId": "Q2167485",
      "country_code": "PL",
      "state_code": "06",
      "state_id": 1638,
      "country_id": 176
    },
    {
      "id": 88773,
      "name": "Łaziska",
      "name_default": "Łaziska",
      "native": "Łaziska",
      "type": "adm3",
      "level": null,
      "parent_id": null,
      "population": 519,
      "latitude": "51.14226000",
      "longitude": "21.87919000",
      "timezone": "Europe/Warsaw",
      "wikiDataId": "Q2316344",
      "country_code": "PL",
      "state_code": "06",
      "state_id": 1638,
      "country_id": 176
    },
    {
      "id": 88816,
      "name": "Łęczna",
      "name_default": "Łęczna",
      "native": "Łęczna",
      "type": "adm2",
      "level": null,
      "parent_id": null,
      "population": 17826,
      "latitude": "51.30121000",
      "longitude": "22.88135000",
      "timezone": "Europe/Warsaw",
      "wikiDataId": "Q384433",
      "country_code": "PL",
      "state_code": "06",
      "state_id": 1638,
      "country_id": 176
    },
    {
      "id": 88784,
      "name": "Łomazy",
      "name_default": "Łomazy",
      "native": "Łomazy",
      "type": "adm3",
      "level": null,
      "parent_id": null,
      "population": 1632,
      "latitude": "51.90435000",
      "longitude": "23.17656000",
      "timezone": "Europe/Warsaw",
      "wikiDataId": "Q152112",
      "country_code": "PL",
      "state_code": "06",
      "state_id": 1638,
      "country_id": 176
    },
    {
      "id": 88788,
      "name": "Łopiennik Górny",
      "name_default": "Łopiennik Górny",
      "native": "Łopiennik Górny",
      "type": "adm3",
      "level": null,
      "parent_id": null,
      "population": 478,
      "latitude": "51.04080000",
      "longitude": "23.01833000",
      "timezone": "Europe/Warsaw",
      "wikiDataId": "Q1895208",
      "country_code": "PL",
      "state_code": "06",
      "state_id": 1638,
      "country_id": 176
    },
    {
      "id": 88805,
      "name": "Łuków",
      "name_default": "Łuków",
      "native": "Łuków",
      "type": "adm3",
      "level": null,
      "parent_id": null,
      "population": 27906,
      "latitude": "51.92900000",
      "longitude": "22.37956000",
      "timezone": "Europe/Warsaw",
      "wikiDataId": "Q384244",
      "country_code": "PL",
      "state_code": "06",
      "state_id": 1638,
      "country_id": 176
    },
    {
      "id": 88803,
      "name": "Łukowa",
      "name_default": "Łukowa",
      "native": "Łukowa",
      "type": "adm3",
      "level": null,
      "parent_id": null,
      "population": 2604,
      "latitude": "50.37426000",
      "longitude": "22.94349000",
      "timezone": "Europe/Warsaw",
      "wikiDataId": "Q2460478",
      "country_code": "PL",
      "state_code": "06",
      "state_id": 1638,
      "country_id": 176
    },
    {
      "id": 86996,
      "name": "Markuszów",
      "name_default": "Markuszów",
      "native": "Markuszów",
      "type": "adm3",
      "level": null,
      "parent_id": null,
      "population": 1600,
      "latitude": "51.37457000",
      "longitude": "22.25804000",
      "timezone": "Europe/Warsaw",
      "wikiDataId": "Q735224",
      "country_code": "PL",
      "state_code": "06",
      "state_id": 1638,
      "country_id": 176
    },
    {
      "id": 87014,
      "name": "Mełgiew",
      "name_default": "Mełgiew",
      "native": "Mełgiew",
      "type": "adm3",
      "level": null,
      "parent_id": null,
      "population": 1113,
      "latitude": "51.22519000",
      "longitude": "22.78414000",
      "timezone": "Europe/Warsaw",
      "wikiDataId": "Q2856331",
      "country_code": "PL",
      "state_code": "06",
      "state_id": 1638,
      "country_id": 176
    },
    {
      "id": 87058,
      "name": "Miączyn",
      "name_default": "Miączyn",
      "native": "Miączyn",
      "type": "adm3",
      "level": null,
      "parent_id": null,
      "population": 749,
      "latitude": "50.73825000",
      "longitude": "23.50130000",
      "timezone": "Europe/Warsaw",
      "wikiDataId": "Q3197459",
      "country_code": "PL",
      "state_code": "06",
      "state_id": 1638,
      "country_id": 176
    },
    {
      "id": 87022,
      "name": "Michałów",
      "name_default": "Michałów",
      "native": "Michałów",
      "type": "city",
      "level": null,
      "parent_id": null,
      "population": 1485,
      "latitude": "50.54709000",
      "longitude": "23.60361000",
      "timezone": "Europe/Warsaw",
      "wikiDataId": "Q6835951",
      "country_code": "PL",
      "state_code": "06",
      "state_id": 1638,
      "country_id": 176
    },
    {
      "id": 87025,
      "name": "Michów",
      "name_default": "Michów",
      "native": "Michów",
      "type": "adm3",
      "level": null,
      "parent_id": null,
      "population": 1596,
      "latitude": "51.52573000",
      "longitude": "22.31435000",
      "timezone": "Europe/Warsaw",
      "wikiDataId": "Q2460527",
      "country_code": "PL",
      "state_code": "06",
      "state_id": 1638,
      "country_id": 176
    },
    {
      "id": 87064,
      "name": "Międzyrzec Podlaski",
      "name_default": "Międzyrzec Podlaski",
      "native": "Międzyrzec Podlaski",
      "type": "adm3",
      "level": null,
      "parent_id": null,
      "population": 15830,
      "latitude": "51.98640000",
      "longitude": "22.78248000",
      "timezone": "Europe/Warsaw",
      "wikiDataId": "Q34267",
      "country_code": "PL",
      "state_code": "06",
      "state_id": 1638,
      "country_id": 176
    },
    {
      "id": 87046,
      "name": "Mailand",
      "name_default": "Milanów",
      "native": "Milanów",
      "type": "adm3",
      "level": null,
      "parent_id": null,
      "population": 1105,
      "latitude": "51.70374000",
      "longitude": "22.88830000",
      "timezone": "Europe/Warsaw",
      "wikiDataId": "Q2112229",
      "country_code": "PL",
      "state_code": "06",
      "state_id": 1638,
      "country_id": 176
    },
    {
      "id": 87049,
      "name": "Milejów",
      "name_default": "Milejów",
      "native": "Milejów",
      "type": "adm3",
      "level": null,
      "parent_id": null,
      "population": 2676,
      "latitude": "51.23226000",
      "longitude": "22.92443000",
      "timezone": "Europe/Warsaw",
      "wikiDataId": "Q2429259",
      "country_code": "PL",
      "state_code": "06",
      "state_id": 1638,
      "country_id": 176
    },
    {
      "id": 87052,
      "name": "Mircze",
      "name_default": "Mircze",
      "native": "Mircze",
      "type": "city",
      "level": null,
      "parent_id": null,
      "population": 1356,
      "latitude": "50.65164000",
      "longitude": "23.89604000",
      "timezone": "Europe/Warsaw",
      "wikiDataId": "Q1965753",
      "country_code": "PL",
      "state_code": "06",
      "state_id": 1638,
      "country_id": 176
    },
    {
      "id": 87081,
      "name": "Modliborzyce",
      "name_default": "Modliborzyce",
      "native": "Modliborzyce",
      "type": "adm3",
      "level": null,
      "parent_id": null,
      "population": 1904,
      "latitude": "50.75416000",
      "longitude": "22.32945000",
      "timezone": "Europe/Warsaw",
      "wikiDataId": "Q2460426",
      "country_code": "PL",
      "state_code": "06",
      "state_id": 1638,
      "country_id": 176
    },
    {
      "id": 87143,
      "name": "Nałęczów",
      "name_default": "Nałęczów",
      "native": "Nałęczów",
      "type": "adm3",
      "level": null,
      "parent_id": null,
      "population": 4200,
      "latitude": "51.28581000",
      "longitude": "22.21539000",
      "timezone": "Europe/Warsaw",
      "wikiDataId": "Q1916952",
      "country_code": "PL",
      "state_code": "06",
      "state_id": 1638,
      "country_id": 176
    },
    {
      "id": 87155,
      "name": "Niedrzwica Duża",
      "name_default": "Niedrzwica Duża",
      "native": "Niedrzwica Duża",
      "type": "adm3",
      "level": null,
      "parent_id": null,
      "population": 4411,
      "latitude": "51.11462000",
      "longitude": "22.38911000",
      "timezone": "Europe/Warsaw",
      "wikiDataId": "Q3990648",
      "country_code": "PL",
      "state_code": "06",
      "state_id": 1638,
      "country_id": 176
    },
    {
      "id": 87157,
      "name": "Niedźwiada",
      "name_default": "Niedźwiada",
      "native": "Niedźwiada",
      "type": "adm3",
      "level": null,
      "parent_id": null,
      "population": 754,
      "latitude": "51.54409000",
      "longitude": "22.69140000",
      "timezone": "Europe/Warsaw",
      "wikiDataId": "Q2022205",
      "country_code": "PL",
      "state_code": "06",
      "state_id": 1638,
      "country_id": 176
    },
    {
      "id": 87161,
      "name": "Nielisz",
      "name_default": "Nielisz",
      "native": "Nielisz",
      "type": "adm3",
      "level": null,
      "parent_id": null,
      "population": 749,
      "latitude": "50.80067000",
      "longitude": "23.04451000",
      "timezone": "Europe/Warsaw",
      "wikiDataId": "Q2258810",
      "country_code": "PL",
      "state_code": "06",
      "state_id": 1638,
      "country_id": 176
    },
    {
      "id": 87162,
      "name": "Niemce",
      "name_default": "Niemce",
      "native": "Niemce",
      "type": "adm3",
      "level": null,
      "parent_id": null,
      "population": 3660,
      "latitude": "51.36155000",
      "longitude": "22.63939000",
      "timezone": "Europe/Warsaw",
      "wikiDataId": "Q117729",
      "country_code": "PL",
      "state_code": "06",
      "state_id": 1638,
      "country_id": 176
    },
    {
      "id": 87193,
      "name": "Nowodwór",
      "name_default": "Nowodwór",
      "native": "Nowodwór",
      "type": "adm3",
      "level": null,
      "parent_id": null,
      "population": 520,
      "latitude": "51.63901000",
      "longitude": "22.10183000",
      "timezone": "Europe/Warsaw",
      "wikiDataId": "Q593819",
      "country_code": "PL",
      "state_code": "06",
      "state_id": 1638,
      "country_id": 176
    },
    {
      "id": 87222,
      "name": "Obsza",
      "name_default": "Obsza",
      "native": "Obsza",
      "type": "adm3",
      "level": null,
      "parent_id": null,
      "population": 770,
      "latitude": "50.31520000",
      "longitude": "22.95688000",
      "timezone": "Europe/Warsaw",
      "wikiDataId": "Q2618632",
      "country_code": "PL",
      "state_code": "06",
      "state_id": 1638,
      "country_id": 176
    },
    {
      "id": 87263,
      "name": "Opole Lubelskie",
      "name_default": "Opole Lubelskie",
      "native": "Opole Lubelskie",
      "type": "adm2",
      "level": null,
      "parent_id": null,
      "population": 8135,
      "latitude": "51.14775000",
      "longitude": "21.96897000",
      "timezone": "Europe/Warsaw",
      "wikiDataId": "Q1787507",
      "country_code": "PL",
      "state_code": "06",
      "state_id": 1638,
      "country_id": 176
    },
    {
      "id": 87309,
      "name": "Ostrów Lubelski",
      "name_default": "Ostrów Lubelski",
      "native": "Ostrów Lubelski",
      "type": "adm3",
      "level": null,
      "parent_id": null,
      "population": 2033,
      "latitude": "51.49416000",
      "longitude": "22.85287000",
      "timezone": "Europe/Warsaw",
      "wikiDataId": "Q1946017",
      "country_code": "PL",
      "state_code": "06",
      "state_id": 1638,
      "country_id": 176
    },
    {
      "id": 87313,
      "name": "Ostrówek",
      "name_default": "Ostrówek",
      "native": "Ostrówek",
      "type": "adm3",
      "level": null,
      "parent_id": null,
      "population": 276,
      "latitude": "51.58150000",
      "longitude": "22.61227000",
      "timezone": "Europe/Warsaw",
      "wikiDataId": "Q630572",
      "country_code": "PL",
      "state_code": "06",
      "state_id": 1638,
      "country_id": 176
    },
    {
      "id": 87347,
      "name": "Parczew",
      "name_default": "Parczew",
      "native": "Parczew",
      "type": "adm2",
      "level": null,
      "parent_id": null,
      "population": 10519,
      "latitude": "51.64021000",
      "longitude": "22.90057000",
      "timezone": "Europe/Warsaw",
      "wikiDataId": "Q2343396",
      "country_code": "PL",
      "state_code": "06",
      "state_id": 1638,
      "country_id": 176
    },
    {
      "id": 87370,
      "name": "Piaski",
      "name_default": "Piaski",
      "native": "Piaski",
      "type": "adm3",
      "level": null,
      "parent_id": null,
      "population": 2634,
      "latitude": "51.13892000",
      "longitude": "22.84856000",
      "timezone": "Europe/Warsaw",
      "wikiDataId": "Q2720748",
      "country_code": "PL",
      "state_code": "06",
      "state_id": 1638,
      "country_id": 176
    },
    {
      "id": 87399,
      "name": "Piszczac",
      "name_default": "Piszczac",
      "native": "Piszczac",
      "type": "adm3",
      "level": null,
      "parent_id": null,
      "population": 3087,
      "latitude": "51.98118000",
      "longitude": "23.37719000",
      "timezone": "Europe/Warsaw",
      "wikiDataId": "Q2921762",
      "country_code": "PL",
      "state_code": "06",
      "state_id": 1638,
      "country_id": 176
    },
    {
      "id": 87414,
      "name": "Podedwórze",
      "name_default": "Podedwórze",
      "native": "Podedwórze",
      "type": "adm3",
      "level": null,
      "parent_id": null,
      "population": 417,
      "latitude": "51.68815000",
      "longitude": "23.19961000",
      "timezone": "Europe/Warsaw",
      "wikiDataId": "Q576442",
      "country_code": "PL",
      "state_code": "06",
      "state_id": 1638,
      "country_id": 176
    },
    {
      "id": 87428,
      "name": "Pokrówka",
      "name_default": "Pokrówka",
      "native": "Pokrówka",
      "type": "city",
      "level": null,
      "parent_id": null,
      "population": 1594,
      "latitude": "51.09479000",
      "longitude": "23.46345000",
      "timezone": "Europe/Warsaw",
      "wikiDataId": "Q2787357",
      "country_code": "PL",
      "state_code": "06",
      "state_id": 1638,
      "country_id": 176
    },
    {
      "id": 87439,
      "name": "Poniatowa",
      "name_default": "Poniatowa",
      "native": "Poniatowa",
      "type": "adm3",
      "level": null,
      "parent_id": null,
      "population": 8517,
      "latitude": "51.17983000",
      "longitude": "22.13093000",
      "timezone": "Europe/Warsaw",
      "wikiDataId": "Q986912",
      "country_code": "PL",
      "state_code": "06",
      "state_id": 1638,
      "country_id": 176
    },
    {
      "id": 87452,
      "name": "Potok Górny",
      "name_default": "Potok Górny",
      "native": "Potok Górny",
      "type": "adm3",
      "level": null,
      "parent_id": null,
      "population": 1211,
      "latitude": "50.38477000",
      "longitude": "22.56188000",
      "timezone": "Europe/Warsaw",
      "wikiDataId": "Q2118585",
      "country_code": "PL",
      "state_code": "06",
      "state_id": 1638,
      "country_id": 176
    },
    {
      "id": 87453,
      "name": "Potok Wielki",
      "name_default": "Potok Wielki",
      "native": "Potok Wielki",
      "type": "adm3",
      "level": null,
      "parent_id": null,
      "population": 569,
      "latitude": "50.79150000",
      "longitude": "22.21642000",
      "timezone": "Europe/Warsaw",
      "wikiDataId": "Q1909200",
      "country_code": "PL",
      "state_code": "06",
      "state_id": 1638,
      "country_id": 176
    },
    {
      "id": 87832,
      "name": "Przytoczno",
      "name_default": "Przytoczno",
      "native": "Przytoczno",
      "type": "city",
      "level": null,
      "parent_id": null,
      "population": 1100,
      "latitude": "51.61951000",
      "longitude": "22.27135000",
      "timezone": "Europe/Warsaw",
      "wikiDataId": "Q7253733",
      "country_code": "PL",
      "state_code": "06",
      "state_id": 1638,
      "country_id": 176
    },
    {
      "id": 87846,
      "name": "Puchaczów",
      "name_default": "Puchaczów",
      "native": "Puchaczów",
      "type": "adm3",
      "level": null,
      "parent_id": null,
      "population": 715,
      "latitude": "51.31050000",
      "longitude": "22.97370000",
      "timezone": "Europe/Warsaw",
      "wikiDataId": "Q749523",
      "country_code": "PL",
      "state_code": "06",
      "state_id": 1638,
      "country_id": 176
    },
    {
      "id": 87851,
      "name": "Puławy",
      "name_default": "Puławy",
      "native": "Puławy",
      "type": "adm2",
      "level": null,
      "parent_id": null,
      "population": 45267,
      "latitude": "51.41655000",
      "longitude": "21.96939000",
      "timezone": "Europe/Warsaw",
      "wikiDataId": "Q320007",
      "country_code": "PL",
      "state_code": "06",
      "state_id": 1638,
      "country_id": 176
    },
    {
      "id": 87871,
      "name": "Rachanie",
      "name_default": "Rachanie",
      "native": "Rachanie",
      "type": "adm3",
      "level": null,
      "parent_id": null,
      "population": 990,
      "latitude": "50.53842000",
      "longitude": "23.54688000",
      "timezone": "Europe/Warsaw",
      "wikiDataId": "Q2056520",
      "country_code": "PL",
      "state_code": "06",
      "state_id": 1638,
      "country_id": 176
    },
    {
      "id": 87879,
      "name": "Radecznica",
      "name_default": "Radecznica",
      "native": "Radecznica",
      "type": "adm3",
      "level": null,
      "parent_id": null,
      "population": 767,
      "latitude": "50.75155000",
      "longitude": "22.82976000",
      "timezone": "Europe/Warsaw",
      "wikiDataId": "Q7280081",
      "country_code": "PL",
      "state_code": "06",
      "state_id": 1638,
      "country_id": 176
    },
    {
      "id": 87904,
      "name": "Radzyń Podlaski",
      "name_default": "Radzyń Podlaski",
      "native": "Radzyń Podlaski",
      "type": "adm3",
      "level": null,
      "parent_id": null,
      "population": 14806,
      "latitude": "51.78333000",
      "longitude": "22.61667000",
      "timezone": "Europe/Warsaw",
      "wikiDataId": "Q983866",
      "country_code": "PL",
      "state_code": "06",
      "state_id": 1638,
      "country_id": 176
    },
    {
      "id": 87933,
      "name": "Rejowiec",
      "name_default": "Rejowiec",
      "native": "REJOWIEC",
      "type": "city",
      "level": null,
      "parent_id": null,
      "population": 1982,
      "latitude": "51.09134000",
      "longitude": "23.28192000",
      "timezone": "Europe/Warsaw",
      "wikiDataId": "Q2459184",
      "country_code": "PL",
      "state_code": "06",
      "state_id": 1638,
      "country_id": 176
    },
    {
      "id": 87934,
      "name": "Rejowiec Fabryczny",
      "name_default": "Rejowiec Fabryczny",
      "native": "Rejowiec Fabryczny",
      "type": "adm3",
      "level": null,
      "parent_id": null,
      "population": 4102,
      "latitude": "51.11414000",
      "longitude": "23.24724000",
      "timezone": "Europe/Warsaw",
      "wikiDataId": "Q1906301",
      "country_code": "PL",
      "state_code": "06",
      "state_id": 1638,
      "country_id": 176
    },
    {
      "id": 87951,
      "name": "Rogóźno",
      "name_default": "Rogóźno",
      "native": "Rogóźno",
      "type": "city",
      "level": null,
      "parent_id": null,
      "population": 984,
      "latitude": "50.46417000",
      "longitude": "23.39041000",
      "timezone": "Europe/Warsaw",
      "wikiDataId": "Q7359635",
      "country_code": "PL",
      "state_code": "06",
      "state_id": 1638,
      "country_id": 176
    },
    {
      "id": 87958,
      "name": "Rokitno",
      "name_default": "Rokitno",
      "native": "Rokitno",
      "type": "adm3",
      "level": null,
      "parent_id": null,
      "population": 747,
      "latitude": "52.12142000",
      "longitude": "23.29514000",
      "timezone": "Europe/Warsaw",
      "wikiDataId": "Q554945",
      "country_code": "PL",
      "state_code": "06",
      "state_id": 1638,
      "country_id": 176
    },
    {
      "id": 87972,
      "name": "Ruda-Huta",
      "name_default": "Ruda-Huta",
      "native": "Ruda-Huta",
      "type": "adm3",
      "level": null,
      "parent_id": null,
      "population": 970,
      "latitude": "51.23666000",
      "longitude": "23.59486000",
      "timezone": "Europe/Warsaw",
      "wikiDataId": "Q2662840",
      "country_code": "PL",
      "state_code": "06",
      "state_id": 1638,
      "country_id": 176
    },
    {
      "id": 87978,
      "name": "Rudnik",
      "name_default": "Rudnik",
      "native": "Kopalnia",
      "type": "adm3",
      "level": null,
      "parent_id": null,
      "population": 526,
      "latitude": "50.88035000",
      "longitude": "22.97293000",
      "timezone": "Europe/Warsaw",
      "wikiDataId": "Q606218",
      "country_code": "PL",
      "state_code": "06",
      "state_id": 1638,
      "country_id": 176
    },
    {
      "id": 87992,
      "name": "Rybczewice",
      "name_default": "Rybczewice",
      "native": "Rybczewice",
      "type": "adm3",
      "level": null,
      "parent_id": null,
      "population": 840,
      "latitude": "51.02876000",
      "longitude": "22.85053000",
      "timezone": "Europe/Warsaw",
      "wikiDataId": "Q2690632",
      "country_code": "PL",
      "state_code": "06",
      "state_id": 1638,
      "country_id": 176
    },
    {
      "id": 88008,
      "name": "Ryki",
      "name_default": "Ryki",
      "native": "Pył",
      "type": "adm2",
      "level": null,
      "parent_id": null,
      "population": 9229,
      "latitude": "51.62574000",
      "longitude": "21.93274000",
      "timezone": "Europe/Warsaw",
      "wikiDataId": "Q1922307",
      "country_code": "PL",
      "state_code": "06",
      "state_id": 1638,
      "country_id": 176
    },
    {
      "id": 88018,
      "name": "Rzeczyca",
      "name_default": "Rzeczyca",
      "native": "Rzeczyca",
      "type": "city",
      "level": null,
      "parent_id": null,
      "population": 1461,
      "latitude": "51.96225000",
      "longitude": "22.74942000",
      "timezone": "Europe/Warsaw",
      "wikiDataId": "Q2459493",
      "country_code": "PL",
      "state_code": "06",
      "state_id": 1638,
      "country_id": 176
    },
    {
      "id": 88053,
      "name": "Sawin",
      "name_default": "Sawin",
      "native": "Sawin",
      "type": "city",
      "level": null,
      "parent_id": null,
      "population": 2129,
      "latitude": "51.27443000",
      "longitude": "23.43375000",
      "timezone": "Europe/Warsaw",
      "wikiDataId": "Q2459599",
      "country_code": "PL",
      "state_code": "06",
      "state_id": 1638,
      "country_id": 176
    },
    {
      "id": 88056,
      "name": "Serniki",
      "name_default": "Serniki",
      "native": "Serniki",
      "type": "adm3",
      "level": null,
      "parent_id": null,
      "population": 382,
      "latitude": "51.43716000",
      "longitude": "22.65853000",
      "timezone": "Europe/Warsaw",
      "wikiDataId": "Q2459599",
      "country_code": "PL",
      "state_code": "06",
      "state_id": 1638,
      "country_id": 176
    },
    {
      "id": 88058,
      "name": "Serokomla",
      "name_default": "Serokomla",
      "native": "Serokoma",
      "type": "city",
      "level": null,
      "parent_id": null,
      "population": 954,
      "latitude": "51.70070000",
      "longitude": "22.33237000",
      "timezone": "Europe/Warsaw",
      "wikiDataId": "Q569838",
      "country_code": "PL",
      "state_code": "06",
      "state_id": 1638,
      "country_id": 176
    },
    {
      "id": 88074,
      "name": "Siemień",
      "name_default": "Siemień",
      "native": "Siemień",
      "type": "adm3",
      "level": null,
      "parent_id": null,
      "population": 547,
      "latitude": "51.62883000",
      "longitude": "22.77243000",
      "timezone": "Europe/Warsaw",
      "wikiDataId": "Q129973",
      "country_code": "PL",
      "state_code": "06",
      "state_id": 1638,
      "country_id": 176
    },
    {
      "id": 88082,
      "name": "Siennica Różana",
      "name_default": "Siennica Różana",
      "native": "Siennica Różana",
      "type": "adm3",
      "level": null,
      "parent_id": null,
      "population": 1000,
      "latitude": "51.00123000",
      "longitude": "23.32260000",
      "timezone": "Europe/Warsaw",
      "wikiDataId": "Q2561328",
      "country_code": "PL",
      "state_code": "06",
      "state_id": 1638,
      "country_id": 176
    },
    {
      "id": 88094,
      "name": "Sitno",
      "name_default": "Sitno",
      "native": "Malutki",
      "type": "adm3",
      "level": null,
      "parent_id": null,
      "population": 703,
      "latitude": "50.74944000",
      "longitude": "23.36260000",
      "timezone": "Europe/Warsaw",
      "wikiDataId": "Q989846",
      "country_code": "PL",
      "state_code": "06",
      "state_id": 1638,
      "country_id": 176
    },
    {
      "id": 88106,
      "name": "Skierbieszów",
      "name_default": "Skierbieszów",
      "native": "Skierbieszów",
      "type": "adm3",
      "level": null,
      "parent_id": null,
      "population": 1315,
      "latitude": "50.85158000",
      "longitude": "23.35917000",
      "timezone": "Europe/Warsaw",
      "wikiDataId": "Q1932465",
      "country_code": "PL",
      "state_code": "06",
      "state_id": 1638,
      "country_id": 176
    },
    {
      "id": 88335,
      "name": "Sławatycze",
      "name_default": "Sławatycze",
      "native": "Sławatycze",
      "type": "adm3",
      "level": null,
      "parent_id": null,
      "population": 2647,
      "latitude": "51.76338000",
      "longitude": "23.55460000",
      "timezone": "Europe/Warsaw",
      "wikiDataId": "Q834490",
      "country_code": "PL",
      "state_code": "06",
      "state_id": 1638,
      "country_id": 176
    },
    {
      "id": 88150,
      "name": "Sosnowica",
      "name_default": "Sosnowica",
      "native": "Sosnowica",
      "type": "adm3",
      "level": null,
      "parent_id": null,
      "population": 678,
      "latitude": "51.52065000",
      "longitude": "23.09215000",
      "timezone": "Europe/Warsaw",
      "wikiDataId": "Q2274514",
      "country_code": "PL",
      "state_code": "06",
      "state_id": 1638,
      "country_id": 176
    },
    {
      "id": 88153,
      "name": "Sosnówka",
      "name_default": "Sosnówka",
      "native": "Sosnówka",
      "type": "adm3",
      "level": null,
      "parent_id": null,
      "population": 520,
      "latitude": "51.75084000",
      "longitude": "23.33814000",
      "timezone": "Europe/Warsaw",
      "wikiDataId": "Q2480947",
      "country_code": "PL",
      "state_code": "06",
      "state_id": 1638,
      "country_id": 176
    },
    {
      "id": 88161,
      "name": "Spiczyn",
      "name_default": "Spiczyn",
      "native": "Spiczyn",
      "type": "adm3",
      "level": null,
      "parent_id": null,
      "population": 697,
      "latitude": "51.34128000",
      "longitude": "22.75354000",
      "timezone": "Europe/Warsaw",
      "wikiDataId": "Q597884",
      "country_code": "PL",
      "state_code": "06",
      "state_id": 1638,
      "country_id": 176
    },
    {
      "id": 88197,
      "name": "Stary Zamość",
      "name_default": "Stary Zamość",
      "native": "Stary Zamość",
      "type": "adm3",
      "level": null,
      "parent_id": null,
      "population": 534,
      "latitude": "50.82004000",
      "longitude": "23.17154000",
      "timezone": "Europe/Warsaw",
      "wikiDataId": "Q2661870",
      "country_code": "PL",
      "state_code": "06",
      "state_id": 1638,
      "country_id": 176
    },
    {
      "id": 88244,
      "name": "Stężyca",
      "name_default": "Stężyca",
      "native": "Stężyca",
      "type": "adm3",
      "level": null,
      "parent_id": null,
      "population": 2200,
      "latitude": "51.58187000",
      "longitude": "21.77087000",
      "timezone": "Europe/Warsaw",
      "wikiDataId": "Q638725",
      "country_code": "PL",
      "state_code": "06",
      "state_id": 1638,
      "country_id": 176
    },
    {
      "id": 88206,
      "name": "Stoczek Łukowski",
      "name_default": "Stoczek Łukowski",
      "native": "Stoczek Łukowski",
      "type": "adm3",
      "level": null,
      "parent_id": null,
      "population": 2431,
      "latitude": "51.96135000",
      "longitude": "21.97137000",
      "timezone": "Europe/Warsaw",
      "wikiDataId": "Q219106",
      "country_code": "PL",
      "state_code": "06",
      "state_id": 1638,
      "country_id": 176
    },
    {
      "id": 88234,
      "name": "Strzyżowice",
      "name_default": "Strzyżowice",
      "native": "Strzyżowice",
      "type": "adm3",
      "level": null,
      "parent_id": null,
      "population": 648,
      "latitude": "51.04830000",
      "longitude": "22.44018000",
      "timezone": "Europe/Warsaw",
      "wikiDataId": "Q577473",
      "country_code": "PL",
      "state_code": "06",
      "state_id": 1638,
      "country_id": 176
    },
    {
      "id": 88273,
      "name": "Sułów",
      "name_default": "Sułów",
      "native": "Sułów",
      "type": "city",
      "level": null,
      "parent_id": null,
      "population": 1115,
      "latitude": "50.90661000",
      "longitude": "22.36061000",
      "timezone": "Europe/Warsaw",
      "wikiDataId": "Q7636868",
      "country_code": "PL",
      "state_code": "06",
      "state_id": 1638,
      "country_id": 176
    },
    {
      "id": 88266,
      "name": "Susiec",
      "name_default": "Susiec",
      "native": "Susiec",
      "type": "adm3",
      "level": null,
      "parent_id": null,
      "population": 1152,
      "latitude": "50.41973000",
      "longitude": "23.19626000",
      "timezone": "Europe/Warsaw",
      "wikiDataId": "Q2297696",
      "country_code": "PL",
      "state_code": "06",
      "state_id": 1638,
      "country_id": 176
    },
    {
      "id": 88843,
      "name": "Świdnik",
      "name_default": "Świdnik",
      "native": "Świdnik",
      "type": "city",
      "level": null,
      "parent_id": null,
      "population": 37884,
      "latitude": "51.21898000",
      "longitude": "22.69621000",
      "timezone": "Europe/Warsaw",
      "wikiDataId": "Q8082073",
      "country_code": "PL",
      "state_code": "06",
      "state_id": 1638,
      "country_id": 176
    },
    {
      "id": 88288,
      "name": "Szastarka",
      "name_default": "Szastarka",
      "native": "Szastarka",
      "type": "adm3",
      "level": null,
      "parent_id": null,
      "population": 983,
      "latitude": "50.85527000",
      "longitude": "22.31971000",
      "timezone": "Europe/Warsaw",
      "wikiDataId": "Q1921688",
      "country_code": "PL",
      "state_code": "06",
      "state_id": 1638,
      "country_id": 176
    },
    {
      "id": 88292,
      "name": "Szczebrzeszyn",
      "name_default": "Szczebrzeszyn",
      "native": "Szczebrzeszyn",
      "type": "adm3",
      "level": null,
      "parent_id": null,
      "population": 4849,
      "latitude": "50.69499000",
      "longitude": "22.97954000",
      "timezone": "Europe/Warsaw",
      "wikiDataId": "Q436",
      "country_code": "PL",
      "state_code": "06",
      "state_id": 1638,
      "country_id": 176
    },
    {
      "id": 88358,
      "name": "Tarnawatka",
      "name_default": "Tarnawatka",
      "native": "Tarnawatka",
      "type": "adm3",
      "level": null,
      "parent_id": null,
      "population": 1000,
      "latitude": "50.53154000",
      "longitude": "23.39590000",
      "timezone": "Europe/Warsaw",
      "wikiDataId": "Q2036732",
      "country_code": "PL",
      "state_code": "06",
      "state_id": 1638,
      "country_id": 176
    },
    {
      "id": 88360,
      "name": "Tarnogród",
      "name_default": "Tarnogród",
      "native": "Tarnogród",
      "type": "adm3",
      "level": null,
      "parent_id": null,
      "population": 3207,
      "latitude": "50.36090000",
      "longitude": "22.74174000",
      "timezone": "Europe/Warsaw",
      "wikiDataId": "Q777169",
      "country_code": "PL",
      "state_code": "06",
      "state_id": 1638,
      "country_id": 176
    },
    {
      "id": 88371,
      "name": "Telatyn",
      "name_default": "Telatyn",
      "native": "ROLLED",
      "type": "adm3",
      "level": null,
      "parent_id": null,
      "population": 603,
      "latitude": "50.52712000",
      "longitude": "23.83956000",
      "timezone": "Europe/Warsaw",
      "wikiDataId": "Q2402868",
      "country_code": "PL",
      "state_code": "06",
      "state_id": 1638,
      "country_id": 176
    },
    {
      "id": 88374,
      "name": "Terespol",
      "name_default": "Terespol",
      "native": "Terespol",
      "type": "adm3",
      "level": null,
      "parent_id": null,
      "population": 5309,
      "latitude": "52.07550000",
      "longitude": "23.61614000",
      "timezone": "Europe/Warsaw",
      "wikiDataId": "Q218897",
      "country_code": "PL",
      "state_code": "06",
      "state_id": 1638,
      "country_id": 176
    },
    {
      "id": 88375,
      "name": "Tereszpol",
      "name_default": "Tereszpol",
      "native": "Statek kosmiczny",
      "type": "adm3",
      "level": null,
      "parent_id": null,
      "population": 1171,
      "latitude": "50.58373000",
      "longitude": "22.87980000",
      "timezone": "Europe/Warsaw",
      "wikiDataId": "Q3209644",
      "country_code": "PL",
      "state_code": "06",
      "state_id": 1638,
      "country_id": 176
    },
    {
      "id": 88379,
      "name": "Tomaszów Lubelski",
      "name_default": "Tomaszów Lubelski",
      "native": "Tomaszów Lubelski",
      "type": "adm2",
      "level": null,
      "parent_id": null,
      "population": 18567,
      "latitude": "50.44767000",
      "longitude": "23.41616000",
      "timezone": "Europe/Warsaw",
      "wikiDataId": "Q911009",
      "country_code": "PL",
      "state_code": "06",
      "state_id": 1638,
      "country_id": 176
    },
    {
      "id": 88388,
      "name": "Trawniki",
      "name_default": "Trawniki",
      "native": "Trawniki",
      "type": "adm3",
      "level": null,
      "parent_id": null,
      "population": 2663,
      "latitude": "51.13633000",
      "longitude": "22.99816000",
      "timezone": "Europe/Warsaw",
      "wikiDataId": "Q153096",
      "country_code": "PL",
      "state_code": "06",
      "state_id": 1638,
      "country_id": 176
    },
    {
      "id": 88405,
      "name": "Trzebieszów",
      "name_default": "Trzebieszów",
      "native": "Trzebieszów",
      "type": "city",
      "level": null,
      "parent_id": null,
      "population": 1651,
      "latitude": "51.99006000",
      "longitude": "22.55502000",
      "timezone": "Europe/Warsaw",
      "wikiDataId": "Q1917218",
      "country_code": "PL",
      "state_code": "06",
      "state_id": 1638,
      "country_id": 176
    },
    {
      "id": 88413,
      "name": "Trzydnik Duży",
      "name_default": "Trzydnik Duży",
      "native": "Trzydnik Duży",
      "type": "adm3",
      "level": null,
      "parent_id": null,
      "population": 372,
      "latitude": "50.84887000",
      "longitude": "22.13359000",
      "timezone": "Europe/Warsaw",
      "wikiDataId": "Q667199",
      "country_code": "PL",
      "state_code": "06",
      "state_id": 1638,
      "country_id": 176
    },
    {
      "id": 88425,
      "name": "Turobin",
      "name_default": "Turobin",
      "native": "Turobin",
      "type": "adm3",
      "level": null,
      "parent_id": null,
      "population": 871,
      "latitude": "50.82367000",
      "longitude": "22.74273000",
      "timezone": "Europe/Warsaw",
      "wikiDataId": "Q2595900",
      "country_code": "PL",
      "state_code": "06",
      "state_id": 1638,
      "country_id": 176
    },
    {
      "id": 88443,
      "name": "Tyszowce",
      "name_default": "Tyszowce",
      "native": "Tyszowce",
      "type": "adm3",
      "level": null,
      "parent_id": null,
      "population": 1926,
      "latitude": "50.61699000",
      "longitude": "23.69927000",
      "timezone": "Europe/Warsaw",
      "wikiDataId": "Q1946027",
      "country_code": "PL",
      "state_code": "06",
      "state_id": 1638,
      "country_id": 176
    },
    {
      "id": 88454,
      "name": "Ulhówek",
      "name_default": "Ulhówek",
      "native": "Ulhywek",
      "type": "adm3",
      "level": null,
      "parent_id": null,
      "population": 1262,
      "latitude": "50.44969000",
      "longitude": "23.79956000",
      "timezone": "Europe/Warsaw",
      "wikiDataId": "Q2793686",
      "country_code": "PL",
      "state_code": "06",
      "state_id": 1638,
      "country_id": 176
    },
    {
      "id": 88466,
      "name": "Ułęż",
      "name_default": "Ułęż",
      "native": "Ułęż",
      "type": "adm3",
      "level": null,
      "parent_id": null,
      "population": 1677,
      "latitude": "51.59195000",
      "longitude": "22.10741000",
      "timezone": "Europe/Warsaw",
      "wikiDataId": "Q1940909",
      "country_code": "PL",
      "state_code": "06",
      "state_id": 1638,
      "country_id": 176
    },
    {
      "id": 88459,
      "name": "Urszulin",
      "name_default": "Urszulin",
      "native": "Urszulin",
      "type": "city",
      "level": null,
      "parent_id": null,
      "population": 1155,
      "latitude": "51.39390000",
      "longitude": "23.19480000",
      "timezone": "Europe/Warsaw",
      "wikiDataId": "Q1280107",
      "country_code": "PL",
      "state_code": "06",
      "state_id": 1638,
      "country_id": 176
    },
    {
      "id": 88461,
      "name": "Urzędów",
      "name_default": "Urzędów",
      "native": "Urzędów",
      "type": "adm3",
      "level": null,
      "parent_id": null,
      "population": 898,
      "latitude": "50.99323000",
      "longitude": "22.14260000",
      "timezone": "Europe/Warsaw",
      "wikiDataId": "Q2044194",
      "country_code": "PL",
      "state_code": "06",
      "state_id": 1638,
      "country_id": 176
    },
    {
      "id": 88468,
      "name": "Uścimów Stary",
      "name_default": "Uścimów Stary",
      "native": "Uścimów Stary",
      "type": "adm3",
      "level": null,
      "parent_id": null,
      "population": 346,
      "latitude": "51.46962000",
      "longitude": "22.95516000",
      "timezone": "Europe/Warsaw",
      "wikiDataId": "Q1940909",
      "country_code": "PL",
      "state_code": "06",
      "state_id": 1638,
      "country_id": 176
    },
    {
      "id": 88637,
      "name": "Wąwolnica",
      "name_default": "Wąwolnica",
      "native": "Wąwolnica",
      "type": "adm3",
      "level": null,
      "parent_id": null,
      "population": 970,
      "latitude": "51.29467000",
      "longitude": "22.14681000",
      "timezone": "Europe/Warsaw",
      "wikiDataId": "Q2303915",
      "country_code": "PL",
      "state_code": "06",
      "state_id": 1638,
      "country_id": 176
    },
    {
      "id": 88491,
      "name": "Werbkowice",
      "name_default": "Werbkowice",
      "native": "Werbkowice",
      "type": "city",
      "level": null,
      "parent_id": null,
      "population": 2583,
      "latitude": "50.75373000",
      "longitude": "23.76411000",
      "timezone": "Europe/Warsaw",
      "wikiDataId": "Q2608922",
      "country_code": "PL",
      "state_code": "06",
      "state_id": 1638,
      "country_id": 176
    },
    {
      "id": 88540,
      "name": "Wilkołaz",
      "name_default": "Wilkołaz",
      "native": "Wilkołaz",
      "type": "adm3",
      "level": null,
      "parent_id": null,
      "population": 2493,
      "latitude": "51.01473000",
      "longitude": "22.35014000",
      "timezone": "Europe/Warsaw",
      "wikiDataId": "Q2832384",
      "country_code": "PL",
      "state_code": "06",
      "state_id": 1638,
      "country_id": 176
    },
    {
      "id": 88541,
      "name": "Wilków",
      "name_default": "Wilków",
      "native": "Wilków",
      "type": "adm3",
      "level": null,
      "parent_id": null,
      "population": 208,
      "latitude": "51.26224000",
      "longitude": "21.87756000",
      "timezone": "Europe/Warsaw",
      "wikiDataId": "Q2832384",
      "country_code": "PL",
      "state_code": "06",
      "state_id": 1638,
      "country_id": 176
    },
    {
      "id": 88546,
      "name": "Wisznice",
      "name_default": "Wisznice",
      "native": "Wisznice",
      "type": "city",
      "level": null,
      "parent_id": null,
      "population": 1355,
      "latitude": "51.78924000",
      "longitude": "23.20836000",
      "timezone": "Europe/Warsaw",
      "wikiDataId": "Q655956",
      "country_code": "PL",
      "state_code": "06",
      "state_id": 1638,
      "country_id": 176
    },
    {
      "id": 88650,
      "name": "Włodawa",
      "name_default": "Włodawa",
      "native": "Włodawa",
      "type": "adm3",
      "level": null,
      "parent_id": null,
      "population": 12500,
      "latitude": "51.55000000",
      "longitude": "23.55000000",
      "timezone": "Europe/Warsaw",
      "wikiDataId": "Q751076",
      "country_code": "PL",
      "state_code": "06",
      "state_id": 1638,
      "country_id": 176
    },
    {
      "id": 88570,
      "name": "Wohyń",
      "name_default": "Wohyń",
      "native": "Wohyń",
      "type": "city",
      "level": null,
      "parent_id": null,
      "population": 1918,
      "latitude": "51.75642000",
      "longitude": "22.78582000",
      "timezone": "Europe/Warsaw",
      "wikiDataId": "Q321946",
      "country_code": "PL",
      "state_code": "06",
      "state_id": 1638,
      "country_id": 176
    },
    {
      "id": 88573,
      "name": "Wojciechów",
      "name_default": "Wojciechów",
      "native": "Wojciechów",
      "type": "adm3",
      "level": null,
      "parent_id": null,
      "population": 972,
      "latitude": "51.23543000",
      "longitude": "22.24551000",
      "timezone": "Europe/Warsaw",
      "wikiDataId": "Q2335641",
      "country_code": "PL",
      "state_code": "06",
      "state_id": 1638,
      "country_id": 176
    },
    {
      "id": 88574,
      "name": "Wojcieszków",
      "name_default": "Wojcieszków",
      "native": "Wojcieszków",
      "type": "city",
      "level": null,
      "parent_id": null,
      "population": 1079,
      "latitude": "51.76922000",
      "longitude": "22.31589000",
      "timezone": "Europe/Warsaw",
      "wikiDataId": "Q2879227",
      "country_code": "PL",
      "state_code": "06",
      "state_id": 1638,
      "country_id": 176
    },
    {
      "id": 88579,
      "name": "Wojsławice",
      "name_default": "Wojsławice",
      "native": "Wojsławice",
      "type": "city",
      "level": null,
      "parent_id": null,
      "population": 1600,
      "latitude": "50.91916000",
      "longitude": "23.54602000",
      "timezone": "Europe/Warsaw",
      "wikiDataId": "Q2212388",
      "country_code": "PL",
      "state_code": "06",
      "state_id": 1638,
      "country_id": 176
    },
    {
      "id": 88589,
      "name": "Wola Sernicka",
      "name_default": "Wola Sernicka",
      "native": "Wola Sernicka",
      "type": "city",
      "level": null,
      "parent_id": null,
      "population": 921,
      "latitude": "51.44978000",
      "longitude": "22.68351000",
      "timezone": "Europe/Warsaw",
      "wikiDataId": "Q9377601",
      "country_code": "PL",
      "state_code": "06",
      "state_id": 1638,
      "country_id": 176
    },
    {
      "id": 88590,
      "name": "Wola Uhruska",
      "name_default": "Wola Uhruska",
      "native": "Wola Uhruska",
      "type": "adm3",
      "level": null,
      "parent_id": null,
      "population": 1639,
      "latitude": "51.32139000",
      "longitude": "23.62627000",
      "timezone": "Europe/Warsaw",
      "wikiDataId": "Q819176",
      "country_code": "PL",
      "state_code": "06",
      "state_id": 1638,
      "country_id": 176
    },
    {
      "id": 88621,
      "name": "Wysokie",
      "name_default": "Wysokie",
      "native": "Wysokie",
      "type": "adm3",
      "level": null,
      "parent_id": null,
      "population": 602,
      "latitude": "50.91093000",
      "longitude": "22.66600000",
      "timezone": "Europe/Warsaw",
      "wikiDataId": "Q8040563",
      "country_code": "PL",
      "state_code": "06",
      "state_id": 1638,
      "country_id": 176
    },
    {
      "id": 88678,
      "name": "Zakrzew",
      "name_default": "Zakrzew",
      "native": "Zakrzew",
      "type": "adm3",
      "level": null,
      "parent_id": null,
      "population": 630,
      "latitude": "50.89004000",
      "longitude": "22.59115000",
      "timezone": "Europe/Warsaw",
      "wikiDataId": "Q2534290",
      "country_code": "PL",
      "state_code": "06",
      "state_id": 1638,
      "country_id": 176
    },
    {
      "id": 88682,
      "name": "Zakrzówek",
      "name_default": "Zakrzówek",
      "native": "Zakrzówek",
      "type": "adm3",
      "level": null,
      "parent_id": null,
      "population": 1400,
      "latitude": "50.95124000",
      "longitude": "22.38138000",
      "timezone": "Europe/Warsaw",
      "wikiDataId": "Q2458228",
      "country_code": "PL",
      "state_code": "06",
      "state_id": 1638,
      "country_id": 176
    },
    {
      "id": 88691,
      "name": "Zamch",
      "name_default": "Zamch",
      "native": "Zamch",
      "type": "city",
      "level": null,
      "parent_id": null,
      "population": 1270,
      "latitude": "50.31713000",
      "longitude": "23.02786000",
      "timezone": "Europe/Warsaw",
      "wikiDataId": "Q3574721",
      "country_code": "PL",
      "state_code": "06",
      "state_id": 1638,
      "country_id": 176
    },
    {
      "id": 88692,
      "name": "Zamość",
      "name_default": "Zamość",
      "native": "Zamość",
      "type": "adm2",
      "level": null,
      "parent_id": null,
      "population": 59274,
      "latitude": "50.72314000",
      "longitude": "23.25196000",
      "timezone": "Europe/Warsaw",
      "wikiDataId": "Q145972",
      "country_code": "PL",
      "state_code": "06",
      "state_id": 1638,
      "country_id": 176
    },
    {
      "id": 88903,
      "name": "Żółkiewka",
      "name_default": "Żółkiewka",
      "native": "Żółkiewka",
      "type": "adm3",
      "level": null,
      "parent_id": null,
      "population": 790,
      "latitude": "50.90991000",
      "longitude": "22.83465000",
      "timezone": "Europe/Warsaw",
      "wikiDataId": "Q393275",
      "country_code": "PL",
      "state_code": "06",
      "state_id": 1638,
      "country_id": 176
    },
    {
      "id": 88735,
      "name": "Zwierzyniec",
      "name_default": "Zwierzyniec",
      "native": "Zwierzyniec",
      "type": "adm3",
      "level": null,
      "parent_id": null,
      "population": 2918,
      "latitude": "50.61400000",
      "longitude": "22.97512000",
      "timezone": "Europe/Warsaw",
      "wikiDataId": "Q1946056",
      "country_code": "PL",
      "state_code": "06",
      "state_id": 1638,
      "country_id": 176
    },
    {
      "id": 88900,
      "name": "Żyrzyn",
      "name_default": "Żyrzyn",
      "native": "Żyrzyn",
      "type": "adm3",
      "level": null,
      "parent_id": null,
      "population": 1400,
      "latitude": "51.49918000",
      "longitude": "22.09170000",
      "timezone": "Europe/Warsaw",
      "wikiDataId": "Q1971654",
      "country_code": "PL",
      "state_code": "06",
      "state_id": 1638,
      "country_id": 176
    }
  ]
}
