{
  "locale": "hi",
  "country": {
    "id": 28,
    "code": "BA",
    "iso3": "BIH",
    "numeric_code": "070",
    "name": "बोस्निया और हर्जेगोविना",
    "name_default": "Bosnia and Herzegovina",
    "native": "Bosna i Hercegovina",
    "capital": "Sarajevo",
    "phonecode": "387",
    "currency": "BAM",
    "currency_name": "Bosnia and Herzegovina convertible mark",
    "currency_symbol": "KM",
    "tld": ".ba",
    "population": 3422000,
    "gdp": 28807,
    "region": "Europe",
    "region_id": 4,
    "subregion": "Southern Europe",
    "subregion_id": 16,
    "nationality": "Bosnian or Herzegovinian",
    "timezones": [
      {
        "zoneName": "Europe/Sarajevo",
        "gmtOffset": 3600,
        "gmtOffsetName": "UTC+01:00",
        "abbreviation": "CET",
        "tzName": "Central European Time"
      }
    ],
    "latitude": "44.00000000",
    "longitude": "18.00000000",
    "emoji": "🇧🇦",
    "emojiU": "U+1F1E7 U+1F1E6"
  },
  "state": {
    "id": 467,
    "code": "BIH",
    "iso2": "BIH",
    "iso3166_2": "BA-BIH",
    "fips_code": "01",
    "name": "बोस्निया और हर्जेगोविना संघ",
    "name_default": "Federation of Bosnia and Herzegovina",
    "native": "Federacija Bosne i Hercegovine",
    "type": "entity",
    "level": null,
    "parent_id": null,
    "population": null,
    "latitude": "43.91674100",
    "longitude": "17.54820720",
    "timezone": "Europe/Sarajevo",
    "wikiDataId": "Q11198",
    "country_code": "BA"
  },
  "cities": [
    {
      "id": 8217,
      "name": "बानोवीसी",
      "name_default": "Banovići",
      "native": "Banovići",
      "type": "adm3",
      "level": null,
      "parent_id": null,
      "population": 7211,
      "latitude": "44.40596000",
      "longitude": "18.52648000",
      "timezone": "Europe/Sarajevo",
      "wikiDataId": "Q806935",
      "country_code": "BA",
      "state_code": "BIH",
      "state_id": 467,
      "country_id": 28
    },
    {
      "id": 8218,
      "name": "बारिस",
      "name_default": "Barice",
      "native": "Barica",
      "type": "city",
      "level": null,
      "parent_id": null,
      "population": 3697,
      "latitude": "44.54065000",
      "longitude": "18.48069000",
      "timezone": "Europe/Sarajevo",
      "wikiDataId": "Q806935",
      "country_code": "BA",
      "state_code": "BIH",
      "state_id": 467,
      "country_id": 28
    },
    {
      "id": 8219,
      "name": "Bihac",
      "name_default": "Bihać",
      "native": "Bihać",
      "type": "adm2",
      "level": null,
      "parent_id": null,
      "population": 75641,
      "latitude": "44.81694000",
      "longitude": "15.87083000",
      "timezone": "Europe/Sarajevo",
      "wikiDataId": "Q204434",
      "country_code": "BA",
      "state_code": "BIH",
      "state_id": 467,
      "country_id": 28
    },
    {
      "id": 8220,
      "name": "बिजेला",
      "name_default": "Bijela",
      "native": "Bijeli",
      "type": "locality",
      "level": null,
      "parent_id": null,
      "population": 3484,
      "latitude": "43.60871000",
      "longitude": "17.95078000",
      "timezone": "Europe/Sarajevo",
      "wikiDataId": "Q2902487",
      "country_code": "BA",
      "state_code": "BIH",
      "state_id": 467,
      "country_id": 28
    },
    {
      "id": 8222,
      "name": "बिला",
      "name_default": "Bila",
      "native": "Kada",
      "type": "locality",
      "level": null,
      "parent_id": null,
      "population": 4397,
      "latitude": "43.78265000",
      "longitude": "16.92676000",
      "timezone": "Europe/Sarajevo",
      "wikiDataId": "Q207801",
      "country_code": "BA",
      "state_code": "BIH",
      "state_id": 467,
      "country_id": 28
    },
    {
      "id": 8224,
      "name": "ब्लागज",
      "name_default": "Blagaj",
      "native": "Blagaj",
      "type": "city",
      "level": null,
      "parent_id": null,
      "population": 4715,
      "latitude": "43.25892000",
      "longitude": "17.88815000",
      "timezone": "Europe/Sarajevo",
      "wikiDataId": "Q1277723",
      "country_code": "BA",
      "state_code": "BIH",
      "state_id": 467,
      "country_id": 28
    },
    {
      "id": 8226,
      "name": "बोसांस्का कृपा",
      "name_default": "Bosanska Krupa",
      "native": "Bosanska Krupa",
      "type": "adm3",
      "level": null,
      "parent_id": null,
      "population": 15193,
      "latitude": "44.88250000",
      "longitude": "16.15139000",
      "timezone": "Europe/Sarajevo",
      "wikiDataId": "Q841411",
      "country_code": "BA",
      "state_code": "BIH",
      "state_id": 467,
      "country_id": 28
    },
    {
      "id": 8227,
      "name": "बोसांस्की पेत्रोवैक",
      "name_default": "Bosanski Petrovac",
      "native": "Bosanski Petrovac",
      "type": "adm3",
      "level": null,
      "parent_id": null,
      "population": 4,
      "latitude": "44.55537000",
      "longitude": "16.36897000",
      "timezone": "Europe/Sarajevo",
      "wikiDataId": "Q894348",
      "country_code": "BA",
      "state_code": "BIH",
      "state_id": 467,
      "country_id": 28
    },
    {
      "id": 8228,
      "name": "बोसांस्को ग्राहोवो",
      "name_default": "Bosansko Grahovo",
      "native": "Bosanski grašak",
      "type": "adm3",
      "level": null,
      "parent_id": null,
      "population": 5643,
      "latitude": "44.17944000",
      "longitude": "16.36389000",
      "timezone": "Europe/Sarajevo",
      "wikiDataId": "Q894349",
      "country_code": "BA",
      "state_code": "BIH",
      "state_id": 467,
      "country_id": 28
    },
    {
      "id": 8229,
      "name": "ब्रेज़ा",
      "name_default": "Breza",
      "native": "Breza",
      "type": "adm3",
      "level": null,
      "parent_id": null,
      "population": 0,
      "latitude": "44.01862000",
      "longitude": "18.26063000",
      "timezone": "Europe/Sarajevo",
      "wikiDataId": "Q911568",
      "country_code": "BA",
      "state_code": "BIH",
      "state_id": 467,
      "country_id": 28
    },
    {
      "id": 8234,
      "name": "बुगोज्नो",
      "name_default": "Bugojno",
      "native": "Bugojno",
      "type": "adm3",
      "level": null,
      "parent_id": null,
      "population": 41378,
      "latitude": "44.05722000",
      "longitude": "17.45083000",
      "timezone": "Europe/Sarajevo",
      "wikiDataId": "Q934612",
      "country_code": "BA",
      "state_code": "BIH",
      "state_id": 467,
      "country_id": 28
    },
    {
      "id": 8235,
      "name": "बुसोवाका",
      "name_default": "Busovača",
      "native": "Busovaca",
      "type": "adm3",
      "level": null,
      "parent_id": null,
      "population": 4776,
      "latitude": "44.09769000",
      "longitude": "17.87830000",
      "timezone": "Europe/Sarajevo",
      "wikiDataId": "Q612603",
      "country_code": "BA",
      "state_code": "BIH",
      "state_id": 467,
      "country_id": 28
    },
    {
      "id": 8236,
      "name": "बुज़िम",
      "name_default": "Bužim",
      "native": "Bužim",
      "type": "adm3",
      "level": null,
      "parent_id": null,
      "population": 7229,
      "latitude": "45.05361000",
      "longitude": "16.03254000",
      "timezone": "Europe/Sarajevo",
      "wikiDataId": "Q1017912",
      "country_code": "BA",
      "state_code": "BIH",
      "state_id": 467,
      "country_id": 28
    },
    {
      "id": 8431,
      "name": "चाप्लजिना",
      "name_default": "Čapljina",
      "native": "Čapljina",
      "type": "adm3",
      "level": null,
      "parent_id": null,
      "population": 7923,
      "latitude": "43.12139000",
      "longitude": "17.68444000",
      "timezone": "Europe/Sarajevo",
      "wikiDataId": "Q231517",
      "country_code": "BA",
      "state_code": "BIH",
      "state_id": 467,
      "country_id": 28
    },
    {
      "id": 8237,
      "name": "काज़िन",
      "name_default": "Cazin",
      "native": "Cazin",
      "type": "adm3",
      "level": null,
      "parent_id": null,
      "population": 21741,
      "latitude": "44.96694000",
      "longitude": "15.94306000",
      "timezone": "Europe/Sarajevo",
      "wikiDataId": "Q994203",
      "country_code": "BA",
      "state_code": "BIH",
      "state_id": 467,
      "country_id": 28
    },
    {
      "id": 8433,
      "name": "Celic",
      "name_default": "Čelić",
      "native": "Celić",
      "type": "adm3",
      "level": null,
      "parent_id": null,
      "population": 4,
      "latitude": "44.72524000",
      "longitude": "18.81474000",
      "timezone": "Europe/Sarajevo",
      "wikiDataId": "Q231517",
      "country_code": "BA",
      "state_code": "BIH",
      "state_id": 467,
      "country_id": 28
    },
    {
      "id": 8238,
      "name": "सिम",
      "name_default": "Cim",
      "native": "Cim",
      "type": "locality",
      "level": null,
      "parent_id": null,
      "population": 3966,
      "latitude": "43.35401000",
      "longitude": "17.78045000",
      "timezone": "Europe/Sarajevo",
      "wikiDataId": "Q994203",
      "country_code": "BA",
      "state_code": "BIH",
      "state_id": 467,
      "country_id": 28
    },
    {
      "id": 8435,
      "name": "Citluk",
      "name_default": "Čitluk",
      "native": "Čitluk",
      "type": "adm3",
      "level": null,
      "parent_id": null,
      "population": 5718,
      "latitude": "43.22861000",
      "longitude": "17.70083000",
      "timezone": "Europe/Sarajevo",
      "wikiDataId": "Q8079790",
      "country_code": "BA",
      "state_code": "BIH",
      "state_id": 467,
      "country_id": 28
    },
    {
      "id": 8429,
      "name": "Ćoralići",
      "name_default": "Ćoralići",
      "native": "Coralici",
      "type": "locality",
      "level": null,
      "parent_id": null,
      "population": 5223,
      "latitude": "45.00694000",
      "longitude": "15.87194000",
      "timezone": "Europe/Sarajevo",
      "wikiDataId": "Q231517",
      "country_code": "BA",
      "state_code": "BIH",
      "state_id": 467,
      "country_id": 28
    },
    {
      "id": 8239,
      "name": "क्रनिसी",
      "name_default": "Crnići",
      "native": "Crnići",
      "type": "locality",
      "level": null,
      "parent_id": null,
      "population": 5789,
      "latitude": "43.13156000",
      "longitude": "17.86452000",
      "timezone": "Europe/Sarajevo",
      "wikiDataId": "Q994203",
      "country_code": "BA",
      "state_code": "BIH",
      "state_id": 467,
      "country_id": 28
    },
    {
      "id": 8241,
      "name": "डिविकानी",
      "name_default": "Divičani",
      "native": "Podjele",
      "type": "city",
      "level": null,
      "parent_id": null,
      "population": 7251,
      "latitude": "44.36682000",
      "longitude": "17.32678000",
      "timezone": "Europe/Sarajevo",
      "wikiDataId": "Q3032430",
      "country_code": "BA",
      "state_code": "BIH",
      "state_id": 467,
      "country_id": 28
    },
    {
      "id": 8243,
      "name": "डोब्रिंजे",
      "name_default": "Dobrinje",
      "native": "Dobrinje",
      "type": "city",
      "level": null,
      "parent_id": null,
      "population": 3987,
      "latitude": "44.05008000",
      "longitude": "18.11958000",
      "timezone": "Europe/Sarajevo",
      "wikiDataId": "Q21717056",
      "country_code": "BA",
      "state_code": "BIH",
      "state_id": 467,
      "country_id": 28
    },
    {
      "id": 8245,
      "name": "डोमलजेवाक",
      "name_default": "Domaljevac",
      "native": "Domaljevac",
      "type": "adm3",
      "level": null,
      "parent_id": null,
      "population": 4,
      "latitude": "45.06110000",
      "longitude": "18.58612000",
      "timezone": "Europe/Sarajevo",
      "wikiDataId": "Q3033365",
      "country_code": "BA",
      "state_code": "BIH",
      "state_id": 467,
      "country_id": 28
    },
    {
      "id": 8246,
      "name": "डोन्जा दुबिका",
      "name_default": "Donja Dubica",
      "native": "Donja Dubica",
      "type": "city",
      "level": null,
      "parent_id": null,
      "population": 3489,
      "latitude": "45.07559000",
      "longitude": "18.41023000",
      "timezone": "Europe/Sarajevo",
      "wikiDataId": "Q3036333",
      "country_code": "BA",
      "state_code": "BIH",
      "state_id": 467,
      "country_id": 28
    },
    {
      "id": 8247,
      "name": "डोन्जा महला",
      "name_default": "Donja Mahala",
      "native": "Donja mahala",
      "type": "city",
      "level": null,
      "parent_id": null,
      "population": 5565,
      "latitude": "45.04327000",
      "longitude": "18.66996000",
      "timezone": "Europe/Sarajevo",
      "wikiDataId": "Q1256607",
      "country_code": "BA",
      "state_code": "BIH",
      "state_id": 467,
      "country_id": 28
    },
    {
      "id": 8248,
      "name": "Donja Međiđa",
      "name_default": "Donja Međiđa",
      "native": "Donja Međida",
      "type": "city",
      "level": null,
      "parent_id": null,
      "population": 3782,
      "latitude": "44.80235000",
      "longitude": "18.40477000",
      "timezone": "Europe/Sarajevo",
      "wikiDataId": "Q3036371",
      "country_code": "BA",
      "state_code": "BIH",
      "state_id": 467,
      "country_id": 28
    },
    {
      "id": 8249,
      "name": "डोंजी वकुफ",
      "name_default": "Donji Vakuf",
      "native": "Donji vakuf",
      "type": "adm3",
      "level": null,
      "parent_id": null,
      "population": 7955,
      "latitude": "44.14361000",
      "longitude": "17.40000000",
      "timezone": "Europe/Sarajevo",
      "wikiDataId": "Q1017938",
      "country_code": "BA",
      "state_code": "BIH",
      "state_id": 467,
      "country_id": 28
    },
    {
      "id": 8250,
      "name": "ड्रेज़्निका",
      "name_default": "Drežnica",
      "native": "Dreznica",
      "type": "city",
      "level": null,
      "parent_id": null,
      "population": 3908,
      "latitude": "43.52891000",
      "longitude": "17.28120000",
      "timezone": "Europe/Sarajevo",
      "wikiDataId": "Q1017938",
      "country_code": "BA",
      "state_code": "BIH",
      "state_id": 467,
      "country_id": 28
    },
    {
      "id": 8251,
      "name": "ड्रिनोवसी",
      "name_default": "Drinovci",
      "native": "Drinovci",
      "type": "locality",
      "level": null,
      "parent_id": null,
      "population": 3791,
      "latitude": "43.35454000",
      "longitude": "17.32536000",
      "timezone": "Europe/Sarajevo",
      "wikiDataId": "Q1278437",
      "country_code": "BA",
      "state_code": "BIH",
      "state_id": 467,
      "country_id": 28
    },
    {
      "id": 8252,
      "name": "ड्रावर",
      "name_default": "Drvar",
      "native": "Drvar",
      "type": "adm3",
      "level": null,
      "parent_id": null,
      "population": 3730,
      "latitude": "44.37389000",
      "longitude": "16.38083000",
      "timezone": "Europe/Sarajevo",
      "wikiDataId": "Q762884",
      "country_code": "BA",
      "state_code": "BIH",
      "state_id": 467,
      "country_id": 28
    },
    {
      "id": 8253,
      "name": "डुब्रेव डोंजे",
      "name_default": "Dubrave Donje",
      "native": "Dubrave Donja",
      "type": "city",
      "level": null,
      "parent_id": null,
      "population": 3811,
      "latitude": "44.48060000",
      "longitude": "18.69709000",
      "timezone": "Europe/Sarajevo",
      "wikiDataId": "Q3040627",
      "country_code": "BA",
      "state_code": "BIH",
      "state_id": 467,
      "country_id": 28
    },
    {
      "id": 8254,
      "name": "डुब्रावे गोर्नजे",
      "name_default": "Dubrave Gornje",
      "native": "Dubrave Gornje",
      "type": "city",
      "level": null,
      "parent_id": null,
      "population": 4821,
      "latitude": "44.47229000",
      "longitude": "18.72685000",
      "timezone": "Europe/Sarajevo",
      "wikiDataId": "Q3040628",
      "country_code": "BA",
      "state_code": "BIH",
      "state_id": 467,
      "country_id": 28
    },
    {
      "id": 8255,
      "name": "डुब्राविका",
      "name_default": "Dubravica",
      "native": "Dubravica",
      "type": "city",
      "level": null,
      "parent_id": null,
      "population": 3868,
      "latitude": "44.44131000",
      "longitude": "18.11883000",
      "timezone": "Europe/Sarajevo",
      "wikiDataId": "Q3040628",
      "country_code": "BA",
      "state_code": "BIH",
      "state_id": 467,
      "country_id": 28
    },
    {
      "id": 8257,
      "name": "फोज्निका",
      "name_default": "Fojnica",
      "native": "Fojnica",
      "type": "adm3",
      "level": null,
      "parent_id": null,
      "population": 8244,
      "latitude": "43.95952000",
      "longitude": "17.90288000",
      "timezone": "Europe/Sarajevo",
      "wikiDataId": "Q3041862",
      "country_code": "BA",
      "state_code": "BIH",
      "state_id": 467,
      "country_id": 28
    },
    {
      "id": 8260,
      "name": "ग्लैमोक",
      "name_default": "Glamoč",
      "native": "Glamoc",
      "type": "adm3",
      "level": null,
      "parent_id": null,
      "population": 4016,
      "latitude": "44.04583000",
      "longitude": "16.84861000",
      "timezone": "Europe/Sarajevo",
      "wikiDataId": "Q1017615",
      "country_code": "BA",
      "state_code": "BIH",
      "state_id": 467,
      "country_id": 28
    },
    {
      "id": 8261,
      "name": "ग्नोज्निका",
      "name_default": "Gnojnica",
      "native": "Gnojan",
      "type": "city",
      "level": null,
      "parent_id": null,
      "population": 3985,
      "latitude": "44.62058000",
      "longitude": "18.44684000",
      "timezone": "Europe/Sarajevo",
      "wikiDataId": "Q1017615",
      "country_code": "BA",
      "state_code": "BIH",
      "state_id": 467,
      "country_id": 28
    },
    {
      "id": 8262,
      "name": "गोराज़दे",
      "name_default": "Goražde",
      "native": "Goražde",
      "type": "adm2",
      "level": null,
      "parent_id": null,
      "population": 17650,
      "latitude": "43.66795000",
      "longitude": "18.97564000",
      "timezone": "Europe/Sarajevo",
      "wikiDataId": "Q504058",
      "country_code": "BA",
      "state_code": "BIH",
      "state_id": 467,
      "country_id": 28
    },
    {
      "id": 8263,
      "name": "गोरिका",
      "name_default": "Gorica",
      "native": "Planinski",
      "type": "city",
      "level": null,
      "parent_id": null,
      "population": 1179,
      "latitude": "43.41833000",
      "longitude": "17.28500000",
      "timezone": "Europe/Sarajevo",
      "wikiDataId": "Q504058",
      "country_code": "BA",
      "state_code": "BIH",
      "state_id": 467,
      "country_id": 28
    },
    {
      "id": 8264,
      "name": "गोर्न्जा ब्रेज़ा",
      "name_default": "Gornja Breza",
      "native": "Gornja breza",
      "type": "city",
      "level": null,
      "parent_id": null,
      "population": 3732,
      "latitude": "44.03758000",
      "longitude": "18.24564000",
      "timezone": "Europe/Sarajevo",
      "wikiDataId": "Q3111106",
      "country_code": "BA",
      "state_code": "BIH",
      "state_id": 467,
      "country_id": 28
    },
    {
      "id": 8265,
      "name": "गोर्न्जा कोप्रिवना",
      "name_default": "Gornja Koprivna",
      "native": "Gornja Koprivna",
      "type": "locality",
      "level": null,
      "parent_id": null,
      "population": 4600,
      "latitude": "45.01091000",
      "longitude": "15.95487000",
      "timezone": "Europe/Sarajevo",
      "wikiDataId": "Q3111122",
      "country_code": "BA",
      "state_code": "BIH",
      "state_id": 467,
      "country_id": 28
    },
    {
      "id": 8266,
      "name": "गोर्न्जा तुज़ला",
      "name_default": "Gornja Tuzla",
      "native": "Gornja Tuzla",
      "type": "city",
      "level": null,
      "parent_id": null,
      "population": 4864,
      "latitude": "44.55659000",
      "longitude": "18.76159000",
      "timezone": "Europe/Sarajevo",
      "wikiDataId": "Q3026538",
      "country_code": "BA",
      "state_code": "BIH",
      "state_id": 467,
      "country_id": 28
    },
    {
      "id": 8267,
      "name": "गोर्नजे मोस्त्रे",
      "name_default": "Gornje Moštre",
      "native": "Gornja Mostre",
      "type": "city",
      "level": null,
      "parent_id": null,
      "population": 4009,
      "latitude": "44.01911000",
      "longitude": "18.15477000",
      "timezone": "Europe/Sarajevo",
      "wikiDataId": "Q3111206",
      "country_code": "BA",
      "state_code": "BIH",
      "state_id": 467,
      "country_id": 28
    },
    {
      "id": 8268,
      "name": "Gornje Živinice",
      "name_default": "Gornje Živinice",
      "native": "Gornje Živinice",
      "type": "locality",
      "level": null,
      "parent_id": null,
      "population": 4661,
      "latitude": "44.42921000",
      "longitude": "18.61667000",
      "timezone": "Europe/Sarajevo",
      "wikiDataId": "Q3111206",
      "country_code": "BA",
      "state_code": "BIH",
      "state_id": 467,
      "country_id": 28
    },
    {
      "id": 8269,
      "name": "गोर्नजी वकुफ",
      "name_default": "Gornji Vakuf",
      "native": "Gornji vakuf",
      "type": "adm3",
      "level": null,
      "parent_id": null,
      "population": 7014,
      "latitude": "43.93806000",
      "longitude": "17.58833000",
      "timezone": "Europe/Sarajevo",
      "wikiDataId": "Q924098",
      "country_code": "BA",
      "state_code": "BIH",
      "state_id": 467,
      "country_id": 28
    },
    {
      "id": 8270,
      "name": "गोस्तोविसी",
      "name_default": "Gostovići",
      "native": "Gost",
      "type": "locality",
      "level": null,
      "parent_id": null,
      "population": 5802,
      "latitude": "44.41124000",
      "longitude": "18.17029000",
      "timezone": "Europe/Sarajevo",
      "wikiDataId": "Q924098",
      "country_code": "BA",
      "state_code": "BIH",
      "state_id": 467,
      "country_id": 28
    },
    {
      "id": 8273,
      "name": "ग्राचानिका",
      "name_default": "Gračanica",
      "native": "Gračanica",
      "type": "city",
      "level": null,
      "parent_id": null,
      "population": 3871,
      "latitude": "43.73333000",
      "longitude": "18.28333000",
      "timezone": "Europe/Sarajevo",
      "wikiDataId": "Q4843326",
      "country_code": "BA",
      "state_code": "BIH",
      "state_id": 467,
      "country_id": 28
    },
    {
      "id": 8271,
      "name": "ग्रैडाकैक",
      "name_default": "Gradačac",
      "native": "Gradačac",
      "type": "adm3",
      "level": null,
      "parent_id": null,
      "population": 15659,
      "latitude": "44.87851000",
      "longitude": "18.42764000",
      "timezone": "Europe/Sarajevo",
      "wikiDataId": "Q924098",
      "country_code": "BA",
      "state_code": "BIH",
      "state_id": 467,
      "country_id": 28
    },
    {
      "id": 8274,
      "name": "ग्रोमिलजैक",
      "name_default": "Gromiljak",
      "native": "Gromiljak",
      "type": "city",
      "level": null,
      "parent_id": null,
      "population": 6457,
      "latitude": "43.96668000",
      "longitude": "18.05504000",
      "timezone": "Europe/Sarajevo",
      "wikiDataId": "Q3039971",
      "country_code": "BA",
      "state_code": "BIH",
      "state_id": 467,
      "country_id": 28
    },
    {
      "id": 8275,
      "name": "ग्रुड",
      "name_default": "Grude",
      "native": "Grude",
      "type": "adm3",
      "level": null,
      "parent_id": null,
      "population": 4627,
      "latitude": "43.37208000",
      "longitude": "17.41449000",
      "timezone": "Europe/Sarajevo",
      "wikiDataId": "Q3039971",
      "country_code": "BA",
      "state_code": "BIH",
      "state_id": 467,
      "country_id": 28
    },
    {
      "id": 8276,
      "name": "हद्ज़ीसी",
      "name_default": "Hadžići",
      "native": "Hadžići",
      "type": "adm3",
      "level": null,
      "parent_id": null,
      "population": 7173,
      "latitude": "43.82222000",
      "longitude": "18.20667000",
      "timezone": "Europe/Sarajevo",
      "wikiDataId": "Q939528",
      "country_code": "BA",
      "state_code": "BIH",
      "state_id": 467,
      "country_id": 28
    },
    {
      "id": 8277,
      "name": "हर्सेगोवास्को-नेरेटवांस्की कांटन",
      "name_default": "Hercegovačko-Neretvanski Kanton",
      "native": "Hercegovačko-neretvanski kanton",
      "type": "adm2",
      "level": null,
      "parent_id": null,
      "population": null,
      "latitude": "43.45722000",
      "longitude": "17.81250000",
      "timezone": "Europe/Sarajevo",
      "wikiDataId": "Q18273",
      "country_code": "BA",
      "state_code": "BIH",
      "state_id": 467,
      "country_id": 28
    },
    {
      "id": 8279,
      "name": "होटोन्ज",
      "name_default": "Hotonj",
      "native": "Hotonj",
      "type": "locality",
      "level": null,
      "parent_id": null,
      "population": 4013,
      "latitude": "43.89341000",
      "longitude": "18.37751000",
      "timezone": "Europe/Sarajevo",
      "wikiDataId": "Q3129606",
      "country_code": "BA",
      "state_code": "BIH",
      "state_id": 467,
      "country_id": 28
    },
    {
      "id": 8281,
      "name": "इलिसी",
      "name_default": "Ilići",
      "native": "Iliic",
      "type": "city",
      "level": null,
      "parent_id": null,
      "population": 3688,
      "latitude": "43.34765000",
      "longitude": "17.76848000",
      "timezone": "Europe/Sarajevo",
      "wikiDataId": "Q3148686",
      "country_code": "BA",
      "state_code": "BIH",
      "state_id": 467,
      "country_id": 28
    },
    {
      "id": 8280,
      "name": "इलियास",
      "name_default": "Ilijaš",
      "native": "Ilijaš",
      "type": "adm3",
      "level": null,
      "parent_id": null,
      "population": 5855,
      "latitude": "43.95128000",
      "longitude": "18.27128000",
      "timezone": "Europe/Sarajevo",
      "wikiDataId": "Q583396",
      "country_code": "BA",
      "state_code": "BIH",
      "state_id": 467,
      "country_id": 28
    },
    {
      "id": 8283,
      "name": "इज़ाचिक",
      "name_default": "Izačić",
      "native": "Izačić",
      "type": "city",
      "level": null,
      "parent_id": null,
      "population": 4089,
      "latitude": "44.87485000",
      "longitude": "15.78256000",
      "timezone": "Europe/Sarajevo",
      "wikiDataId": "Q3116283",
      "country_code": "BA",
      "state_code": "BIH",
      "state_id": 467,
      "country_id": 28
    },
    {
      "id": 8284,
      "name": "जब्लनिका",
      "name_default": "Jablanica",
      "native": "Jablanica",
      "type": "adm3",
      "level": null,
      "parent_id": null,
      "population": 6209,
      "latitude": "43.66028000",
      "longitude": "17.76167000",
      "timezone": "Europe/Sarajevo",
      "wikiDataId": "Q994232",
      "country_code": "BA",
      "state_code": "BIH",
      "state_id": 467,
      "country_id": 28
    },
    {
      "id": 8285,
      "name": "जाजेस",
      "name_default": "Jajce",
      "native": "Jaje",
      "type": "adm3",
      "level": null,
      "parent_id": null,
      "population": 12000,
      "latitude": "44.34203000",
      "longitude": "17.27059000",
      "timezone": "Europe/Sarajevo",
      "wikiDataId": "Q258429",
      "country_code": "BA",
      "state_code": "BIH",
      "state_id": 467,
      "country_id": 28
    },
    {
      "id": 8287,
      "name": "जेलाह",
      "name_default": "Jelah",
      "native": "Smeh",
      "type": "city",
      "level": null,
      "parent_id": null,
      "population": 5291,
      "latitude": "44.65400000",
      "longitude": "17.95897000",
      "timezone": "Europe/Sarajevo",
      "wikiDataId": "Q1280373",
      "country_code": "BA",
      "state_code": "BIH",
      "state_id": 467,
      "country_id": 28
    },
    {
      "id": 8288,
      "name": "जेज़र्सकी",
      "name_default": "Jezerski",
      "native": "Jezero",
      "type": "locality",
      "level": null,
      "parent_id": null,
      "population": 4361,
      "latitude": "44.98172000",
      "longitude": "16.09447000",
      "timezone": "Europe/Sarajevo",
      "wikiDataId": "Q1280373",
      "country_code": "BA",
      "state_code": "BIH",
      "state_id": 467,
      "country_id": 28
    },
    {
      "id": 8293,
      "name": "काचुनी",
      "name_default": "Kačuni",
      "native": "Zmija",
      "type": "city",
      "level": null,
      "parent_id": null,
      "population": 5042,
      "latitude": "44.06433000",
      "longitude": "17.93894000",
      "timezone": "Europe/Sarajevo",
      "wikiDataId": "Q3194540",
      "country_code": "BA",
      "state_code": "BIH",
      "state_id": 467,
      "country_id": 28
    },
    {
      "id": 8289,
      "name": "काकंज",
      "name_default": "Kakanj",
      "native": "Kakanj",
      "type": "adm3",
      "level": null,
      "parent_id": null,
      "population": 12406,
      "latitude": "44.13311000",
      "longitude": "18.12292000",
      "timezone": "Europe/Sarajevo",
      "wikiDataId": "Q963038",
      "country_code": "BA",
      "state_code": "BIH",
      "state_id": 467,
      "country_id": 28
    },
    {
      "id": 8291,
      "name": "कैंटन साराजेवो",
      "name_default": "Kanton Sarajevo",
      "native": "Song Sarajevo",
      "type": "city",
      "level": null,
      "parent_id": null,
      "population": null,
      "latitude": "43.84333000",
      "longitude": "18.24222000",
      "timezone": "Europe/Sarajevo",
      "wikiDataId": "Q18276",
      "country_code": "BA",
      "state_code": "BIH",
      "state_id": 467,
      "country_id": 28
    },
    {
      "id": 8292,
      "name": "कराडाग्लिजे",
      "name_default": "Karadaglije",
      "native": "Karadagli",
      "type": "city",
      "level": null,
      "parent_id": null,
      "population": 3700,
      "latitude": "44.57065000",
      "longitude": "18.01775000",
      "timezone": "Europe/Sarajevo",
      "wikiDataId": "Q3192906",
      "country_code": "BA",
      "state_code": "BIH",
      "state_id": 467,
      "country_id": 28
    },
    {
      "id": 8294,
      "name": "किसेलजक",
      "name_default": "Kiseljak",
      "native": "Sorrel",
      "type": "city",
      "level": null,
      "parent_id": null,
      "population": 3447,
      "latitude": "44.48904000",
      "longitude": "18.56982000",
      "timezone": "Europe/Sarajevo",
      "wikiDataId": "Q2513015",
      "country_code": "BA",
      "state_code": "BIH",
      "state_id": 467,
      "country_id": 28
    },
    {
      "id": 8295,
      "name": "क्लाडांज",
      "name_default": "Kladanj",
      "native": "Kladanj",
      "type": "adm3",
      "level": null,
      "parent_id": null,
      "population": 6783,
      "latitude": "44.22669000",
      "longitude": "18.69274000",
      "timezone": "Europe/Sarajevo",
      "wikiDataId": "Q2513015",
      "country_code": "BA",
      "state_code": "BIH",
      "state_id": 467,
      "country_id": 28
    },
    {
      "id": 8296,
      "name": "क्लजुक",
      "name_default": "Ključ",
      "native": "Ključ",
      "type": "adm3",
      "level": null,
      "parent_id": null,
      "population": 7245,
      "latitude": "44.53251000",
      "longitude": "16.77682000",
      "timezone": "Europe/Sarajevo",
      "wikiDataId": "Q279995",
      "country_code": "BA",
      "state_code": "BIH",
      "state_id": 467,
      "country_id": 28
    },
    {
      "id": 8299,
      "name": "कोबिल्जा ग्लावा",
      "name_default": "Kobilja Glava",
      "native": "Kobilja Glava",
      "type": "city",
      "level": null,
      "parent_id": null,
      "population": 3666,
      "latitude": "43.88188000",
      "longitude": "18.38864000",
      "timezone": "Europe/Sarajevo",
      "wikiDataId": "Q3130339",
      "country_code": "BA",
      "state_code": "BIH",
      "state_id": 467,
      "country_id": 28
    },
    {
      "id": 8306,
      "name": "कोचेरिन",
      "name_default": "Kočerin",
      "native": "Kuka",
      "type": "city",
      "level": null,
      "parent_id": null,
      "population": 3516,
      "latitude": "43.39005000",
      "longitude": "17.48552000",
      "timezone": "Europe/Sarajevo",
      "wikiDataId": "Q3025567",
      "country_code": "BA",
      "state_code": "BIH",
      "state_id": 467,
      "country_id": 28
    },
    {
      "id": 8300,
      "name": "कोंजिक",
      "name_default": "Konjic",
      "native": "Konjic",
      "type": "adm3",
      "level": null,
      "parent_id": null,
      "population": 15950,
      "latitude": "43.65126000",
      "longitude": "17.96082000",
      "timezone": "Europe/Sarajevo",
      "wikiDataId": "Q3130339",
      "country_code": "BA",
      "state_code": "BIH",
      "state_id": 467,
      "country_id": 28
    },
    {
      "id": 8304,
      "name": "कोवाची",
      "name_default": "Kovači",
      "native": "Kovaci",
      "type": "city",
      "level": null,
      "parent_id": null,
      "population": 6410,
      "latitude": "44.44874000",
      "longitude": "18.20521000",
      "timezone": "Europe/Sarajevo",
      "wikiDataId": "Q1017897",
      "country_code": "BA",
      "state_code": "BIH",
      "state_id": 467,
      "country_id": 28
    },
    {
      "id": 8310,
      "name": "लिजेस्निका",
      "name_default": "Liješnica",
      "native": "Ljesnica",
      "type": "city",
      "level": null,
      "parent_id": null,
      "population": 3559,
      "latitude": "44.49497000",
      "longitude": "18.07644000",
      "timezone": "Europe/Sarajevo",
      "wikiDataId": "Q3039520",
      "country_code": "BA",
      "state_code": "BIH",
      "state_id": 467,
      "country_id": 28
    },
    {
      "id": 8311,
      "name": "लिव्नो",
      "name_default": "Livno",
      "native": "Livno",
      "type": "adm2",
      "level": null,
      "parent_id": null,
      "population": 11748,
      "latitude": "43.82695000",
      "longitude": "17.00746000",
      "timezone": "Europe/Sarajevo",
      "wikiDataId": "Q746073",
      "country_code": "BA",
      "state_code": "BIH",
      "state_id": 467,
      "country_id": 28
    },
    {
      "id": 8313,
      "name": "लाजुबुस्की",
      "name_default": "Ljubuški",
      "native": "Ljubuski",
      "type": "adm3",
      "level": null,
      "parent_id": null,
      "population": 9987,
      "latitude": "43.19694000",
      "longitude": "17.54500000",
      "timezone": "Europe/Sarajevo",
      "wikiDataId": "Q936404",
      "country_code": "BA",
      "state_code": "BIH",
      "state_id": 467,
      "country_id": 28
    },
    {
      "id": 8314,
      "name": "लोकवाइन",
      "name_default": "Lokvine",
      "native": "Lokvine",
      "type": "city",
      "level": null,
      "parent_id": null,
      "population": 3928,
      "latitude": "44.20466000",
      "longitude": "17.85665000",
      "timezone": "Europe/Sarajevo",
      "wikiDataId": "Q3258745",
      "country_code": "BA",
      "state_code": "BIH",
      "state_id": 467,
      "country_id": 28
    },
    {
      "id": 8316,
      "name": "लुकावाक",
      "name_default": "Lukavac",
      "native": "Lukavac",
      "type": "adm3",
      "level": null,
      "parent_id": null,
      "population": 44520,
      "latitude": "44.54245000",
      "longitude": "18.52618000",
      "timezone": "Europe/Sarajevo",
      "wikiDataId": "Q1017976",
      "country_code": "BA",
      "state_code": "BIH",
      "state_id": 467,
      "country_id": 28
    },
    {
      "id": 8317,
      "name": "लुकाविका",
      "name_default": "Lukavica",
      "native": "Lukavica",
      "type": "locality",
      "level": null,
      "parent_id": null,
      "population": 4084,
      "latitude": "44.76452000",
      "longitude": "18.16887000",
      "timezone": "Europe/Sarajevo",
      "wikiDataId": "Q3120593",
      "country_code": "BA",
      "state_code": "BIH",
      "state_id": 467,
      "country_id": 28
    },
    {
      "id": 8318,
      "name": "मैग्लाज",
      "name_default": "Maglaj",
      "native": "Maglaj",
      "type": "adm3",
      "level": null,
      "parent_id": null,
      "population": 7399,
      "latitude": "44.54771000",
      "longitude": "18.10003000",
      "timezone": "Europe/Sarajevo",
      "wikiDataId": "Q967813",
      "country_code": "BA",
      "state_code": "BIH",
      "state_id": 467,
      "country_id": 28
    },
    {
      "id": 8320,
      "name": "महला",
      "name_default": "Mahala",
      "native": "Slobodan",
      "type": "city",
      "level": null,
      "parent_id": null,
      "population": 5062,
      "latitude": "44.01194000",
      "longitude": "18.25528000",
      "timezone": "Europe/Sarajevo",
      "wikiDataId": "Q3124439",
      "country_code": "BA",
      "state_code": "BIH",
      "state_id": 467,
      "country_id": 28
    },
    {
      "id": 8321,
      "name": "माला क्लादुसा",
      "name_default": "Mala Kladuša",
      "native": "Mala Kladuša",
      "type": "locality",
      "level": null,
      "parent_id": null,
      "population": 6033,
      "latitude": "45.13443000",
      "longitude": "15.85217000",
      "timezone": "Europe/Sarajevo",
      "wikiDataId": "Q3281109",
      "country_code": "BA",
      "state_code": "BIH",
      "state_id": 467,
      "country_id": 28
    },
    {
      "id": 8322,
      "name": "मालेशिसी",
      "name_default": "Malešići",
      "native": "Malešići",
      "type": "locality",
      "level": null,
      "parent_id": null,
      "population": 3764,
      "latitude": "44.73824000",
      "longitude": "18.27335000",
      "timezone": "Europe/Sarajevo",
      "wikiDataId": "Q3120668",
      "country_code": "BA",
      "state_code": "BIH",
      "state_id": 467,
      "country_id": 28
    },
    {
      "id": 8327,
      "name": "मिओनिका",
      "name_default": "Mionica",
      "native": "Mionica",
      "type": "locality",
      "level": null,
      "parent_id": null,
      "population": 8701,
      "latitude": "44.86646000",
      "longitude": "18.46603000",
      "timezone": "Europe/Sarajevo",
      "wikiDataId": "Q1254473",
      "country_code": "BA",
      "state_code": "BIH",
      "state_id": 467,
      "country_id": 28
    },
    {
      "id": 8329,
      "name": "मोस्टार",
      "name_default": "Mostar",
      "native": "Mostar",
      "type": "adm2",
      "level": null,
      "parent_id": null,
      "population": 105448,
      "latitude": "43.34333000",
      "longitude": "17.80806000",
      "timezone": "Europe/Sarajevo",
      "wikiDataId": "Q93347",
      "country_code": "BA",
      "state_code": "BIH",
      "state_id": 467,
      "country_id": 28
    },
    {
      "id": 8330,
      "name": "मरमोर",
      "name_default": "Mramor",
      "native": "Mermer",
      "type": "city",
      "level": null,
      "parent_id": null,
      "population": 3918,
      "latitude": "44.59234000",
      "longitude": "18.56458000",
      "timezone": "Europe/Sarajevo",
      "wikiDataId": "Q93347",
      "country_code": "BA",
      "state_code": "BIH",
      "state_id": 467,
      "country_id": 28
    },
    {
      "id": 8332,
      "name": "न्यूम",
      "name_default": "Neum",
      "native": "Neum",
      "type": "adm3",
      "level": null,
      "parent_id": null,
      "population": 4200,
      "latitude": "42.92333000",
      "longitude": "17.61556000",
      "timezone": "Europe/Sarajevo",
      "wikiDataId": "Q320623",
      "country_code": "BA",
      "state_code": "BIH",
      "state_id": 467,
      "country_id": 28
    },
    {
      "id": 8336,
      "name": "नोवी शेहर",
      "name_default": "Novi Šeher",
      "native": "New Sher",
      "type": "city",
      "level": null,
      "parent_id": null,
      "population": 4416,
      "latitude": "44.51031000",
      "longitude": "18.02624000",
      "timezone": "Europe/Sarajevo",
      "wikiDataId": "Q3129223",
      "country_code": "BA",
      "state_code": "BIH",
      "state_id": 467,
      "country_id": 28
    },
    {
      "id": 8335,
      "name": "नोवी ट्रावनिक",
      "name_default": "Novi Travnik",
      "native": "Novi Travnik",
      "type": "adm3",
      "level": null,
      "parent_id": null,
      "population": 10006,
      "latitude": "44.17133000",
      "longitude": "17.65816000",
      "timezone": "Europe/Sarajevo",
      "wikiDataId": "Q1017907",
      "country_code": "BA",
      "state_code": "BIH",
      "state_id": 467,
      "country_id": 28
    },
    {
      "id": 8338,
      "name": "ओडज़क",
      "name_default": "Odžak",
      "native": "Odzak",
      "type": "adm3",
      "level": null,
      "parent_id": null,
      "population": 11621,
      "latitude": "45.02461000",
      "longitude": "18.32107000",
      "timezone": "Europe/Sarajevo",
      "wikiDataId": "Q994167",
      "country_code": "BA",
      "state_code": "BIH",
      "state_id": 467,
      "country_id": 28
    },
    {
      "id": 8339,
      "name": "ओलोवो",
      "name_default": "Olovo",
      "native": "Voditi",
      "type": "adm3",
      "level": null,
      "parent_id": null,
      "population": 3305,
      "latitude": "44.12770000",
      "longitude": "18.58065000",
      "timezone": "Europe/Sarajevo",
      "wikiDataId": "Q994167",
      "country_code": "BA",
      "state_code": "BIH",
      "state_id": 467,
      "country_id": 28
    },
    {
      "id": 8340,
      "name": "ओमानजस्का",
      "name_default": "Omanjska",
      "native": "Omans",
      "type": "adm3",
      "level": null,
      "parent_id": null,
      "population": 4,
      "latitude": "44.69831000",
      "longitude": "17.95757000",
      "timezone": "Europe/Sarajevo",
      "wikiDataId": "Q994167",
      "country_code": "BA",
      "state_code": "BIH",
      "state_id": 467,
      "country_id": 28
    },
    {
      "id": 8344,
      "name": "ओराहोविका डोन्जा",
      "name_default": "Orahovica Donja",
      "native": "Orahovica Donja",
      "type": "city",
      "level": null,
      "parent_id": null,
      "population": 5612,
      "latitude": "44.65345000",
      "longitude": "18.36951000",
      "timezone": "Europe/Sarajevo",
      "wikiDataId": "Q1280321",
      "country_code": "BA",
      "state_code": "BIH",
      "state_id": 467,
      "country_id": 28
    },
    {
      "id": 8345,
      "name": "ओरासैक",
      "name_default": "Orašac",
      "native": "Matica",
      "type": "locality",
      "level": null,
      "parent_id": null,
      "population": 3856,
      "latitude": "44.63039000",
      "longitude": "16.07443000",
      "timezone": "Europe/Sarajevo",
      "wikiDataId": "Q1280321",
      "country_code": "BA",
      "state_code": "BIH",
      "state_id": 467,
      "country_id": 28
    },
    {
      "id": 8346,
      "name": "Orasje",
      "name_default": "Orašje",
      "native": "Matice",
      "type": "adm2",
      "level": null,
      "parent_id": null,
      "population": 3614,
      "latitude": "45.03366000",
      "longitude": "18.69334000",
      "timezone": "Europe/Sarajevo",
      "wikiDataId": "Q1280321",
      "country_code": "BA",
      "state_code": "BIH",
      "state_id": 467,
      "country_id": 28
    },
    {
      "id": 8347,
      "name": "ऑर्गुज़",
      "name_default": "Orguz",
      "native": "Orguz",
      "type": "city",
      "level": null,
      "parent_id": null,
      "population": 4371,
      "latitude": "43.77414000",
      "longitude": "16.86329000",
      "timezone": "Europe/Sarajevo",
      "wikiDataId": "Q3042786",
      "country_code": "BA",
      "state_code": "BIH",
      "state_id": 467,
      "country_id": 28
    },
    {
      "id": 8348,
      "name": "ओस्ट्रोज़ैक",
      "name_default": "Ostrožac",
      "native": "Ostrožac",
      "type": "city",
      "level": null,
      "parent_id": null,
      "population": 5456,
      "latitude": "44.90866000",
      "longitude": "15.94045000",
      "timezone": "Europe/Sarajevo",
      "wikiDataId": "Q3039456",
      "country_code": "BA",
      "state_code": "BIH",
      "state_id": 467,
      "country_id": 28
    },
    {
      "id": 8349,
      "name": "ओटोका",
      "name_default": "Otoka",
      "native": "Ostrvo",
      "type": "city",
      "level": null,
      "parent_id": null,
      "population": 6595,
      "latitude": "44.96000000",
      "longitude": "16.17917000",
      "timezone": "Europe/Sarajevo",
      "wikiDataId": "Q3048630",
      "country_code": "BA",
      "state_code": "BIH",
      "state_id": 467,
      "country_id": 28
    },
    {
      "id": 8351,
      "name": "पाजिक पोल्जे",
      "name_default": "Pajić Polje",
      "native": "Pajic Polje",
      "type": "city",
      "level": null,
      "parent_id": null,
      "population": 4026,
      "latitude": "43.97583000",
      "longitude": "17.52750000",
      "timezone": "Europe/Sarajevo",
      "wikiDataId": "Q3037543",
      "country_code": "BA",
      "state_code": "BIH",
      "state_id": 467,
      "country_id": 28
    },
    {
      "id": 8353,
      "name": "पज़ारिक",
      "name_default": "Pazarić",
      "native": "Pazarić",
      "type": "city",
      "level": null,
      "parent_id": null,
      "population": 4787,
      "latitude": "43.78882000",
      "longitude": "18.16049000",
      "timezone": "Europe/Sarajevo",
      "wikiDataId": "Q3130171",
      "country_code": "BA",
      "state_code": "BIH",
      "state_id": 467,
      "country_id": 28
    },
    {
      "id": 8356,
      "name": "PECI",
      "name_default": "Peći",
      "native": "Ispeći",
      "type": "locality",
      "level": null,
      "parent_id": null,
      "population": 3650,
      "latitude": "44.63139000",
      "longitude": "16.78250000",
      "timezone": "Europe/Sarajevo",
      "wikiDataId": "Q3038550",
      "country_code": "BA",
      "state_code": "BIH",
      "state_id": 467,
      "country_id": 28
    },
    {
      "id": 8357,
      "name": "पेसीग्राद",
      "name_default": "Pećigrad",
      "native": "Peçigrain",
      "type": "city",
      "level": null,
      "parent_id": null,
      "population": 6514,
      "latitude": "45.05444000",
      "longitude": "15.89694000",
      "timezone": "Europe/Sarajevo",
      "wikiDataId": "Q3377900",
      "country_code": "BA",
      "state_code": "BIH",
      "state_id": 467,
      "country_id": 28
    },
    {
      "id": 8359,
      "name": "पजानिसी",
      "name_default": "Pjanići",
      "native": "Zadovoljstvo",
      "type": "locality",
      "level": null,
      "parent_id": null,
      "population": 3537,
      "latitude": "44.98568000",
      "longitude": "15.82304000",
      "timezone": "Europe/Sarajevo",
      "wikiDataId": "Q3389647",
      "country_code": "BA",
      "state_code": "BIH",
      "state_id": 467,
      "country_id": 28
    },
    {
      "id": 8361,
      "name": "पोधुम",
      "name_default": "Podhum",
      "native": "Podhum",
      "type": "city",
      "level": null,
      "parent_id": null,
      "population": 5801,
      "latitude": "43.72295000",
      "longitude": "16.99887000",
      "timezone": "Europe/Sarajevo",
      "wikiDataId": "Q3389647",
      "country_code": "BA",
      "state_code": "BIH",
      "state_id": 467,
      "country_id": 28
    },
    {
      "id": 8362,
      "name": "पोड्ज़विज़्ड",
      "name_default": "Podzvizd",
      "native": "Podzvizd",
      "type": "locality",
      "level": null,
      "parent_id": null,
      "population": 6665,
      "latitude": "45.17417000",
      "longitude": "15.87361000",
      "timezone": "Europe/Sarajevo",
      "wikiDataId": "Q3393154",
      "country_code": "BA",
      "state_code": "BIH",
      "state_id": 467,
      "country_id": 28
    },
    {
      "id": 8363,
      "name": "पोल्जे",
      "name_default": "Polje",
      "native": "Polje",
      "type": "city",
      "level": null,
      "parent_id": null,
      "population": 3799,
      "latitude": "43.88014000",
      "longitude": "18.07452000",
      "timezone": "Europe/Sarajevo",
      "wikiDataId": "Q3393154",
      "country_code": "BA",
      "state_code": "BIH",
      "state_id": 467,
      "country_id": 28
    },
    {
      "id": 8364,
      "name": "पोलजे-बिजेला",
      "name_default": "Polje-Bijela",
      "native": "Polje-bijelo",
      "type": "city",
      "level": null,
      "parent_id": null,
      "population": 1078,
      "latitude": "43.63299000",
      "longitude": "17.97216000",
      "timezone": "Europe/Sarajevo",
      "wikiDataId": "Q3393154",
      "country_code": "BA",
      "state_code": "BIH",
      "state_id": 467,
      "country_id": 28
    },
    {
      "id": 8366,
      "name": "पोटोसी",
      "name_default": "Potoci",
      "native": "Potoci",
      "type": "locality",
      "level": null,
      "parent_id": null,
      "population": 8312,
      "latitude": "43.40953000",
      "longitude": "17.87855000",
      "timezone": "Europe/Sarajevo",
      "wikiDataId": "Q3113096",
      "country_code": "BA",
      "state_code": "BIH",
      "state_id": 467,
      "country_id": 28
    },
    {
      "id": 8370,
      "name": "प्रोज़ोर",
      "name_default": "Prozor",
      "native": "Prozor",
      "type": "adm3",
      "level": null,
      "parent_id": null,
      "population": 10349,
      "latitude": "43.82222000",
      "longitude": "17.60917000",
      "timezone": "Europe/Sarajevo",
      "wikiDataId": "Q323986",
      "country_code": "BA",
      "state_code": "BIH",
      "state_id": 467,
      "country_id": 28
    },
    {
      "id": 8371,
      "name": "पुराचिक",
      "name_default": "Puračić",
      "native": "Puračić",
      "type": "city",
      "level": null,
      "parent_id": null,
      "population": 3461,
      "latitude": "44.54562000",
      "longitude": "18.47865000",
      "timezone": "Europe/Sarajevo",
      "wikiDataId": "Q3119184",
      "country_code": "BA",
      "state_code": "BIH",
      "state_id": 467,
      "country_id": 28
    },
    {
      "id": 8372,
      "name": "रेडिसिसी",
      "name_default": "Radišići",
      "native": "Radišići",
      "type": "locality",
      "level": null,
      "parent_id": null,
      "population": 4072,
      "latitude": "43.22302000",
      "longitude": "17.54056000",
      "timezone": "Europe/Sarajevo",
      "wikiDataId": "Q3040866",
      "country_code": "BA",
      "state_code": "BIH",
      "state_id": 467,
      "country_id": 28
    },
    {
      "id": 8373,
      "name": "रोडोक",
      "name_default": "Rodoč",
      "native": "Generisati",
      "type": "locality",
      "level": null,
      "parent_id": null,
      "population": 5159,
      "latitude": "43.31453000",
      "longitude": "17.80290000",
      "timezone": "Europe/Sarajevo",
      "wikiDataId": "Q3035854",
      "country_code": "BA",
      "state_code": "BIH",
      "state_id": 467,
      "country_id": 28
    },
    {
      "id": 8376,
      "name": "रुम्बोसी",
      "name_default": "Rumboci",
      "native": "Rumboci",
      "type": "city",
      "level": null,
      "parent_id": null,
      "population": 3854,
      "latitude": "43.83154000",
      "longitude": "17.50273000",
      "timezone": "Europe/Sarajevo",
      "wikiDataId": "Q3453154",
      "country_code": "BA",
      "state_code": "BIH",
      "state_id": 467,
      "country_id": 28
    },
    {
      "id": 8377,
      "name": "सानिका",
      "name_default": "Sanica",
      "native": "Sanica",
      "type": "city",
      "level": null,
      "parent_id": null,
      "population": 5666,
      "latitude": "44.61354000",
      "longitude": "16.64062000",
      "timezone": "Europe/Sarajevo",
      "wikiDataId": "Q1020920",
      "country_code": "BA",
      "state_code": "BIH",
      "state_id": 467,
      "country_id": 28
    },
    {
      "id": 8378,
      "name": "संस्की मोस्ट",
      "name_default": "Sanski Most",
      "native": "Sanski most",
      "type": "adm3",
      "level": null,
      "parent_id": null,
      "population": 13551,
      "latitude": "44.76670000",
      "longitude": "16.66700000",
      "timezone": "Europe/Sarajevo",
      "wikiDataId": "Q1020920",
      "country_code": "BA",
      "state_code": "BIH",
      "state_id": 467,
      "country_id": 28
    },
    {
      "id": 8379,
      "name": "सपना",
      "name_default": "Sapna",
      "native": "Sapna",
      "type": "adm3",
      "level": null,
      "parent_id": null,
      "population": 0,
      "latitude": "44.50380000",
      "longitude": "18.99818000",
      "timezone": "Europe/Sarajevo",
      "wikiDataId": "Q1754436",
      "country_code": "BA",
      "state_code": "BIH",
      "state_id": 467,
      "country_id": 28
    },
    {
      "id": 8380,
      "name": "साराजेवो",
      "name_default": "Sarajevo",
      "native": "Sarajevo",
      "type": "capital",
      "level": null,
      "parent_id": null,
      "population": 696731,
      "latitude": "43.84864000",
      "longitude": "18.35644000",
      "timezone": "Europe/Sarajevo",
      "wikiDataId": "Q11194",
      "country_code": "BA",
      "state_code": "BIH",
      "state_id": 467,
      "country_id": 28
    },
    {
      "id": 8438,
      "name": "शेरीसी",
      "name_default": "Šerići",
      "native": "Šerići",
      "type": "locality",
      "level": null,
      "parent_id": null,
      "population": 3663,
      "latitude": "44.46674000",
      "longitude": "18.56370000",
      "timezone": "Europe/Sarajevo",
      "wikiDataId": "Q586566",
      "country_code": "BA",
      "state_code": "BIH",
      "state_id": 467,
      "country_id": 28
    },
    {
      "id": 8440,
      "name": "शिरोकी ब्रिजेग",
      "name_default": "Široki Brijeg",
      "native": "Široki Brijeg",
      "type": "adm2",
      "level": null,
      "parent_id": null,
      "population": 9370,
      "latitude": "43.38290000",
      "longitude": "17.59416000",
      "timezone": "Europe/Sarajevo",
      "wikiDataId": "Q391729",
      "country_code": "BA",
      "state_code": "BIH",
      "state_id": 467,
      "country_id": 28
    },
    {
      "id": 8381,
      "name": "स्कोकोवी",
      "name_default": "Skokovi",
      "native": "Skokovi",
      "type": "city",
      "level": null,
      "parent_id": null,
      "population": 3553,
      "latitude": "45.03139000",
      "longitude": "15.91444000",
      "timezone": "Europe/Sarajevo",
      "wikiDataId": "Q3486347",
      "country_code": "BA",
      "state_code": "BIH",
      "state_id": 467,
      "country_id": 28
    },
    {
      "id": 8382,
      "name": "स्लाडना",
      "name_default": "Sladna",
      "native": "Slatko",
      "type": "locality",
      "level": null,
      "parent_id": null,
      "population": 4304,
      "latitude": "44.72897000",
      "longitude": "18.42575000",
      "timezone": "Europe/Sarajevo",
      "wikiDataId": "Q3118302",
      "country_code": "BA",
      "state_code": "BIH",
      "state_id": 467,
      "country_id": 28
    },
    {
      "id": 8384,
      "name": "सोलीना",
      "name_default": "Solina",
      "native": "Solin",
      "type": "locality",
      "level": null,
      "parent_id": null,
      "population": 4780,
      "latitude": "44.56226000",
      "longitude": "18.69322000",
      "timezone": "Europe/Sarajevo",
      "wikiDataId": "Q180755",
      "country_code": "BA",
      "state_code": "BIH",
      "state_id": 467,
      "country_id": 28
    },
    {
      "id": 8387,
      "name": "स्रेब्रेनिक",
      "name_default": "Srebrenik",
      "native": "Srebrenik",
      "type": "adm3",
      "level": null,
      "parent_id": null,
      "population": 6723,
      "latitude": "44.70819000",
      "longitude": "18.48834000",
      "timezone": "Europe/Sarajevo",
      "wikiDataId": "Q156053",
      "country_code": "BA",
      "state_code": "BIH",
      "state_id": 467,
      "country_id": 28
    },
    {
      "id": 8390,
      "name": "स्टिजेना",
      "name_default": "Stijena",
      "native": "Rock",
      "type": "locality",
      "level": null,
      "parent_id": null,
      "population": 10844,
      "latitude": "44.93630000",
      "longitude": "16.02224000",
      "timezone": "Europe/Sarajevo",
      "wikiDataId": "Q1280363",
      "country_code": "BA",
      "state_code": "BIH",
      "state_id": 467,
      "country_id": 28
    },
    {
      "id": 8391,
      "name": "स्टेपन-Polje",
      "name_default": "Stjepan-Polje",
      "native": "Stephen-polje",
      "type": "locality",
      "level": null,
      "parent_id": null,
      "population": 4341,
      "latitude": "44.71634000",
      "longitude": "18.25783000",
      "timezone": "Europe/Sarajevo",
      "wikiDataId": "Q3120688",
      "country_code": "BA",
      "state_code": "BIH",
      "state_id": 467,
      "country_id": 28
    },
    {
      "id": 8392,
      "name": "स्टोलैक",
      "name_default": "Stolac",
      "native": "Stolica",
      "type": "adm3",
      "level": null,
      "parent_id": null,
      "population": 7733,
      "latitude": "43.08400000",
      "longitude": "17.95995000",
      "timezone": "Europe/Sarajevo",
      "wikiDataId": "Q1026587",
      "country_code": "BA",
      "state_code": "BIH",
      "state_id": 467,
      "country_id": 28
    },
    {
      "id": 8441,
      "name": "स्टुरलिक",
      "name_default": "Šturlić",
      "native": "Sturlic",
      "type": "locality",
      "level": null,
      "parent_id": null,
      "population": 5014,
      "latitude": "45.06389000",
      "longitude": "15.77806000",
      "timezone": "Europe/Sarajevo",
      "wikiDataId": "Q539033",
      "country_code": "BA",
      "state_code": "BIH",
      "state_id": 467,
      "country_id": 28
    },
    {
      "id": 8442,
      "name": "शुमाटैक",
      "name_default": "Šumatac",
      "native": "Šumatac",
      "type": "locality",
      "level": null,
      "parent_id": null,
      "population": 4987,
      "latitude": "45.09743000",
      "longitude": "15.85818000",
      "timezone": "Europe/Sarajevo",
      "wikiDataId": "Q3507166",
      "country_code": "BA",
      "state_code": "BIH",
      "state_id": 467,
      "country_id": 28
    },
    {
      "id": 8394,
      "name": "तसोवचिसी",
      "name_default": "Tasovčići",
      "native": "Tasovcici",
      "type": "city",
      "level": null,
      "parent_id": null,
      "population": 2007,
      "latitude": "43.11333000",
      "longitude": "17.72000000",
      "timezone": "Europe/Sarajevo",
      "wikiDataId": "Q953826",
      "country_code": "BA",
      "state_code": "BIH",
      "state_id": 467,
      "country_id": 28
    },
    {
      "id": 8396,
      "name": "तेसांज",
      "name_default": "Tešanj",
      "native": "Težak",
      "type": "adm3",
      "level": null,
      "parent_id": null,
      "population": 7550,
      "latitude": "44.61191000",
      "longitude": "17.98552000",
      "timezone": "Europe/Sarajevo",
      "wikiDataId": "Q953826",
      "country_code": "BA",
      "state_code": "BIH",
      "state_id": 467,
      "country_id": 28
    },
    {
      "id": 8397,
      "name": "तेसांज्का",
      "name_default": "Tešanjka",
      "native": "Tešanjka",
      "type": "city",
      "level": null,
      "parent_id": null,
      "population": 5666,
      "latitude": "44.67228000",
      "longitude": "18.01109000",
      "timezone": "Europe/Sarajevo",
      "wikiDataId": "Q953826",
      "country_code": "BA",
      "state_code": "BIH",
      "state_id": 467,
      "country_id": 28
    },
    {
      "id": 8398,
      "name": "टोडोरोवो",
      "name_default": "Todorovo",
      "native": "Todorovo",
      "type": "locality",
      "level": null,
      "parent_id": null,
      "population": 9560,
      "latitude": "45.08833000",
      "longitude": "15.93083000",
      "timezone": "Europe/Sarajevo",
      "wikiDataId": "Q953826",
      "country_code": "BA",
      "state_code": "BIH",
      "state_id": 467,
      "country_id": 28
    },
    {
      "id": 8399,
      "name": "तोजसी",
      "name_default": "Tojšići",
      "native": "Tojšići",
      "type": "city",
      "level": null,
      "parent_id": null,
      "population": 6587,
      "latitude": "44.50133000",
      "longitude": "18.78523000",
      "timezone": "Europe/Sarajevo",
      "wikiDataId": "Q3122331",
      "country_code": "BA",
      "state_code": "BIH",
      "state_id": 467,
      "country_id": 28
    },
    {
      "id": 8400,
      "name": "टोमिस्लावग्राद",
      "name_default": "Tomislavgrad",
      "native": "Tomislavgrad",
      "type": "adm2",
      "level": null,
      "parent_id": null,
      "population": 7737,
      "latitude": "43.71849000",
      "longitude": "17.22515000",
      "timezone": "Europe/Sarajevo",
      "wikiDataId": "Q998961",
      "country_code": "BA",
      "state_code": "BIH",
      "state_id": 467,
      "country_id": 28
    },
    {
      "id": 8401,
      "name": "ट्रावनिक",
      "name_default": "Travnik",
      "native": "Travnik",
      "type": "adm2",
      "level": null,
      "parent_id": null,
      "population": 31127,
      "latitude": "44.22637000",
      "longitude": "17.66583000",
      "timezone": "Europe/Sarajevo",
      "wikiDataId": "Q159818",
      "country_code": "BA",
      "state_code": "BIH",
      "state_id": 467,
      "country_id": 28
    },
    {
      "id": 8404,
      "name": "Tržačka Raštela",
      "name_default": "Tržačka Raštela",
      "native": "Trozačka Napomena",
      "type": "city",
      "level": null,
      "parent_id": null,
      "population": 6617,
      "latitude": "44.97597000",
      "longitude": "15.78489000",
      "timezone": "Europe/Sarajevo",
      "wikiDataId": "Q427932",
      "country_code": "BA",
      "state_code": "BIH",
      "state_id": 467,
      "country_id": 28
    },
    {
      "id": 8405,
      "name": "टर्बे",
      "name_default": "Turbe",
      "native": "Turbur",
      "type": "city",
      "level": null,
      "parent_id": null,
      "population": 4767,
      "latitude": "44.24352000",
      "longitude": "17.57499000",
      "timezone": "Europe/Sarajevo",
      "wikiDataId": "Q1017935",
      "country_code": "BA",
      "state_code": "BIH",
      "state_id": 467,
      "country_id": 28
    },
    {
      "id": 8406,
      "name": "तुज़ला",
      "name_default": "Tuzla",
      "native": "Tuzla",
      "type": "adm2",
      "level": null,
      "parent_id": null,
      "population": 142486,
      "latitude": "44.53842000",
      "longitude": "18.66709000",
      "timezone": "Europe/Sarajevo",
      "wikiDataId": "Q174684",
      "country_code": "BA",
      "state_code": "BIH",
      "state_id": 467,
      "country_id": 28
    },
    {
      "id": 8408,
      "name": "उस्तिकोलिना",
      "name_default": "Ustikolina",
      "native": "Ustikolina",
      "type": "city",
      "level": null,
      "parent_id": null,
      "population": 4446,
      "latitude": "43.58338000",
      "longitude": "18.79106000",
      "timezone": "Europe/Sarajevo",
      "wikiDataId": "Q174684",
      "country_code": "BA",
      "state_code": "BIH",
      "state_id": 467,
      "country_id": 28
    },
    {
      "id": 8409,
      "name": "वारेस",
      "name_default": "Vareš",
      "native": "Vares",
      "type": "adm3",
      "level": null,
      "parent_id": null,
      "population": 7193,
      "latitude": "44.16444000",
      "longitude": "18.32833000",
      "timezone": "Europe/Sarajevo",
      "wikiDataId": "Q1017965",
      "country_code": "BA",
      "state_code": "BIH",
      "state_id": 467,
      "country_id": 28
    },
    {
      "id": 8410,
      "name": "वरोस्का रिजेका",
      "name_default": "Varoška Rijeka",
      "native": "Reka Varoška",
      "type": "locality",
      "level": null,
      "parent_id": null,
      "population": 6573,
      "latitude": "45.08936000",
      "longitude": "16.01906000",
      "timezone": "Europe/Sarajevo",
      "wikiDataId": "Q3182475",
      "country_code": "BA",
      "state_code": "BIH",
      "state_id": 467,
      "country_id": 28
    },
    {
      "id": 8411,
      "name": "वेलागिसी",
      "name_default": "Velagići",
      "native": "Velagici",
      "type": "locality",
      "level": null,
      "parent_id": null,
      "population": 4972,
      "latitude": "44.55618000",
      "longitude": "16.73349000",
      "timezone": "Europe/Sarajevo",
      "wikiDataId": "Q3115919",
      "country_code": "BA",
      "state_code": "BIH",
      "state_id": 467,
      "country_id": 28
    },
    {
      "id": 8412,
      "name": "वेलिका क्लादुसा",
      "name_default": "Velika Kladuša",
      "native": "Great Kladusa",
      "type": "adm3",
      "level": null,
      "parent_id": null,
      "population": 19330,
      "latitude": "45.18497000",
      "longitude": "15.80579000",
      "timezone": "Europe/Sarajevo",
      "wikiDataId": "Q994287",
      "country_code": "BA",
      "state_code": "BIH",
      "state_id": 467,
      "country_id": 28
    },
    {
      "id": 8414,
      "name": "विडोसी",
      "name_default": "Vidoši",
      "native": "Medoljivo",
      "type": "city",
      "level": null,
      "parent_id": null,
      "population": 3905,
      "latitude": "43.77139000",
      "longitude": "17.02833000",
      "timezone": "Europe/Sarajevo",
      "wikiDataId": "Q1017898",
      "country_code": "BA",
      "state_code": "BIH",
      "state_id": 467,
      "country_id": 28
    },
    {
      "id": 8415,
      "name": "विसोको",
      "name_default": "Visoko",
      "native": "Visoko",
      "type": "adm3",
      "level": null,
      "parent_id": null,
      "population": 17890,
      "latitude": "43.98889000",
      "longitude": "18.17806000",
      "timezone": "Europe/Sarajevo",
      "wikiDataId": "Q193229",
      "country_code": "BA",
      "state_code": "BIH",
      "state_id": 467,
      "country_id": 28
    },
    {
      "id": 8416,
      "name": "विटेज़",
      "name_default": "Vitez",
      "native": "Vitez",
      "type": "adm3",
      "level": null,
      "parent_id": null,
      "population": 8140,
      "latitude": "44.15424000",
      "longitude": "17.79009000",
      "timezone": "Europe/Sarajevo",
      "wikiDataId": "Q1018006",
      "country_code": "BA",
      "state_code": "BIH",
      "state_id": 467,
      "country_id": 28
    },
    {
      "id": 8417,
      "name": "विटिना",
      "name_default": "Vitina",
      "native": "Vinina",
      "type": "city",
      "level": null,
      "parent_id": null,
      "population": 4384,
      "latitude": "43.23750000",
      "longitude": "17.48389000",
      "timezone": "Europe/Sarajevo",
      "wikiDataId": "Q3119141",
      "country_code": "BA",
      "state_code": "BIH",
      "state_id": 467,
      "country_id": 28
    },
    {
      "id": 8420,
      "name": "वोगोस्का",
      "name_default": "Vogošća",
      "native": "Vogošća",
      "type": "adm3",
      "level": null,
      "parent_id": null,
      "population": 8180,
      "latitude": "43.90225000",
      "longitude": "18.34438000",
      "timezone": "Europe/Sarajevo",
      "wikiDataId": "Q1017988",
      "country_code": "BA",
      "state_code": "BIH",
      "state_id": 467,
      "country_id": 28
    },
    {
      "id": 8421,
      "name": "वोल्जेवाक",
      "name_default": "Voljevac",
      "native": "Volja",
      "type": "city",
      "level": null,
      "parent_id": null,
      "population": 3764,
      "latitude": "43.87873000",
      "longitude": "17.65861000",
      "timezone": "Europe/Sarajevo",
      "wikiDataId": "Q1017988",
      "country_code": "BA",
      "state_code": "BIH",
      "state_id": 467,
      "country_id": 28
    },
    {
      "id": 8422,
      "name": "व्रनोग्राक",
      "name_default": "Vrnograč",
      "native": "Vrnograf",
      "type": "city",
      "level": null,
      "parent_id": null,
      "population": 6860,
      "latitude": "45.16369000",
      "longitude": "15.95444000",
      "timezone": "Europe/Sarajevo",
      "wikiDataId": "Q3118032",
      "country_code": "BA",
      "state_code": "BIH",
      "state_id": 467,
      "country_id": 28
    },
    {
      "id": 8423,
      "name": "वुकोविजे डोंजे",
      "name_default": "Vukovije Donje",
      "native": "Vukovije Donje",
      "type": "city",
      "level": null,
      "parent_id": null,
      "population": 3535,
      "latitude": "44.46209000",
      "longitude": "18.74941000",
      "timezone": "Europe/Sarajevo",
      "wikiDataId": "Q3118849",
      "country_code": "BA",
      "state_code": "BIH",
      "state_id": 467,
      "country_id": 28
    },
    {
      "id": 8424,
      "name": "ज़ब्रिसके",
      "name_default": "Zabrišće",
      "native": "Eksplozija",
      "type": "city",
      "level": null,
      "parent_id": null,
      "population": 4261,
      "latitude": "43.79224000",
      "longitude": "16.94224000",
      "timezone": "Europe/Sarajevo",
      "wikiDataId": "Q284257",
      "country_code": "BA",
      "state_code": "BIH",
      "state_id": 467,
      "country_id": 28
    },
    {
      "id": 8425,
      "name": "ज़ाविदोविसी",
      "name_default": "Zavidovići",
      "native": "Zavidovići",
      "type": "adm3",
      "level": null,
      "parent_id": null,
      "population": 14380,
      "latitude": "44.44583000",
      "longitude": "18.14972000",
      "timezone": "Europe/Sarajevo",
      "wikiDataId": "Q284257",
      "country_code": "BA",
      "state_code": "BIH",
      "state_id": 467,
      "country_id": 28
    },
    {
      "id": 8426,
      "name": "ज़बोरिस्टे",
      "name_default": "Zborište",
      "native": "Stanica",
      "type": "locality",
      "level": null,
      "parent_id": null,
      "population": 4922,
      "latitude": "45.14593000",
      "longitude": "16.01728000",
      "timezone": "Europe/Sarajevo",
      "wikiDataId": "Q284257",
      "country_code": "BA",
      "state_code": "BIH",
      "state_id": 467,
      "country_id": 28
    },
    {
      "id": 8443,
      "name": "Željezno Polje",
      "name_default": "Željezno Polje",
      "native": "Željezno polje",
      "type": "locality",
      "level": null,
      "parent_id": null,
      "population": 5783,
      "latitude": "44.39875000",
      "longitude": "17.94103000",
      "timezone": "Europe/Sarajevo",
      "wikiDataId": "Q1256550",
      "country_code": "BA",
      "state_code": "BIH",
      "state_id": 467,
      "country_id": 28
    },
    {
      "id": 8427,
      "name": "ज़ेनिका",
      "name_default": "Zenica",
      "native": "Zenica",
      "type": "adm2",
      "level": null,
      "parent_id": null,
      "population": 164423,
      "latitude": "44.20169000",
      "longitude": "17.90397000",
      "timezone": "Europe/Sarajevo",
      "wikiDataId": "Q184046",
      "country_code": "BA",
      "state_code": "BIH",
      "state_id": 467,
      "country_id": 28
    },
    {
      "id": 8444,
      "name": "ज़ेपचे",
      "name_default": "Žepče",
      "native": "Zepce",
      "type": "adm3",
      "level": null,
      "parent_id": null,
      "population": 8502,
      "latitude": "44.42667000",
      "longitude": "18.03778000",
      "timezone": "Europe/Sarajevo",
      "wikiDataId": "Q393860",
      "country_code": "BA",
      "state_code": "BIH",
      "state_id": 467,
      "country_id": 28
    },
    {
      "id": 8445,
      "name": "ज़िविनिस",
      "name_default": "Živinice",
      "native": "Živinice",
      "type": "adm3",
      "level": null,
      "parent_id": null,
      "population": 13641,
      "latitude": "44.44929000",
      "longitude": "18.64978000",
      "timezone": "Europe/Sarajevo",
      "wikiDataId": "Q394166",
      "country_code": "BA",
      "state_code": "BIH",
      "state_id": 467,
      "country_id": 28
    }
  ]
}
