{
  "locale": "fa",
  "country": {
    "id": 232,
    "code": "GB",
    "iso3": "GBR",
    "numeric_code": "826",
    "name": "بریتانیای کبیر و ایرلند شمالی",
    "name_default": "United Kingdom",
    "native": "United Kingdom",
    "capital": "London",
    "phonecode": "44",
    "currency": "GBP",
    "currency_name": "British pound",
    "currency_symbol": "£",
    "tld": ".uk",
    "population": 68265209,
    "gdp": 3839180,
    "region": "Europe",
    "region_id": 4,
    "subregion": "Northern Europe",
    "subregion_id": 18,
    "nationality": "British, UK",
    "timezones": [
      {
        "zoneName": "Europe/London",
        "gmtOffset": 0,
        "gmtOffsetName": "UTC±00",
        "abbreviation": "GMT",
        "tzName": "Greenwich Mean Time"
      }
    ],
    "latitude": "54.00000000",
    "longitude": "-2.00000000",
    "emoji": "🇬🇧",
    "emojiU": "U+1F1EC U+1F1E7"
  },
  "state": {
    "id": 2470,
    "code": "BRC",
    "iso2": "BRC",
    "iso3166_2": "GB-BRC",
    "fips_code": "B3",
    "name": "جنگل برکنل",
    "name_default": "Bracknell Forest",
    "native": "Bracknell Forest",
    "type": "unitary authority",
    "level": "2",
    "parent_id": "2336",
    "population": 130806,
    "latitude": "51.40026880",
    "longitude": "-0.74178880",
    "timezone": "Europe/London",
    "wikiDataId": "Q896725",
    "country_code": "GB"
  },
  "cities": [
    {
      "id": 48213,
      "name": "آلدرشات",
      "name_default": "Aldershot",
      "native": "Aldershot",
      "type": "city",
      "level": null,
      "parent_id": null,
      "population": 57211,
      "latitude": "51.24827000",
      "longitude": "-0.76389000",
      "timezone": "Europe/London",
      "wikiDataId": "Q646980",
      "country_code": "GB",
      "state_code": "BRC",
      "state_id": 2470,
      "country_id": 232
    },
    {
      "id": 48284,
      "name": "آسکوت",
      "name_default": "Ascot",
      "native": "Ascot",
      "type": "city",
      "level": null,
      "parent_id": null,
      "population": 17899,
      "latitude": "51.41082000",
      "longitude": "-0.67480000",
      "timezone": "Europe/London",
      "wikiDataId": "Q723329",
      "country_code": "GB",
      "state_code": "BRC",
      "state_id": 2470,
      "country_id": 232
    },
    {
      "id": 48336,
      "name": "بگشات",
      "name_default": "Bagshot",
      "native": "Bagshot",
      "type": "city",
      "level": null,
      "parent_id": null,
      "population": 5430,
      "latitude": "51.36069000",
      "longitude": "-0.68802000",
      "timezone": "Europe/London",
      "wikiDataId": "Q4842133",
      "country_code": "GB",
      "state_code": "BRC",
      "state_id": 2470,
      "country_id": 232
    },
    {
      "id": 48644,
      "name": "براکنل",
      "name_default": "Bracknell",
      "native": "Bracknell",
      "type": "adm2",
      "level": null,
      "parent_id": null,
      "population": 76103,
      "latitude": "51.41363000",
      "longitude": "-0.75054000",
      "timezone": "Europe/London",
      "wikiDataId": "Q783210",
      "country_code": "GB",
      "state_code": "BRC",
      "state_id": 2470,
      "country_id": 232
    },
    {
      "id": 48645,
      "name": "جنگل برکنل",
      "name_default": "Bracknell Forest",
      "native": "Bracknell Forest",
      "type": "city",
      "level": null,
      "parent_id": null,
      "population": null,
      "latitude": "51.41667000",
      "longitude": "-0.75000000",
      "timezone": "Europe/London",
      "wikiDataId": "Q896725",
      "country_code": "GB",
      "state_code": "BRC",
      "state_id": 2470,
      "country_id": 232
    },
    {
      "id": 48830,
      "name": "کامبرلی",
      "name_default": "Camberley",
      "native": "Camberley",
      "type": "city",
      "level": null,
      "parent_id": null,
      "population": 30155,
      "latitude": "51.33705000",
      "longitude": "-0.74261000",
      "timezone": "Europe/London",
      "wikiDataId": "Q741400",
      "country_code": "GB",
      "state_code": "BRC",
      "state_id": 2470,
      "country_id": 232
    },
    {
      "id": 48980,
      "name": "چوبام",
      "name_default": "Chobham",
      "native": "Buam",
      "type": "city",
      "level": null,
      "parent_id": null,
      "population": 2835,
      "latitude": "51.34836000",
      "longitude": "-0.60639000",
      "timezone": "Europe/London",
      "wikiDataId": "Q1986679",
      "country_code": "GB",
      "state_code": "BRC",
      "state_id": 2470,
      "country_id": 232
    },
    {
      "id": 49184,
      "name": "کروثورن",
      "name_default": "Crowthorne",
      "native": "Crowthorne",
      "type": "city",
      "level": null,
      "parent_id": null,
      "population": 25522,
      "latitude": "51.37027000",
      "longitude": "-0.79219000",
      "timezone": "Europe/London",
      "wikiDataId": "Q1833112",
      "country_code": "GB",
      "state_code": "BRC",
      "state_id": 2470,
      "country_id": 232
    },
    {
      "id": 49462,
      "name": "الستید",
      "name_default": "Elstead",
      "native": "Elstead",
      "type": "city",
      "level": null,
      "parent_id": null,
      "population": 2544,
      "latitude": "51.18548000",
      "longitude": "-0.70536000",
      "timezone": "Europe/London",
      "wikiDataId": "Q1927639",
      "country_code": "GB",
      "state_code": "BRC",
      "state_id": 2470,
      "country_id": 232
    },
    {
      "id": 49517,
      "name": "فیرلندز",
      "name_default": "Fairlands",
      "native": "Fairlands",
      "type": "city",
      "level": null,
      "parent_id": null,
      "population": 1412,
      "latitude": "51.26178000",
      "longitude": "-0.62141000",
      "timezone": "Europe/London",
      "wikiDataId": "Q5430512",
      "country_code": "GB",
      "state_code": "BRC",
      "state_id": 2470,
      "country_id": 232
    },
    {
      "id": 49528,
      "name": "فارنبورو",
      "name_default": "Farnborough",
      "native": "Farnborough",
      "type": "city",
      "level": null,
      "parent_id": null,
      "population": 59902,
      "latitude": "51.29424000",
      "longitude": "-0.75565000",
      "timezone": "Europe/London",
      "wikiDataId": "Q547071",
      "country_code": "GB",
      "state_code": "BRC",
      "state_id": 2470,
      "country_id": 232
    },
    {
      "id": 49530,
      "name": "فارنهام",
      "name_default": "Farnham",
      "native": "Farnham",
      "type": "adm4",
      "level": null,
      "parent_id": null,
      "population": 36971,
      "latitude": "51.21444000",
      "longitude": "-0.80054000",
      "timezone": "Europe/London",
      "wikiDataId": "Q643160",
      "country_code": "GB",
      "state_code": "BRC",
      "state_id": 2470,
      "country_id": 232
    },
    {
      "id": 49608,
      "name": "فریملی",
      "name_default": "Frimley",
      "native": "Frimley",
      "type": "city",
      "level": null,
      "parent_id": null,
      "population": 12739,
      "latitude": "51.31667000",
      "longitude": "-0.74544000",
      "timezone": "Europe/London",
      "wikiDataId": "Q1424548",
      "country_code": "GB",
      "state_code": "BRC",
      "state_id": 2470,
      "country_id": 232
    },
    {
      "id": 50216,
      "name": "نافیل",
      "name_default": "Knaphill",
      "native": "Knaphill",
      "type": "city",
      "level": null,
      "parent_id": null,
      "population": 8635,
      "latitude": "51.32010000",
      "longitude": "-0.61584000",
      "timezone": "Europe/London",
      "wikiDataId": "Q6421733",
      "country_code": "GB",
      "state_code": "BRC",
      "state_id": 2470,
      "country_id": 232
    },
    {
      "id": 50302,
      "name": "لایت‌واتر",
      "name_default": "Lightwater",
      "native": "Lightwater",
      "type": "city",
      "level": null,
      "parent_id": null,
      "population": 6791,
      "latitude": "51.34846000",
      "longitude": "-0.67147000",
      "timezone": "Europe/London",
      "wikiDataId": "Q6546593",
      "country_code": "GB",
      "state_code": "BRC",
      "state_id": 2470,
      "country_id": 232
    },
    {
      "id": 50746,
      "name": "نورماندی",
      "name_default": "Normandy",
      "native": "Normandy",
      "type": "city",
      "level": null,
      "parent_id": null,
      "population": 1563,
      "latitude": "51.25751000",
      "longitude": "-0.67472000",
      "timezone": "Europe/London",
      "wikiDataId": "Q2219635",
      "country_code": "GB",
      "state_code": "BRC",
      "state_id": 2470,
      "country_id": 232
    },
    {
      "id": 51924,
      "name": "ویندلشام",
      "name_default": "Windlesham",
      "native": "Windlesham",
      "type": "city",
      "level": null,
      "parent_id": null,
      "population": 4194,
      "latitude": "51.36509000",
      "longitude": "-0.65476000",
      "timezone": "Europe/London",
      "wikiDataId": "Q2089032",
      "country_code": "GB",
      "state_code": "BRC",
      "state_id": 2470,
      "country_id": 232
    },
    {
      "id": 51956,
      "name": "ووکینگ",
      "name_default": "Woking",
      "native": "Woking",
      "type": "city",
      "level": null,
      "parent_id": null,
      "population": 103932,
      "latitude": "51.31903000",
      "longitude": "-0.55893000",
      "timezone": "Europe/London",
      "wikiDataId": "Q646225",
      "country_code": "GB",
      "state_code": "BRC",
      "state_id": 2470,
      "country_id": 232
    },
    {
      "id": 51967,
      "name": "روستای خیابان وود",
      "name_default": "Wood Street Village",
      "native": "Wood Street Village",
      "type": "city",
      "level": null,
      "parent_id": null,
      "population": 1619,
      "latitude": "51.25098000",
      "longitude": "-0.63695000",
      "timezone": "Europe/London",
      "wikiDataId": "Q8032282",
      "country_code": "GB",
      "state_code": "BRC",
      "state_id": 2470,
      "country_id": 232
    }
  ]
}
