{
  "locale": "it",
  "country": {
    "id": 232,
    "code": "GB",
    "iso3": "GBR",
    "numeric_code": "826",
    "name": "Regno Unito",
    "name_default": "United Kingdom",
    "native": "United Kingdom",
    "capital": "London",
    "phonecode": "44",
    "currency": "GBP",
    "currency_name": "British pound",
    "currency_symbol": "£",
    "tld": ".uk",
    "population": 68265209,
    "gdp": 3839180,
    "region": "Europe",
    "region_id": 4,
    "subregion": "Northern Europe",
    "subregion_id": 18,
    "nationality": "British, UK",
    "timezones": [
      {
        "zoneName": "Europe/London",
        "gmtOffset": 0,
        "gmtOffsetName": "UTC±00",
        "abbreviation": "GMT",
        "tzName": "Greenwich Mean Time"
      }
    ],
    "latitude": "54.00000000",
    "longitude": "-2.00000000",
    "emoji": "🇬🇧",
    "emojiU": "U+1F1EC U+1F1E7"
  },
  "state": {
    "id": 2473,
    "code": "NFK",
    "iso2": "NFK",
    "iso3166_2": "GB-NFK",
    "fips_code": "I9",
    "name": "Norfolk",
    "name_default": "Norfolk",
    "native": "Norfolk",
    "type": "two-tier county",
    "level": "2",
    "parent_id": "2336",
    "population": null,
    "latitude": "52.66666700",
    "longitude": "1.00000000",
    "timezone": "Europe/London",
    "wikiDataId": "Q23109",
    "country_code": "GB"
  },
  "cities": [
    {
      "id": 48190,
      "name": "Acle",
      "name_default": "Acle",
      "native": "Acle",
      "type": "city",
      "level": null,
      "parent_id": null,
      "population": 2788,
      "latitude": "52.63681000",
      "longitude": "1.54757000",
      "timezone": "Europe/London",
      "wikiDataId": "Q341938",
      "country_code": "GB",
      "state_code": "NFK",
      "state_id": 2473,
      "country_id": 232
    },
    {
      "id": 48292,
      "name": "Ashill",
      "name_default": "Ashill",
      "native": "Ashill",
      "type": "city",
      "level": null,
      "parent_id": null,
      "population": 1172,
      "latitude": "52.60435000",
      "longitude": "0.78574000",
      "timezone": "Europe/London",
      "wikiDataId": "Q943542",
      "country_code": "GB",
      "state_code": "NFK",
      "state_id": 2473,
      "country_id": 232
    },
    {
      "id": 48310,
      "name": "Attleborough",
      "name_default": "Attleborough",
      "native": "Attleborough",
      "type": "city",
      "level": null,
      "parent_id": null,
      "population": 12163,
      "latitude": "52.51779000",
      "longitude": "1.01572000",
      "timezone": "Europe/London",
      "wikiDataId": "Q1975526",
      "country_code": "GB",
      "state_code": "NFK",
      "state_id": 2473,
      "country_id": 232
    },
    {
      "id": 48327,
      "name": "Aylsham",
      "name_default": "Aylsham",
      "native": "Aylsham",
      "type": "city",
      "level": null,
      "parent_id": null,
      "population": 6016,
      "latitude": "52.79672000",
      "longitude": "1.25107000",
      "timezone": "Europe/London",
      "wikiDataId": "Q237625",
      "country_code": "GB",
      "state_code": "NFK",
      "state_id": 2473,
      "country_id": 232
    },
    {
      "id": 48636,
      "name": "Bowthorpe",
      "name_default": "Bowthorpe",
      "native": "Bowthorpe",
      "type": "city",
      "level": null,
      "parent_id": null,
      "population": 20000,
      "latitude": "52.63884000",
      "longitude": "1.21885000",
      "timezone": "Europe/London",
      "wikiDataId": "Q4951449",
      "country_code": "GB",
      "state_code": "NFK",
      "state_id": 2473,
      "country_id": 232
    },
    {
      "id": 48704,
      "name": "Briston",
      "name_default": "Briston",
      "native": "Briston",
      "type": "city",
      "level": null,
      "parent_id": null,
      "population": 2547,
      "latitude": "52.85369000",
      "longitude": "1.05899000",
      "timezone": "Europe/London",
      "wikiDataId": "Q391950",
      "country_code": "GB",
      "state_code": "NFK",
      "state_id": 2473,
      "country_id": 232
    },
    {
      "id": 48723,
      "name": "Brooke",
      "name_default": "Brooke",
      "native": "Brooke",
      "type": "city",
      "level": null,
      "parent_id": null,
      "population": 1215,
      "latitude": "52.54175000",
      "longitude": "1.37076000",
      "timezone": "Europe/London",
      "wikiDataId": "Q2350389",
      "country_code": "GB",
      "state_code": "NFK",
      "state_id": 2473,
      "country_id": 232
    },
    {
      "id": 48735,
      "name": "Brundall",
      "name_default": "Brundall",
      "native": "Brundall",
      "type": "adm4",
      "level": null,
      "parent_id": null,
      "population": 5927,
      "latitude": "52.62426000",
      "longitude": "1.43509000",
      "timezone": "Europe/London",
      "wikiDataId": "Q2926580",
      "country_code": "GB",
      "state_code": "NFK",
      "state_id": 2473,
      "country_id": 232
    },
    {
      "id": 48818,
      "name": "Caister-on-Sea",
      "name_default": "Caister-on-Sea",
      "native": "TAISTER-by-Sea",
      "type": "city",
      "level": null,
      "parent_id": null,
      "population": 8617,
      "latitude": "52.65083090",
      "longitude": "1.72377000",
      "timezone": "Europe/London",
      "wikiDataId": "Q629427",
      "country_code": "GB",
      "state_code": "NFK",
      "state_id": 2473,
      "country_id": 232
    },
    {
      "id": 48898,
      "name": "Cawston",
      "name_default": "Cawston",
      "native": "Cawston",
      "type": "city",
      "level": null,
      "parent_id": null,
      "population": 1172,
      "latitude": "52.76667000",
      "longitude": "1.16667000",
      "timezone": "Europe/London",
      "wikiDataId": "Q1820102",
      "country_code": "GB",
      "state_code": "NFK",
      "state_id": 2473,
      "country_id": 232
    },
    {
      "id": 49030,
      "name": "Clenchwarton",
      "name_default": "Clenchwarton",
      "native": "Clenchwarton",
      "type": "city",
      "level": null,
      "parent_id": null,
      "population": 1733,
      "latitude": "52.75604000",
      "longitude": "0.35790000",
      "timezone": "Europe/London",
      "wikiDataId": "Q5131603",
      "country_code": "GB",
      "state_code": "NFK",
      "state_id": 2473,
      "country_id": 232
    },
    {
      "id": 49076,
      "name": "Coltishall",
      "name_default": "Coltishall",
      "native": "Coltishall",
      "type": "city",
      "level": null,
      "parent_id": null,
      "population": 2310,
      "latitude": "52.72804000",
      "longitude": "1.36653000",
      "timezone": "Europe/London",
      "wikiDataId": "Q1009661",
      "country_code": "GB",
      "state_code": "NFK",
      "state_id": 2473,
      "country_id": 232
    },
    {
      "id": 49113,
      "name": "Costessey",
      "name_default": "Costessey",
      "native": "Costessey",
      "type": "city",
      "level": null,
      "parent_id": null,
      "population": 2381,
      "latitude": "52.65914000",
      "longitude": "1.20970000",
      "timezone": "Europe/London",
      "wikiDataId": "Q2201571",
      "country_code": "GB",
      "state_code": "NFK",
      "state_id": 2473,
      "country_id": 232
    },
    {
      "id": 49161,
      "name": "Cringleford",
      "name_default": "Cringleford",
      "native": "Cringleford",
      "type": "city",
      "level": null,
      "parent_id": null,
      "population": 2105,
      "latitude": "52.60482000",
      "longitude": "1.24334000",
      "timezone": "Europe/London",
      "wikiDataId": "Q2187751",
      "country_code": "GB",
      "state_code": "NFK",
      "state_id": 2473,
      "country_id": 232
    },
    {
      "id": 49166,
      "name": "Cromer",
      "name_default": "Cromer",
      "native": "Cromer",
      "type": "city",
      "level": null,
      "parent_id": null,
      "population": 7543,
      "latitude": "52.93123000",
      "longitude": "1.29892000",
      "timezone": "Europe/London",
      "wikiDataId": "Q208296",
      "country_code": "GB",
      "state_code": "NFK",
      "state_id": 2473,
      "country_id": 232
    },
    {
      "id": 49274,
      "name": "Dersingham",
      "name_default": "Dersingham",
      "native": "Dersingham",
      "type": "city",
      "level": null,
      "parent_id": null,
      "population": 4753,
      "latitude": "52.84549000",
      "longitude": "0.50339000",
      "timezone": "Europe/London",
      "wikiDataId": "Q1779758",
      "country_code": "GB",
      "state_code": "NFK",
      "state_id": 2473,
      "country_id": 232
    },
    {
      "id": 49393,
      "name": "Dereham orientale",
      "name_default": "East Dereham",
      "native": "East Dereham",
      "type": "city",
      "level": null,
      "parent_id": null,
      "population": 20651,
      "latitude": "52.68333000",
      "longitude": "0.93333000",
      "timezone": "Europe/London",
      "wikiDataId": "Q302893",
      "country_code": "GB",
      "state_code": "NFK",
      "state_id": 2473,
      "country_id": 232
    },
    {
      "id": 49520,
      "name": "Fakenham",
      "name_default": "Fakenham",
      "native": "Fakenham",
      "type": "city",
      "level": null,
      "parent_id": null,
      "population": 8014,
      "latitude": "52.82996000",
      "longitude": "0.84770000",
      "timezone": "Europe/London",
      "wikiDataId": "Q237650",
      "country_code": "GB",
      "state_code": "NFK",
      "state_id": 2473,
      "country_id": 232
    },
    {
      "id": 49595,
      "name": "Foulsham",
      "name_default": "Foulsham",
      "native": "Foulsham",
      "type": "city",
      "level": null,
      "parent_id": null,
      "population": 1028,
      "latitude": "52.78182000",
      "longitude": "1.01049000",
      "timezone": "Europe/London",
      "wikiDataId": "Q2595321",
      "country_code": "GB",
      "state_code": "NFK",
      "state_id": 2473,
      "country_id": 232
    },
    {
      "id": 49683,
      "name": "Gorleston-on-Sea",
      "name_default": "Gorleston-on-Sea",
      "native": "Gorleston-on-Sea",
      "type": "city",
      "level": null,
      "parent_id": null,
      "population": 8901,
      "latitude": "52.57785590",
      "longitude": "1.72733530",
      "timezone": "Europe/London",
      "wikiDataId": "Q369657",
      "country_code": "GB",
      "state_code": "NFK",
      "state_id": 2473,
      "country_id": 232
    },
    {
      "id": 49736,
      "name": "Great Yarmouth",
      "name_default": "Great Yarmouth",
      "native": "Great Yarmouth",
      "type": "city",
      "level": null,
      "parent_id": null,
      "population": 63434,
      "latitude": "52.60717420",
      "longitude": "1.73148450",
      "timezone": "Europe/London",
      "wikiDataId": "Q237253",
      "country_code": "GB",
      "state_code": "NFK",
      "state_id": 2473,
      "country_id": 232
    },
    {
      "id": 49754,
      "name": "Grimston",
      "name_default": "Grimston",
      "native": "Grimston",
      "type": "city",
      "level": null,
      "parent_id": null,
      "population": 2086,
      "latitude": "52.77312000",
      "longitude": "0.54846000",
      "timezone": "Europe/London",
      "wikiDataId": "Q2126573",
      "country_code": "GB",
      "state_code": "NFK",
      "state_id": 2473,
      "country_id": 232
    },
    {
      "id": 49755,
      "name": "Griston",
      "name_default": "Griston",
      "native": "Griston",
      "type": "city",
      "level": null,
      "parent_id": null,
      "population": 1812,
      "latitude": "52.55720000",
      "longitude": "0.86436000",
      "timezone": "Europe/London",
      "wikiDataId": "Q615956",
      "country_code": "GB",
      "state_code": "NFK",
      "state_id": 2473,
      "country_id": 232
    },
    {
      "id": 49870,
      "name": "Heacham",
      "name_default": "Heacham",
      "native": "Heacham",
      "type": "city",
      "level": null,
      "parent_id": null,
      "population": 4607,
      "latitude": "52.90782000",
      "longitude": "0.49387000",
      "timezone": "Europe/London",
      "wikiDataId": "Q2199636",
      "country_code": "GB",
      "state_code": "NFK",
      "state_id": 2473,
      "country_id": 232
    },
    {
      "id": 49898,
      "name": "Hemsby",
      "name_default": "Hemsby",
      "native": "Hemsby",
      "type": "city",
      "level": null,
      "parent_id": null,
      "population": 3567,
      "latitude": "52.69401060",
      "longitude": "1.68319850",
      "timezone": "Europe/London",
      "wikiDataId": "Q2670662",
      "country_code": "GB",
      "state_code": "NFK",
      "state_id": 2473,
      "country_id": 232
    },
    {
      "id": 49916,
      "name": "Hethersett",
      "name_default": "Hethersett",
      "native": "Hethersett",
      "type": "city",
      "level": null,
      "parent_id": null,
      "population": 5520,
      "latitude": "52.59761000",
      "longitude": "1.17359000",
      "timezone": "Europe/London",
      "wikiDataId": "Q181821",
      "country_code": "GB",
      "state_code": "NFK",
      "state_id": 2473,
      "country_id": 232
    },
    {
      "id": 49948,
      "name": "Hingham",
      "name_default": "Hingham",
      "native": "Hingham",
      "type": "city",
      "level": null,
      "parent_id": null,
      "population": 2543,
      "latitude": "52.57969000",
      "longitude": "0.98422000",
      "timezone": "Europe/London",
      "wikiDataId": "Q2568918",
      "country_code": "GB",
      "state_code": "NFK",
      "state_id": 2473,
      "country_id": 232
    },
    {
      "id": 49986,
      "name": "Hopton on Sea",
      "name_default": "Hopton on Sea",
      "native": "Hopton on Sea",
      "type": "city",
      "level": null,
      "parent_id": null,
      "population": 2939,
      "latitude": "52.54375180",
      "longitude": "1.71986680",
      "timezone": "Europe/London",
      "wikiDataId": "Q2980788",
      "country_code": "GB",
      "state_code": "NFK",
      "state_id": 2473,
      "country_id": 232
    },
    {
      "id": 49993,
      "name": "Cornuto",
      "name_default": "Horning",
      "native": "Horning",
      "type": "city",
      "level": null,
      "parent_id": null,
      "population": 1067,
      "latitude": "52.70460000",
      "longitude": "1.46294000",
      "timezone": "Europe/London",
      "wikiDataId": "Q957808",
      "country_code": "GB",
      "state_code": "NFK",
      "state_id": 2473,
      "country_id": 232
    },
    {
      "id": 49996,
      "name": "Horsford",
      "name_default": "Horsford",
      "native": "Horsford",
      "type": "city",
      "level": null,
      "parent_id": null,
      "population": 4939,
      "latitude": "52.70153000",
      "longitude": "1.24015000",
      "timezone": "Europe/London",
      "wikiDataId": "Q2417150",
      "country_code": "GB",
      "state_code": "NFK",
      "state_id": 2473,
      "country_id": 232
    },
    {
      "id": 50012,
      "name": "Hoveton",
      "name_default": "Hoveton",
      "native": "Hoveton",
      "type": "city",
      "level": null,
      "parent_id": null,
      "population": 3089,
      "latitude": "52.71490000",
      "longitude": "1.41054000",
      "timezone": "Europe/London",
      "wikiDataId": "Q2548710",
      "country_code": "GB",
      "state_code": "NFK",
      "state_id": 2473,
      "country_id": 232
    },
    {
      "id": 50025,
      "name": "Hunstanton",
      "name_default": "Hunstanton",
      "native": "Female",
      "type": "city",
      "level": null,
      "parent_id": null,
      "population": 9332,
      "latitude": "52.95000000",
      "longitude": "0.50000000",
      "timezone": "Europe/London",
      "wikiDataId": "Q617188",
      "country_code": "GB",
      "state_code": "NFK",
      "state_id": 2473,
      "country_id": 232
    },
    {
      "id": 50162,
      "name": "King's Lynn",
      "name_default": "King's Lynn",
      "native": "King's Lynn",
      "type": "city",
      "level": null,
      "parent_id": null,
      "population": 42800,
      "latitude": "52.75172000",
      "longitude": "0.39516000",
      "timezone": "Europe/London",
      "wikiDataId": "Q157341",
      "country_code": "GB",
      "state_code": "NFK",
      "state_id": 2473,
      "country_id": 232
    },
    {
      "id": 50310,
      "name": "Lingwood",
      "name_default": "Lingwood",
      "native": "Lingwood",
      "type": "city",
      "level": null,
      "parent_id": null,
      "population": 2719,
      "latitude": "52.62104000",
      "longitude": "1.48616000",
      "timezone": "Europe/London",
      "wikiDataId": "Q16572187",
      "country_code": "GB",
      "state_code": "NFK",
      "state_id": 2473,
      "country_id": 232
    },
    {
      "id": 50384,
      "name": "Loddon",
      "name_default": "Loddon",
      "native": "Loddon",
      "type": "city",
      "level": null,
      "parent_id": null,
      "population": 3089,
      "latitude": "52.53270000",
      "longitude": "1.48183000",
      "timezone": "Europe/London",
      "wikiDataId": "Q1613300",
      "country_code": "GB",
      "state_code": "NFK",
      "state_id": 2473,
      "country_id": 232
    },
    {
      "id": 50399,
      "name": "Long Stratton",
      "name_default": "Long Stratton",
      "native": "Long Stratton",
      "type": "city",
      "level": null,
      "parent_id": null,
      "population": 4441,
      "latitude": "52.48803000",
      "longitude": "1.23478000",
      "timezone": "Europe/London",
      "wikiDataId": "Q2335346",
      "country_code": "GB",
      "state_code": "NFK",
      "state_id": 2473,
      "country_id": 232
    },
    {
      "id": 50521,
      "name": "Martha",
      "name_default": "Martham",
      "native": "Martham",
      "type": "city",
      "level": null,
      "parent_id": null,
      "population": 3766,
      "latitude": "52.70464000",
      "longitude": "1.63636000",
      "timezone": "Europe/London",
      "wikiDataId": "Q2107271",
      "country_code": "GB",
      "state_code": "NFK",
      "state_id": 2473,
      "country_id": 232
    },
    {
      "id": 50527,
      "name": "Mattishall",
      "name_default": "Mattishall",
      "native": "Mattishall",
      "type": "city",
      "level": null,
      "parent_id": null,
      "population": 2741,
      "latitude": "52.65905000",
      "longitude": "1.03250000",
      "timezone": "Europe/London",
      "wikiDataId": "Q378912",
      "country_code": "GB",
      "state_code": "NFK",
      "state_id": 2473,
      "country_id": 232
    },
    {
      "id": 50650,
      "name": "Mulbarton",
      "name_default": "Mulbarton",
      "native": "Mulbarton",
      "type": "city",
      "level": null,
      "parent_id": null,
      "population": 4020,
      "latitude": "52.55913000",
      "longitude": "1.23327000",
      "timezone": "Europe/London",
      "wikiDataId": "Q2628913",
      "country_code": "GB",
      "state_code": "NFK",
      "state_id": 2473,
      "country_id": 232
    },
    {
      "id": 50652,
      "name": "Mundesley",
      "name_default": "Mundesley",
      "native": "Mundesley",
      "type": "city",
      "level": null,
      "parent_id": null,
      "population": 2778,
      "latitude": "52.87842000",
      "longitude": "1.42970000",
      "timezone": "Europe/London",
      "wikiDataId": "Q601728",
      "country_code": "GB",
      "state_code": "NFK",
      "state_id": 2473,
      "country_id": 232
    },
    {
      "id": 50653,
      "name": "Mundford",
      "name_default": "Mundford",
      "native": "Mundford",
      "type": "city",
      "level": null,
      "parent_id": null,
      "population": 1564,
      "latitude": "52.50930000",
      "longitude": "0.64991000",
      "timezone": "Europe/London",
      "wikiDataId": "Q1846990",
      "country_code": "GB",
      "state_code": "NFK",
      "state_id": 2473,
      "country_id": 232
    },
    {
      "id": 50669,
      "name": "Necton",
      "name_default": "Necton",
      "native": "Necton",
      "type": "city",
      "level": null,
      "parent_id": null,
      "population": 2147,
      "latitude": "52.64994000",
      "longitude": "0.77539000",
      "timezone": "Europe/London",
      "wikiDataId": "Q2451060",
      "country_code": "GB",
      "state_code": "NFK",
      "state_id": 2473,
      "country_id": 232
    },
    {
      "id": 50745,
      "name": "Norfolk",
      "name_default": "Norfolk",
      "native": "Norfolk",
      "type": "city",
      "level": null,
      "parent_id": null,
      "population": null,
      "latitude": "52.66667000",
      "longitude": "1.00000000",
      "timezone": "Europe/London",
      "wikiDataId": "Q23109",
      "country_code": "GB",
      "state_code": "NFK",
      "state_id": 2473,
      "country_id": 232
    },
    {
      "id": 50754,
      "name": "Elmham settentrionale",
      "name_default": "North Elmham",
      "native": "North Elmham",
      "type": "city",
      "level": null,
      "parent_id": null,
      "population": 1392,
      "latitude": "52.74640000",
      "longitude": "0.94611000",
      "timezone": "Europe/London",
      "wikiDataId": "Q1921629",
      "country_code": "GB",
      "state_code": "NFK",
      "state_id": 2473,
      "country_id": 232
    },
    {
      "id": 50769,
      "name": "Walsham del Nord",
      "name_default": "North Walsham",
      "native": "North Walsham",
      "type": "city",
      "level": null,
      "parent_id": null,
      "population": 13007,
      "latitude": "52.82121000",
      "longitude": "1.38746000",
      "timezone": "Europe/London",
      "wikiDataId": "Q327168",
      "country_code": "GB",
      "state_code": "NFK",
      "state_id": 2473,
      "country_id": 232
    },
    {
      "id": 50785,
      "name": "Norwich",
      "name_default": "Norwich",
      "native": "Norwich",
      "type": "adm2",
      "level": null,
      "parent_id": null,
      "population": 143135,
      "latitude": "52.62783000",
      "longitude": "1.29834000",
      "timezone": "Europe/London",
      "wikiDataId": "Q130191",
      "country_code": "GB",
      "state_code": "NFK",
      "state_id": 2473,
      "country_id": 232
    },
    {
      "id": 50815,
      "name": "Ormesby St Margaret",
      "name_default": "Ormesby St Margaret",
      "native": "Ormesby St Margaret",
      "type": "city",
      "level": null,
      "parent_id": null,
      "population": 2810,
      "latitude": "52.67558980",
      "longitude": "1.68938870",
      "timezone": "Europe/London",
      "wikiDataId": "Q23825731",
      "country_code": "GB",
      "state_code": "NFK",
      "state_id": 2473,
      "country_id": 232
    },
    {
      "id": 50834,
      "name": "Overstrand",
      "name_default": "Overstrand",
      "native": "Overstrand",
      "type": "city",
      "level": null,
      "parent_id": null,
      "population": 998,
      "latitude": "52.91623000",
      "longitude": "1.33900000",
      "timezone": "Europe/London",
      "wikiDataId": "Q39448",
      "country_code": "GB",
      "state_code": "NFK",
      "state_id": 2473,
      "country_id": 232
    },
    {
      "id": 50950,
      "name": "Poringland",
      "name_default": "Poringland",
      "native": "Poringland",
      "type": "city",
      "level": null,
      "parent_id": null,
      "population": 5540,
      "latitude": "52.56756000",
      "longitude": "1.34961000",
      "timezone": "Europe/London",
      "wikiDataId": "Q2089640",
      "country_code": "GB",
      "state_code": "NFK",
      "state_id": 2473,
      "country_id": 232
    },
    {
      "id": 51015,
      "name": "Rackheath",
      "name_default": "Rackheath",
      "native": "Rackheath",
      "type": "city",
      "level": null,
      "parent_id": null,
      "population": 1628,
      "latitude": "52.66254000",
      "longitude": "1.38032000",
      "timezone": "Europe/London",
      "wikiDataId": "Q2759926",
      "country_code": "GB",
      "state_code": "NFK",
      "state_id": 2473,
      "country_id": 232
    },
    {
      "id": 51056,
      "name": "Reedham",
      "name_default": "Reedham",
      "native": "Reedham",
      "type": "city",
      "level": null,
      "parent_id": null,
      "population": 1182,
      "latitude": "52.56054000",
      "longitude": "1.57122000",
      "timezone": "Europe/London",
      "wikiDataId": "Q2645701",
      "country_code": "GB",
      "state_code": "NFK",
      "state_id": 2473,
      "country_id": 232
    },
    {
      "id": 51057,
      "name": "Reepham",
      "name_default": "Reepham",
      "native": "Reephal",
      "type": "city",
      "level": null,
      "parent_id": null,
      "population": 2656,
      "latitude": "52.76320000",
      "longitude": "1.11099000",
      "timezone": "Europe/London",
      "wikiDataId": "Q1501141",
      "country_code": "GB",
      "state_code": "NFK",
      "state_id": 2473,
      "country_id": 232
    },
    {
      "id": 51271,
      "name": "Sheringham",
      "name_default": "Sheringham",
      "native": "Sheringham",
      "type": "city",
      "level": null,
      "parent_id": null,
      "population": 7088,
      "latitude": "52.94078000",
      "longitude": "1.20931000",
      "timezone": "Europe/London",
      "wikiDataId": "Q239496",
      "country_code": "GB",
      "state_code": "NFK",
      "state_id": 2473,
      "country_id": 232
    },
    {
      "id": 51282,
      "name": "Shipdham",
      "name_default": "Shipdham",
      "native": "Shipdham",
      "type": "city",
      "level": null,
      "parent_id": null,
      "population": 1860,
      "latitude": "52.62923000",
      "longitude": "0.88577000",
      "timezone": "Europe/London",
      "wikiDataId": "Q1881466",
      "country_code": "GB",
      "state_code": "NFK",
      "state_id": 2473,
      "country_id": 232
    },
    {
      "id": 51336,
      "name": "Snettisham",
      "name_default": "Snettisham",
      "native": "Snettisham",
      "type": "city",
      "level": null,
      "parent_id": null,
      "population": 2709,
      "latitude": "52.87882000",
      "longitude": "0.50099000",
      "timezone": "Europe/London",
      "wikiDataId": "Q999768",
      "country_code": "GB",
      "state_code": "NFK",
      "state_id": 2473,
      "country_id": 232
    },
    {
      "id": 51390,
      "name": "Spixworth",
      "name_default": "Spixworth",
      "native": "Spixworth",
      "type": "city",
      "level": null,
      "parent_id": null,
      "population": 3707,
      "latitude": "52.68529000",
      "longitude": "1.32027000",
      "timezone": "Europe/London",
      "wikiDataId": "Q2734020",
      "country_code": "GB",
      "state_code": "NFK",
      "state_id": 2473,
      "country_id": 232
    },
    {
      "id": 51414,
      "name": "Stalham",
      "name_default": "Stalham",
      "native": "Statham",
      "type": "city",
      "level": null,
      "parent_id": null,
      "population": 3573,
      "latitude": "52.77079000",
      "longitude": "1.51783000",
      "timezone": "Europe/London",
      "wikiDataId": "Q2335729",
      "country_code": "GB",
      "state_code": "NFK",
      "state_id": 2473,
      "country_id": 232
    },
    {
      "id": 51461,
      "name": "Traghetto di Stoke",
      "name_default": "Stoke Ferry",
      "native": "Stoke Ferry",
      "type": "city",
      "level": null,
      "parent_id": null,
      "population": 1191,
      "latitude": "52.57051000",
      "longitude": "0.51320000",
      "timezone": "Europe/London",
      "wikiDataId": "Q1914294",
      "country_code": "GB",
      "state_code": "NFK",
      "state_id": 2473,
      "country_id": 232
    },
    {
      "id": 51527,
      "name": "Swaffham",
      "name_default": "Swaffham",
      "native": "Swafham",
      "type": "city",
      "level": null,
      "parent_id": null,
      "population": 8565,
      "latitude": "52.64770000",
      "longitude": "0.68570000",
      "timezone": "Europe/London",
      "wikiDataId": "Q1527491",
      "country_code": "GB",
      "state_code": "NFK",
      "state_id": 2473,
      "country_id": 232
    },
    {
      "id": 51608,
      "name": "Thorpe Amleto",
      "name_default": "Thorpe Hamlet",
      "native": "Thorpe Hamlet",
      "type": "section",
      "level": null,
      "parent_id": null,
      "population": 8109,
      "latitude": "52.62770000",
      "longitude": "1.31175000",
      "timezone": "Europe/London",
      "wikiDataId": "Q7796696",
      "country_code": "GB",
      "state_code": "NFK",
      "state_id": 2473,
      "country_id": 232
    },
    {
      "id": 51614,
      "name": "Thurlton",
      "name_default": "Thurlton",
      "native": "Thurlton",
      "type": "city",
      "level": null,
      "parent_id": null,
      "population": 1077,
      "latitude": "52.52881000",
      "longitude": "1.55617000",
      "timezone": "Europe/London",
      "wikiDataId": "Q2171419",
      "country_code": "GB",
      "state_code": "NFK",
      "state_id": 2473,
      "country_id": 232
    },
    {
      "id": 51777,
      "name": "Watton",
      "name_default": "Watton",
      "native": "Watton",
      "type": "city",
      "level": null,
      "parent_id": null,
      "population": 8967,
      "latitude": "52.56667000",
      "longitude": "0.83333000",
      "timezone": "Europe/London",
      "wikiDataId": "Q2396339",
      "country_code": "GB",
      "state_code": "NFK",
      "state_id": 2473,
      "country_id": 232
    },
    {
      "id": 51784,
      "name": "Bagnare",
      "name_default": "Weeting",
      "native": "Weeting",
      "type": "city",
      "level": null,
      "parent_id": null,
      "population": 1839,
      "latitude": "52.46440000",
      "longitude": "0.61485000",
      "timezone": "Europe/London",
      "wikiDataId": "Q14955535",
      "country_code": "GB",
      "state_code": "NFK",
      "state_id": 2473,
      "country_id": 232
    },
    {
      "id": 51793,
      "name": "Wells-next-the-Sea",
      "name_default": "Wells-next-the-Sea",
      "native": "Wells-next-the-Sea",
      "type": "city",
      "level": null,
      "parent_id": null,
      "population": 2148,
      "latitude": "52.95164000",
      "longitude": "0.85110000",
      "timezone": "Europe/London",
      "wikiDataId": "Q930204",
      "country_code": "GB",
      "state_code": "NFK",
      "state_id": 2473,
      "country_id": 232
    }
  ]
}
