{
  "locale": "ko",
  "country": {
    "id": 57,
    "code": "CY",
    "iso3": "CYP",
    "numeric_code": "196",
    "name": "키프로스",
    "name_default": "Cyprus",
    "native": "Κύπρος",
    "capital": "Nicosia",
    "phonecode": "357",
    "currency": "EUR",
    "currency_name": "Euro",
    "currency_symbol": "€",
    "tld": ".cy",
    "population": 966400,
    "gdp": 38736,
    "region": "Europe",
    "region_id": 4,
    "subregion": "Southern Europe",
    "subregion_id": 16,
    "nationality": "Cypriot",
    "timezones": [
      {
        "zoneName": "Asia/Famagusta",
        "gmtOffset": 7200,
        "gmtOffsetName": "UTC+02:00",
        "abbreviation": "EET",
        "tzName": "Eastern European Time"
      },
      {
        "zoneName": "Asia/Nicosia",
        "gmtOffset": 7200,
        "gmtOffsetName": "UTC+02:00",
        "abbreviation": "EET",
        "tzName": "Eastern European Time"
      }
    ],
    "latitude": "35.00000000",
    "longitude": "33.00000000",
    "emoji": "🇨🇾",
    "emojiU": "U+1F1E8 U+1F1FE"
  },
  "state": {
    "id": 747,
    "code": "03",
    "iso2": "03",
    "iso3166_2": "CY-03",
    "fips_code": "03",
    "name": "라르나카(Larnaka)",
    "name_default": "Larnaca (Larnaka)",
    "native": "Larnaca (Larnaka)",
    "type": "district",
    "level": null,
    "parent_id": null,
    "population": null,
    "latitude": "34.86974840",
    "longitude": "33.60920970",
    "timezone": "Asia/Famagusta",
    "wikiDataId": "Q59153",
    "country_code": "CY"
  },
  "cities": [
    {
      "id": 22015,
      "name": "아라디푸",
      "name_default": "Aradíppou",
      "native": "Αραδίππου",
      "type": "city",
      "level": null,
      "parent_id": null,
      "population": null,
      "latitude": "34.95151000",
      "longitude": "33.59199000",
      "timezone": "Asia/Famagusta",
      "wikiDataId": "Q2009604",
      "country_code": "CY",
      "state_code": "03",
      "state_id": 747,
      "country_id": 57
    },
    {
      "id": 22019,
      "name": "아티에누",
      "name_default": "Athíenou",
      "native": "Αθηένου",
      "type": "city",
      "level": null,
      "parent_id": null,
      "population": 5017,
      "latitude": "35.06180000",
      "longitude": "33.54156000",
      "timezone": "Asia/Nicosia",
      "wikiDataId": "Q570146",
      "country_code": "CY",
      "state_code": "03",
      "state_id": 747,
      "country_id": 57
    },
    {
      "id": 22024,
      "name": "드로몰락시아",
      "name_default": "Dhromolaxia",
      "native": "Δρομολαξία",
      "type": "city",
      "level": null,
      "parent_id": null,
      "population": 6866,
      "latitude": "34.87551000",
      "longitude": "33.58684000",
      "timezone": "Asia/Nicosia",
      "wikiDataId": "Q5308294",
      "country_code": "CY",
      "state_code": "03",
      "state_id": 747,
      "country_id": 57
    },
    {
      "id": 22049,
      "name": "키티",
      "name_default": "Kíti",
      "native": "Κίτι",
      "type": "city",
      "level": null,
      "parent_id": null,
      "population": 4252,
      "latitude": "34.84696000",
      "longitude": "33.57344000",
      "timezone": "Asia/Nicosia",
      "wikiDataId": "Q6418213",
      "country_code": "CY",
      "state_code": "03",
      "state_id": 747,
      "country_id": 57
    },
    {
      "id": 22039,
      "name": "코피누",
      "name_default": "Kofínou",
      "native": "Κοφίνου",
      "type": "city",
      "level": null,
      "parent_id": null,
      "population": 1309,
      "latitude": "34.82449000",
      "longitude": "33.39130000",
      "timezone": "Asia/Nicosia",
      "wikiDataId": "Q6425729",
      "country_code": "CY",
      "state_code": "03",
      "state_id": 747,
      "country_id": 57
    },
    {
      "id": 22042,
      "name": "콜로시",
      "name_default": "Kolossi",
      "native": "Κολόσσι",
      "type": "city",
      "level": null,
      "parent_id": null,
      "population": 5651,
      "latitude": "34.66865000",
      "longitude": "32.93375000",
      "timezone": "Asia/Nicosia",
      "wikiDataId": "Q3353547",
      "country_code": "CY",
      "state_code": "03",
      "state_id": 747,
      "country_id": 57
    },
    {
      "id": 22050,
      "name": "코르노스",
      "name_default": "Kórnos",
      "native": "Κόρνος",
      "type": "city",
      "level": null,
      "parent_id": null,
      "population": 2083,
      "latitude": "34.92396000",
      "longitude": "33.39764000",
      "timezone": "Asia/Nicosia",
      "wikiDataId": "Q6432453",
      "country_code": "CY",
      "state_code": "03",
      "state_id": 747,
      "country_id": 57
    },
    {
      "id": 22051,
      "name": "라르나카",
      "name_default": "Larnaca",
      "native": "Λάρνακα",
      "type": "adm1",
      "level": null,
      "parent_id": null,
      "population": 72000,
      "latitude": "34.92291000",
      "longitude": "33.62330000",
      "timezone": "Asia/Famagusta",
      "wikiDataId": "Q171882",
      "country_code": "CY",
      "state_code": "03",
      "state_id": 747,
      "country_id": 57
    },
    {
      "id": 22057,
      "name": "리바디아",
      "name_default": "Livádia",
      "native": "Λιβάδια",
      "type": "city",
      "level": null,
      "parent_id": null,
      "population": 5329,
      "latitude": "34.95118000",
      "longitude": "33.62658000",
      "timezone": "Asia/Nicosia",
      "wikiDataId": "Q11762209",
      "country_code": "CY",
      "state_code": "03",
      "state_id": 747,
      "country_id": 57
    },
    {
      "id": 22062,
      "name": "메네우",
      "name_default": "Meneou",
      "native": "Μενεού",
      "type": "city",
      "level": null,
      "parent_id": null,
      "population": 1248,
      "latitude": "34.86114000",
      "longitude": "33.59516000",
      "timezone": "Asia/Nicosia",
      "wikiDataId": "Q6816909",
      "country_code": "CY",
      "state_code": "03",
      "state_id": 747,
      "country_id": 57
    },
    {
      "id": 22064,
      "name": "모스필로티",
      "name_default": "Mosfilotí",
      "native": "Μοσφιλότι",
      "type": "city",
      "level": null,
      "parent_id": null,
      "population": 1342,
      "latitude": "34.95256000",
      "longitude": "33.42511000",
      "timezone": "Asia/Nicosia",
      "wikiDataId": "Q11785710",
      "country_code": "CY",
      "state_code": "03",
      "state_id": 747,
      "country_id": 57
    },
    {
      "id": 22087,
      "name": "페르가모스",
      "name_default": "Pérgamos",
      "native": "Πέργαμος",
      "type": "adm2",
      "level": null,
      "parent_id": null,
      "population": 15000,
      "latitude": "35.04167000",
      "longitude": "33.70833000",
      "timezone": "Asia/Nicosia",
      "wikiDataId": "Q2538717",
      "country_code": "CY",
      "state_code": "03",
      "state_id": 747,
      "country_id": 57
    },
    {
      "id": 22076,
      "name": "페리볼리아",
      "name_default": "Perivólia",
      "native": "Περιβόλια",
      "type": "city",
      "level": null,
      "parent_id": null,
      "population": 1876,
      "latitude": "34.83355000",
      "longitude": "33.58196000",
      "timezone": "Asia/Nicosia",
      "wikiDataId": "Q7168940",
      "country_code": "CY",
      "state_code": "03",
      "state_id": 747,
      "country_id": 57
    },
    {
      "id": 22079,
      "name": "프세브다스",
      "name_default": "Psevdás",
      "native": "Ψευδάς",
      "type": "city",
      "level": null,
      "parent_id": null,
      "population": 1261,
      "latitude": "34.94653000",
      "longitude": "33.46277000",
      "timezone": "Asia/Nicosia",
      "wikiDataId": "Q7255745",
      "country_code": "CY",
      "state_code": "03",
      "state_id": 747,
      "country_id": 57
    },
    {
      "id": 22089,
      "name": "필라",
      "name_default": "Pýla",
      "native": "Πύλα",
      "type": "city",
      "level": null,
      "parent_id": null,
      "population": 2771,
      "latitude": "35.01237000",
      "longitude": "33.69188000",
      "timezone": "Asia/Famagusta",
      "wikiDataId": "Q1968566",
      "country_code": "CY",
      "state_code": "03",
      "state_id": 747,
      "country_id": 57
    },
    {
      "id": 22093,
      "name": "테르세파누",
      "name_default": "Tersefánou",
      "native": "Τερσεφάνου",
      "type": "city",
      "level": null,
      "parent_id": null,
      "population": 1018,
      "latitude": "34.85411000",
      "longitude": "33.54746000",
      "timezone": "Asia/Nicosia",
      "wikiDataId": "Q7705213",
      "country_code": "CY",
      "state_code": "03",
      "state_id": 747,
      "country_id": 57
    },
    {
      "id": 22094,
      "name": "트루울로이",
      "name_default": "Troúlloi",
      "native": "Τρούλλοι",
      "type": "city",
      "level": null,
      "parent_id": null,
      "population": 1169,
      "latitude": "35.03203000",
      "longitude": "33.61501000",
      "timezone": "Asia/Nicosia",
      "wikiDataId": "Q7846552",
      "country_code": "CY",
      "state_code": "03",
      "state_id": 747,
      "country_id": 57
    },
    {
      "id": 22099,
      "name": "보로클리니",
      "name_default": "Voróklini",
      "native": "Βορόκλινη",
      "type": "city",
      "level": null,
      "parent_id": null,
      "population": null,
      "latitude": "34.98600000",
      "longitude": "33.65387000",
      "timezone": "Asia/Famagusta",
      "wikiDataId": "Q7103757",
      "country_code": "CY",
      "state_code": "03",
      "state_id": 747,
      "country_id": 57
    },
    {
      "id": 22100,
      "name": "크실로파구",
      "name_default": "Xylofágou",
      "native": "Ξυλοφάγου",
      "type": "city",
      "level": null,
      "parent_id": null,
      "population": 6231,
      "latitude": "34.97743000",
      "longitude": "33.84894000",
      "timezone": "Asia/Nicosia",
      "wikiDataId": "Q8045452",
      "country_code": "CY",
      "state_code": "03",
      "state_id": 747,
      "country_id": 57
    },
    {
      "id": 22101,
      "name": "자일로팀보",
      "name_default": "Xylotymbou",
      "native": "Ξυλοτύμπου",
      "type": "city",
      "level": null,
      "parent_id": null,
      "population": 3593,
      "latitude": "35.01720000",
      "longitude": "33.74245000",
      "timezone": "Asia/Nicosia",
      "wikiDataId": "Q81490",
      "country_code": "CY",
      "state_code": "03",
      "state_id": 747,
      "country_id": 57
    }
  ]
}
