{
  "locale": "hr",
  "country": {
    "id": 31,
    "code": "BR",
    "iso3": "BRA",
    "numeric_code": "076",
    "name": "Brazil",
    "name_default": "Brazil",
    "native": "Brasil",
    "capital": "Brasilia",
    "phonecode": "55",
    "currency": "BRL",
    "currency_name": "Brazilian real",
    "currency_symbol": "R$",
    "tld": ".br",
    "population": 213421037,
    "gdp": 2125958,
    "region": "Americas",
    "region_id": 2,
    "subregion": "South America",
    "subregion_id": 8,
    "nationality": "Brazilian",
    "timezones": [
      {
        "zoneName": "America/Araguaina",
        "gmtOffset": -10800,
        "gmtOffsetName": "UTC-03:00",
        "abbreviation": "BRT",
        "tzName": "Brasília Time"
      },
      {
        "zoneName": "America/Bahia",
        "gmtOffset": -10800,
        "gmtOffsetName": "UTC-03:00",
        "abbreviation": "BRT",
        "tzName": "Brasília Time"
      },
      {
        "zoneName": "America/Belem",
        "gmtOffset": -10800,
        "gmtOffsetName": "UTC-03:00",
        "abbreviation": "BRT",
        "tzName": "Brasília Time"
      },
      {
        "zoneName": "America/Boa_Vista",
        "gmtOffset": -14400,
        "gmtOffsetName": "UTC-04:00",
        "abbreviation": "AMT",
        "tzName": "Amazon Time (Brazil)[3"
      },
      {
        "zoneName": "America/Campo_Grande",
        "gmtOffset": -14400,
        "gmtOffsetName": "UTC-04:00",
        "abbreviation": "AMT",
        "tzName": "Amazon Time (Brazil)[3"
      },
      {
        "zoneName": "America/Cuiaba",
        "gmtOffset": -14400,
        "gmtOffsetName": "UTC-04:00",
        "abbreviation": "BRT",
        "tzName": "Brasilia Time"
      },
      {
        "zoneName": "America/Eirunepe",
        "gmtOffset": -18000,
        "gmtOffsetName": "UTC-05:00",
        "abbreviation": "ACT",
        "tzName": "Acre Time"
      },
      {
        "zoneName": "America/Fortaleza",
        "gmtOffset": -10800,
        "gmtOffsetName": "UTC-03:00",
        "abbreviation": "BRT",
        "tzName": "Brasília Time"
      },
      {
        "zoneName": "America/Maceio",
        "gmtOffset": -10800,
        "gmtOffsetName": "UTC-03:00",
        "abbreviation": "BRT",
        "tzName": "Brasília Time"
      },
      {
        "zoneName": "America/Manaus",
        "gmtOffset": -14400,
        "gmtOffsetName": "UTC-04:00",
        "abbreviation": "AMT",
        "tzName": "Amazon Time (Brazil)"
      },
      {
        "zoneName": "America/Noronha",
        "gmtOffset": -7200,
        "gmtOffsetName": "UTC-02:00",
        "abbreviation": "FNT",
        "tzName": "Fernando de Noronha Time"
      },
      {
        "zoneName": "America/Porto_Velho",
        "gmtOffset": -14400,
        "gmtOffsetName": "UTC-04:00",
        "abbreviation": "AMT",
        "tzName": "Amazon Time (Brazil)[3"
      },
      {
        "zoneName": "America/Recife",
        "gmtOffset": -10800,
        "gmtOffsetName": "UTC-03:00",
        "abbreviation": "BRT",
        "tzName": "Brasília Time"
      },
      {
        "zoneName": "America/Rio_Branco",
        "gmtOffset": -18000,
        "gmtOffsetName": "UTC-05:00",
        "abbreviation": "ACT",
        "tzName": "Acre Time"
      },
      {
        "zoneName": "America/Santarem",
        "gmtOffset": -10800,
        "gmtOffsetName": "UTC-03:00",
        "abbreviation": "BRT",
        "tzName": "Brasília Time"
      },
      {
        "zoneName": "America/Sao_Paulo",
        "gmtOffset": -10800,
        "gmtOffsetName": "UTC-03:00",
        "abbreviation": "BRT",
        "tzName": "Brasília Time"
      }
    ],
    "latitude": "-10.00000000",
    "longitude": "-55.00000000",
    "emoji": "🇧🇷",
    "emojiU": "U+1F1E7 U+1F1F7"
  },
  "state": {
    "id": 1998,
    "code": "MG",
    "iso2": "MG",
    "iso3166_2": "BR-MG",
    "fips_code": "15",
    "name": "Minas Gerais",
    "name_default": "Minas Gerais",
    "native": "Minas Gerais",
    "type": "state",
    "level": "1",
    "parent_id": null,
    "population": 21322691,
    "latitude": "-18.52648440",
    "longitude": "-44.15886540",
    "timezone": "America/Sao_Paulo",
    "wikiDataId": "Q39109",
    "country_code": "BR"
  },
  "cities": [
    {
      "id": 10054,
      "name": "Abadia dos Dourados",
      "name_default": "Abadia dos Dourados",
      "native": "Abadia dos Dourados",
      "type": "city",
      "level": null,
      "parent_id": null,
      "population": 6345,
      "latitude": "-18.36347000",
      "longitude": "-47.46997000",
      "timezone": "America/Sao_Paulo",
      "wikiDataId": "Q582223",
      "country_code": "BR",
      "state_code": "MG",
      "state_id": 1998,
      "country_id": 31
    },
    {
      "id": 10057,
      "name": "Abaeté",
      "name_default": "Abaeté",
      "native": "Abaeté",
      "type": "city",
      "level": null,
      "parent_id": null,
      "population": 23173,
      "latitude": "-19.11099000",
      "longitude": "-45.43051000",
      "timezone": "America/Sao_Paulo",
      "wikiDataId": "Q1615444",
      "country_code": "BR",
      "state_code": "MG",
      "state_id": 1998,
      "country_id": 31
    },
    {
      "id": 10065,
      "name": "Abre Campo",
      "name_default": "Abre Campo",
      "native": "Campo aberto",
      "type": "city",
      "level": null,
      "parent_id": null,
      "population": 14354,
      "latitude": "-20.27265000",
      "longitude": "-42.43908000",
      "timezone": "America/Sao_Paulo",
      "wikiDataId": "Q1749816",
      "country_code": "BR",
      "state_code": "MG",
      "state_id": 1998,
      "country_id": 31
    },
    {
      "id": 10068,
      "name": "Acaiaca",
      "name_default": "Acaiaca",
      "native": "Acaiaca",
      "type": "city",
      "level": null,
      "parent_id": null,
      "population": 3998,
      "latitude": "-20.40360000",
      "longitude": "-43.10077000",
      "timezone": "America/Sao_Paulo",
      "wikiDataId": "Q1784836",
      "country_code": "BR",
      "state_code": "MG",
      "state_id": 1998,
      "country_id": 31
    },
    {
      "id": 10465,
      "name": "Açucena",
      "name_default": "Açucena",
      "native": "Açucena",
      "type": "city",
      "level": null,
      "parent_id": null,
      "population": 8926,
      "latitude": "-19.07306000",
      "longitude": "-42.54639000",
      "timezone": "America/Sao_Paulo",
      "wikiDataId": "Q1791887",
      "country_code": "BR",
      "state_code": "MG",
      "state_id": 1998,
      "country_id": 31
    },
    {
      "id": 15650,
      "name": "Água Boa",
      "name_default": "Água Boa",
      "native": "Água Boa",
      "type": "adm2",
      "level": null,
      "parent_id": null,
      "population": 32099,
      "latitude": "-18.06423000",
      "longitude": "-42.23027000",
      "timezone": "America/Sao_Paulo",
      "wikiDataId": "Q1806488",
      "country_code": "BR",
      "state_code": "MG",
      "state_id": 1998,
      "country_id": 31
    },
    {
      "id": 15655,
      "name": "Água Comprida",
      "name_default": "Água Comprida",
      "native": "Água Comprida",
      "type": "city",
      "level": null,
      "parent_id": null,
      "population": 2171,
      "latitude": "-19.99124000",
      "longitude": "-48.11035000",
      "timezone": "America/Sao_Paulo",
      "wikiDataId": "Q1796727",
      "country_code": "BR",
      "state_code": "MG",
      "state_id": 1998,
      "country_id": 31
    },
    {
      "id": 10095,
      "name": "Aguanil",
      "name_default": "Aguanil",
      "native": "Aguanil",
      "type": "city",
      "level": null,
      "parent_id": null,
      "population": 4509,
      "latitude": "-20.96959000",
      "longitude": "-45.41717000",
      "timezone": "America/Sao_Paulo",
      "wikiDataId": "Q1754594",
      "country_code": "BR",
      "state_code": "MG",
      "state_id": 1998,
      "country_id": 31
    },
    {
      "id": 15666,
      "name": "Águas Formosas",
      "name_default": "Águas Formosas",
      "native": "Águas Formosas",
      "type": "city",
      "level": null,
      "parent_id": null,
      "population": 18850,
      "latitude": "-17.08222000",
      "longitude": "-40.93583000",
      "timezone": "America/Sao_Paulo",
      "wikiDataId": "Q1756605",
      "country_code": "BR",
      "state_code": "MG",
      "state_id": 1998,
      "country_id": 31
    },
    {
      "id": 15670,
      "name": "Águas Vermelhas",
      "name_default": "Águas Vermelhas",
      "native": "Águas Vermelhas",
      "type": "city",
      "level": null,
      "parent_id": null,
      "population": 14567,
      "latitude": "-15.74722000",
      "longitude": "-41.46000000",
      "timezone": "America/Sao_Paulo",
      "wikiDataId": "Q1756246",
      "country_code": "BR",
      "state_code": "MG",
      "state_id": 1998,
      "country_id": 31
    },
    {
      "id": 10102,
      "name": "Aimorés",
      "name_default": "Aimorés",
      "native": "Aimorés",
      "type": "city",
      "level": null,
      "parent_id": null,
      "population": 26212,
      "latitude": "-19.62552000",
      "longitude": "-41.20955000",
      "timezone": "America/Sao_Paulo",
      "wikiDataId": "Q1650790",
      "country_code": "BR",
      "state_code": "MG",
      "state_id": 1998,
      "country_id": 31
    },
    {
      "id": 10105,
      "name": "Aiuruoca",
      "name_default": "Aiuruoca",
      "native": "Aiuruoca",
      "type": "city",
      "level": null,
      "parent_id": null,
      "population": 6389,
      "latitude": "-21.94703000",
      "longitude": "-44.64779000",
      "timezone": "America/Sao_Paulo",
      "wikiDataId": "Q641440",
      "country_code": "BR",
      "state_code": "MG",
      "state_id": 1998,
      "country_id": 31
    },
    {
      "id": 10107,
      "name": "Alagoa",
      "name_default": "Alagoa",
      "native": "Alagoa",
      "type": "city",
      "level": null,
      "parent_id": null,
      "population": 2820,
      "latitude": "-22.18147000",
      "longitude": "-44.66024000",
      "timezone": "America/Sao_Paulo",
      "wikiDataId": "Q678420",
      "country_code": "BR",
      "state_code": "MG",
      "state_id": 1998,
      "country_id": 31
    },
    {
      "id": 10115,
      "name": "Albertina",
      "name_default": "Albertina",
      "native": "Albertina",
      "type": "city",
      "level": null,
      "parent_id": null,
      "population": 3027,
      "latitude": "-22.19908000",
      "longitude": "-46.62076000",
      "timezone": "America/Sao_Paulo",
      "wikiDataId": "Q986243",
      "country_code": "BR",
      "state_code": "MG",
      "state_id": 1998,
      "country_id": 31
    },
    {
      "id": 10201,
      "name": "Além Paraíba",
      "name_default": "Além Paraíba",
      "native": "Além Paraíba",
      "type": "city",
      "level": null,
      "parent_id": null,
      "population": 31159,
      "latitude": "-21.80936000",
      "longitude": "-42.75740000",
      "timezone": "America/Sao_Paulo",
      "wikiDataId": "Q1756032",
      "country_code": "BR",
      "state_code": "MG",
      "state_id": 1998,
      "country_id": 31
    },
    {
      "id": 10130,
      "name": "Alfenas",
      "name_default": "Alfenas",
      "native": "Alfenas",
      "type": "city",
      "level": null,
      "parent_id": null,
      "population": 82303,
      "latitude": "-21.39287000",
      "longitude": "-45.99521000",
      "timezone": "America/Sao_Paulo",
      "wikiDataId": "Q1755151",
      "country_code": "BR",
      "state_code": "MG",
      "state_id": 1998,
      "country_id": 31
    },
    {
      "id": 10133,
      "name": "Alfredo Vasconcelos",
      "name_default": "Alfredo Vasconcelos",
      "native": "Alfredo Vasconcelos",
      "type": "city",
      "level": null,
      "parent_id": null,
      "population": 7236,
      "latitude": "-21.14240000",
      "longitude": "-43.71114000",
      "timezone": "America/Sao_Paulo",
      "wikiDataId": "Q596538",
      "country_code": "BR",
      "state_code": "MG",
      "state_id": 1998,
      "country_id": 31
    },
    {
      "id": 10142,
      "name": "Almenara",
      "name_default": "Almenara",
      "native": "Baliza",
      "type": "city",
      "level": null,
      "parent_id": null,
      "population": 42019,
      "latitude": "-16.10053000",
      "longitude": "-40.71006000",
      "timezone": "America/Sao_Paulo",
      "wikiDataId": "Q979377",
      "country_code": "BR",
      "state_code": "MG",
      "state_id": 1998,
      "country_id": 31
    },
    {
      "id": 10147,
      "name": "Alpercata",
      "name_default": "Alpercata",
      "native": "Corredor",
      "type": "city",
      "level": null,
      "parent_id": null,
      "population": 7019,
      "latitude": "-18.98379000",
      "longitude": "-42.00135000",
      "timezone": "America/Sao_Paulo",
      "wikiDataId": "Q988880",
      "country_code": "BR",
      "state_code": "MG",
      "state_id": 1998,
      "country_id": 31
    },
    {
      "id": 10149,
      "name": "Alpinópolis",
      "name_default": "Alpinópolis",
      "native": "Alpinópolis",
      "type": "city",
      "level": null,
      "parent_id": null,
      "population": 18673,
      "latitude": "-20.81822000",
      "longitude": "-46.37937000",
      "timezone": "America/Sao_Paulo",
      "wikiDataId": "Q1757102",
      "country_code": "BR",
      "state_code": "MG",
      "state_id": 1998,
      "country_id": 31
    },
    {
      "id": 10157,
      "name": "Alterosa",
      "name_default": "Alterosa",
      "native": "Alterosa",
      "type": "city",
      "level": null,
      "parent_id": null,
      "population": 14272,
      "latitude": "-21.21904000",
      "longitude": "-46.18694000",
      "timezone": "America/Sao_Paulo",
      "wikiDataId": "Q1756931",
      "country_code": "BR",
      "state_code": "MG",
      "state_id": 1998,
      "country_id": 31
    },
    {
      "id": 10168,
      "name": "Alto Caparaó",
      "name_default": "Alto Caparaó",
      "native": "Alto Caparaó",
      "type": "adm2",
      "level": null,
      "parent_id": null,
      "population": 6014,
      "latitude": "-20.44669000",
      "longitude": "-41.87096000",
      "timezone": "America/Sao_Paulo",
      "wikiDataId": "Q118945",
      "country_code": "BR",
      "state_code": "MG",
      "state_id": 1998,
      "country_id": 31
    },
    {
      "id": 10172,
      "name": "Alto Jequitibá",
      "name_default": "Alto Jequitibá",
      "native": "Alto Jequitibá",
      "type": "adm2",
      "level": null,
      "parent_id": null,
      "population": 8606,
      "latitude": "-20.43703000",
      "longitude": "-41.95113000",
      "timezone": "America/Sao_Paulo",
      "wikiDataId": "Q443518",
      "country_code": "BR",
      "state_code": "MG",
      "state_id": 1998,
      "country_id": 31
    },
    {
      "id": 10181,
      "name": "Alto Rio Doce",
      "name_default": "Alto Rio Doce",
      "native": "Alto Rio Doce",
      "type": "city",
      "level": null,
      "parent_id": null,
      "population": 10931,
      "latitude": "-21.01929000",
      "longitude": "-43.40538000",
      "timezone": "America/Sao_Paulo",
      "wikiDataId": "Q1804740",
      "country_code": "BR",
      "state_code": "MG",
      "state_id": 1998,
      "country_id": 31
    },
    {
      "id": 10190,
      "name": "Alvarenga",
      "name_default": "Alvarenga",
      "native": "Alvarenga",
      "type": "city",
      "level": null,
      "parent_id": null,
      "population": 3983,
      "latitude": "-19.39870000",
      "longitude": "-41.68138000",
      "timezone": "America/Sao_Paulo",
      "wikiDataId": "Q22062812",
      "country_code": "BR",
      "state_code": "MG",
      "state_id": 1998,
      "country_id": 31
    },
    {
      "id": 10193,
      "name": "Alvinópolis",
      "name_default": "Alvinópolis",
      "native": "Alvinópolis",
      "type": "city",
      "level": null,
      "parent_id": null,
      "population": 15358,
      "latitude": "-20.12078000",
      "longitude": "-43.15399000",
      "timezone": "America/Sao_Paulo",
      "wikiDataId": "Q370048",
      "country_code": "BR",
      "state_code": "MG",
      "state_id": 1998,
      "country_id": 31
    },
    {
      "id": 10197,
      "name": "Alvorada de Minas",
      "name_default": "Alvorada de Minas",
      "native": "Alvorada de Minas",
      "type": "city",
      "level": null,
      "parent_id": null,
      "population": 4359,
      "latitude": "-18.79532000",
      "longitude": "-43.37002000",
      "timezone": "America/Sao_Paulo",
      "wikiDataId": "Q449593",
      "country_code": "BR",
      "state_code": "MG",
      "state_id": 1998,
      "country_id": 31
    },
    {
      "id": 10220,
      "name": "Amparo da Serra",
      "name_default": "Amparo da Serra",
      "native": "Amparo da Serra",
      "type": "city",
      "level": null,
      "parent_id": null,
      "population": 4541,
      "latitude": "-20.52383000",
      "longitude": "-42.79878000",
      "timezone": "America/Sao_Paulo",
      "wikiDataId": "Q2010915",
      "country_code": "BR",
      "state_code": "MG",
      "state_id": 1998,
      "country_id": 31
    },
    {
      "id": 10245,
      "name": "Andradas",
      "name_default": "Andradas",
      "native": "Andradas",
      "type": "city",
      "level": null,
      "parent_id": null,
      "population": 42501,
      "latitude": "-22.06984000",
      "longitude": "-46.57230000",
      "timezone": "America/Sao_Paulo",
      "wikiDataId": "Q1754887",
      "country_code": "BR",
      "state_code": "MG",
      "state_id": 1998,
      "country_id": 31
    },
    {
      "id": 10247,
      "name": "Andrelândia",
      "name_default": "Andrelândia",
      "native": "Andrelanda",
      "type": "city",
      "level": null,
      "parent_id": null,
      "population": 12163,
      "latitude": "-21.71132000",
      "longitude": "-44.27912000",
      "timezone": "America/Sao_Paulo",
      "wikiDataId": "Q503236",
      "country_code": "BR",
      "state_code": "MG",
      "state_id": 1998,
      "country_id": 31
    },
    {
      "id": 10252,
      "name": "Angelândia",
      "name_default": "Angelândia",
      "native": "Angelândia",
      "type": "adm2",
      "level": null,
      "parent_id": null,
      "population": 7849,
      "latitude": "-17.72394000",
      "longitude": "-42.26234000",
      "timezone": "America/Sao_Paulo",
      "wikiDataId": "Q1756210",
      "country_code": "BR",
      "state_code": "MG",
      "state_id": 1998,
      "country_id": 31
    },
    {
      "id": 10273,
      "name": "Antônio Carlos",
      "name_default": "Antônio Carlos",
      "native": "Antônio Carlos",
      "type": "city",
      "level": null,
      "parent_id": null,
      "population": 11350,
      "latitude": "-21.40838000",
      "longitude": "-43.76937000",
      "timezone": "America/Sao_Paulo",
      "wikiDataId": "Q22062805",
      "country_code": "BR",
      "state_code": "MG",
      "state_id": 1998,
      "country_id": 31
    },
    {
      "id": 10275,
      "name": "Antônio Dias",
      "name_default": "Antônio Dias",
      "native": "Antônio Dias",
      "type": "city",
      "level": null,
      "parent_id": null,
      "population": 9375,
      "latitude": "-19.56225000",
      "longitude": "-42.88855000",
      "timezone": "America/Sao_Paulo",
      "wikiDataId": "Q611911",
      "country_code": "BR",
      "state_code": "MG",
      "state_id": 1998,
      "country_id": 31
    },
    {
      "id": 10281,
      "name": "Antônio Prado de Minas",
      "name_default": "Antônio Prado de Minas",
      "native": "Antônio Prado de Minas",
      "type": "city",
      "level": null,
      "parent_id": null,
      "population": 1552,
      "latitude": "-21.02658000",
      "longitude": "-42.15497000",
      "timezone": "America/Sao_Paulo",
      "wikiDataId": "Q1791977",
      "country_code": "BR",
      "state_code": "MG",
      "state_id": 1998,
      "country_id": 31
    },
    {
      "id": 10369,
      "name": "Araçaí",
      "name_default": "Araçaí",
      "native": "Araçaí",
      "type": "city",
      "level": null,
      "parent_id": null,
      "population": 2222,
      "latitude": "-19.24200000",
      "longitude": "-44.22429000",
      "timezone": "America/Sao_Paulo",
      "wikiDataId": "Q626835",
      "country_code": "BR",
      "state_code": "MG",
      "state_id": 1998,
      "country_id": 31
    },
    {
      "id": 10312,
      "name": "Aracitaba",
      "name_default": "Aracitaba",
      "native": "Ele orou",
      "type": "city",
      "level": null,
      "parent_id": null,
      "population": 2095,
      "latitude": "-21.35243000",
      "longitude": "-43.40862000",
      "timezone": "America/Sao_Paulo",
      "wikiDataId": "Q22063188",
      "country_code": "BR",
      "state_code": "MG",
      "state_id": 1998,
      "country_id": 31
    },
    {
      "id": 10373,
      "name": "Araçuaí",
      "name_default": "Araçuaí",
      "native": "Araçuaí",
      "type": "city",
      "level": null,
      "parent_id": null,
      "population": 35185,
      "latitude": "-16.90822000",
      "longitude": "-41.98596000",
      "timezone": "America/Sao_Paulo",
      "wikiDataId": "Q1749750",
      "country_code": "BR",
      "state_code": "MG",
      "state_id": 1998,
      "country_id": 31
    },
    {
      "id": 10324,
      "name": "Araguari",
      "name_default": "Araguari",
      "native": "Araguari",
      "type": "city",
      "level": null,
      "parent_id": null,
      "population": 117808,
      "latitude": "-18.64722000",
      "longitude": "-48.18722000",
      "timezone": "America/Sao_Paulo",
      "wikiDataId": "Q1637522",
      "country_code": "BR",
      "state_code": "MG",
      "state_id": 1998,
      "country_id": 31
    },
    {
      "id": 10335,
      "name": "Arantina",
      "name_default": "Arantina",
      "native": "ANALIAÇÃO",
      "type": "city",
      "level": null,
      "parent_id": null,
      "population": 2998,
      "latitude": "-21.89632000",
      "longitude": "-44.22633000",
      "timezone": "America/Sao_Paulo",
      "wikiDataId": "Q1754457",
      "country_code": "BR",
      "state_code": "MG",
      "state_id": 1998,
      "country_id": 31
    },
    {
      "id": 10339,
      "name": "Araponga",
      "name_default": "Araponga",
      "native": "Araponga",
      "type": "city",
      "level": null,
      "parent_id": null,
      "population": 8218,
      "latitude": "-20.66607000",
      "longitude": "-42.51113000",
      "timezone": "America/Sao_Paulo",
      "wikiDataId": "Q1749824",
      "country_code": "BR",
      "state_code": "MG",
      "state_id": 1998,
      "country_id": 31
    },
    {
      "id": 10341,
      "name": "Araporã",
      "name_default": "Araporã",
      "native": "ARAPORT",
      "type": "city",
      "level": null,
      "parent_id": null,
      "population": 9069,
      "latitude": "-18.49061000",
      "longitude": "-49.13761000",
      "timezone": "America/Sao_Paulo",
      "wikiDataId": "Q1650073",
      "country_code": "BR",
      "state_code": "MG",
      "state_id": 1998,
      "country_id": 31
    },
    {
      "id": 10344,
      "name": "Arapuá",
      "name_default": "Arapuá",
      "native": "Arapuá",
      "type": "city",
      "level": null,
      "parent_id": null,
      "population": 3573,
      "latitude": "-19.03065000",
      "longitude": "-46.09585000",
      "timezone": "America/Sao_Paulo",
      "wikiDataId": "Q1650073",
      "country_code": "BR",
      "state_code": "MG",
      "state_id": 1998,
      "country_id": 31
    },
    {
      "id": 10375,
      "name": "Araújos",
      "name_default": "Araújos",
      "native": "Araújos",
      "type": "city",
      "level": null,
      "parent_id": null,
      "population": 9634,
      "latitude": "-19.87542000",
      "longitude": "-45.15682000",
      "timezone": "America/Sao_Paulo",
      "wikiDataId": "Q1749750",
      "country_code": "BR",
      "state_code": "MG",
      "state_id": 1998,
      "country_id": 31
    },
    {
      "id": 10365,
      "name": "Araxá",
      "name_default": "Araxá",
      "native": "Araxá",
      "type": "city",
      "level": null,
      "parent_id": null,
      "population": 111691,
      "latitude": "-19.59333000",
      "longitude": "-46.94056000",
      "timezone": "America/Sao_Paulo",
      "wikiDataId": "Q586057",
      "country_code": "BR",
      "state_code": "MG",
      "state_id": 1998,
      "country_id": 31
    },
    {
      "id": 10376,
      "name": "Arceburgo",
      "name_default": "Arceburgo",
      "native": "Arceburgo",
      "type": "city",
      "level": null,
      "parent_id": null,
      "population": 9335,
      "latitude": "-21.36655000",
      "longitude": "-46.94472000",
      "timezone": "America/Sao_Paulo",
      "wikiDataId": "Q1749750",
      "country_code": "BR",
      "state_code": "MG",
      "state_id": 1998,
      "country_id": 31
    },
    {
      "id": 10378,
      "name": "Arcos",
      "name_default": "Arcos",
      "native": "Arcos",
      "type": "city",
      "level": null,
      "parent_id": null,
      "population": 41416,
      "latitude": "-20.24351000",
      "longitude": "-45.56760000",
      "timezone": "America/Sao_Paulo",
      "wikiDataId": "Q22062794",
      "country_code": "BR",
      "state_code": "MG",
      "state_id": 1998,
      "country_id": 31
    },
    {
      "id": 10380,
      "name": "Areado",
      "name_default": "Areado",
      "native": "Areado",
      "type": "city",
      "level": null,
      "parent_id": null,
      "population": 14229,
      "latitude": "-21.33401000",
      "longitude": "-46.16798000",
      "timezone": "America/Sao_Paulo",
      "wikiDataId": "Q1756284",
      "country_code": "BR",
      "state_code": "MG",
      "state_id": 1998,
      "country_id": 31
    },
    {
      "id": 10392,
      "name": "Argirita",
      "name_default": "Argirita",
      "native": "Queixoso",
      "type": "city",
      "level": null,
      "parent_id": null,
      "population": 2715,
      "latitude": "-21.63912000",
      "longitude": "-42.82857000",
      "timezone": "America/Sao_Paulo",
      "wikiDataId": "Q1806305",
      "country_code": "BR",
      "state_code": "MG",
      "state_id": 1998,
      "country_id": 31
    },
    {
      "id": 10393,
      "name": "Aricanduva",
      "name_default": "Aricanduva",
      "native": "Aricanduva",
      "type": "city",
      "level": null,
      "parent_id": null,
      "population": 4820,
      "latitude": "-17.85789000",
      "longitude": "-42.59791000",
      "timezone": "America/Sao_Paulo",
      "wikiDataId": "Q1806305",
      "country_code": "BR",
      "state_code": "MG",
      "state_id": 1998,
      "country_id": 31
    },
    {
      "id": 10394,
      "name": "Arinos",
      "name_default": "Arinos",
      "native": "Arinos",
      "type": "city",
      "level": null,
      "parent_id": null,
      "population": 17586,
      "latitude": "-15.80332000",
      "longitude": "-45.94198000",
      "timezone": "America/Sao_Paulo",
      "wikiDataId": "Q617058",
      "country_code": "BR",
      "state_code": "MG",
      "state_id": 1998,
      "country_id": 31
    },
    {
      "id": 10432,
      "name": "Astolfo Dutra",
      "name_default": "Astolfo Dutra",
      "native": "Astolfo Dutra",
      "type": "city",
      "level": null,
      "parent_id": null,
      "population": 14633,
      "latitude": "-21.30413000",
      "longitude": "-42.88194000",
      "timezone": "America/Sao_Paulo",
      "wikiDataId": "Q1756260",
      "country_code": "BR",
      "state_code": "MG",
      "state_id": 1998,
      "country_id": 31
    },
    {
      "id": 10438,
      "name": "Ataléia",
      "name_default": "Ataléia",
      "native": "Ataléia",
      "type": "city",
      "level": null,
      "parent_id": null,
      "population": 13936,
      "latitude": "-18.18353000",
      "longitude": "-41.16721000",
      "timezone": "America/Sao_Paulo",
      "wikiDataId": "Q1815704",
      "country_code": "BR",
      "state_code": "MG",
      "state_id": 1998,
      "country_id": 31
    },
    {
      "id": 10446,
      "name": "Augusto de Lima",
      "name_default": "Augusto de Lima",
      "native": "Augusto de Lima",
      "type": "city",
      "level": null,
      "parent_id": null,
      "population": 4572,
      "latitude": "-18.10720000",
      "longitude": "-44.16792000",
      "timezone": "America/Sao_Paulo",
      "wikiDataId": "Q1804338",
      "country_code": "BR",
      "state_code": "MG",
      "state_id": 1998,
      "country_id": 31
    },
    {
      "id": 10472,
      "name": "Baependi",
      "name_default": "Baependi",
      "native": "Baependi",
      "type": "city",
      "level": null,
      "parent_id": null,
      "population": 18782,
      "latitude": "-21.97623000",
      "longitude": "-44.85558000",
      "timezone": "America/Sao_Paulo",
      "wikiDataId": "Q947342",
      "country_code": "BR",
      "state_code": "MG",
      "state_id": 1998,
      "country_id": 31
    },
    {
      "id": 10482,
      "name": "Baldim",
      "name_default": "Baldim",
      "native": "Baldim",
      "type": "city",
      "level": null,
      "parent_id": null,
      "population": 7595,
      "latitude": "-19.23659000",
      "longitude": "-43.84684000",
      "timezone": "America/Sao_Paulo",
      "wikiDataId": "Q804068",
      "country_code": "BR",
      "state_code": "MG",
      "state_id": 1998,
      "country_id": 31
    },
    {
      "id": 10493,
      "name": "Bambus",
      "name_default": "Bambuí",
      "native": "Bambuí",
      "type": "city",
      "level": null,
      "parent_id": null,
      "population": 24203,
      "latitude": "-20.10451000",
      "longitude": "-45.98743000",
      "timezone": "America/Sao_Paulo",
      "wikiDataId": "Q1756027",
      "country_code": "BR",
      "state_code": "MG",
      "state_id": 1998,
      "country_id": 31
    },
    {
      "id": 10497,
      "name": "Bandeira",
      "name_default": "Bandeira",
      "native": "Bandeira",
      "type": "city",
      "level": null,
      "parent_id": null,
      "population": 4811,
      "latitude": "-15.88042000",
      "longitude": "-40.59969000",
      "timezone": "America/Sao_Paulo",
      "wikiDataId": "Q1756019",
      "country_code": "BR",
      "state_code": "MG",
      "state_id": 1998,
      "country_id": 31
    },
    {
      "id": 10498,
      "name": "Bandeira do Sul",
      "name_default": "Bandeira do Sul",
      "native": "Bandeira do Sul",
      "type": "city",
      "level": null,
      "parent_id": null,
      "population": 6183,
      "latitude": "-21.72907000",
      "longitude": "-46.38283000",
      "timezone": "America/Sao_Paulo",
      "wikiDataId": "Q1756019",
      "country_code": "BR",
      "state_code": "MG",
      "state_id": 1998,
      "country_id": 31
    },
    {
      "id": 10572,
      "name": "Barão de Cocais",
      "name_default": "Barão de Cocais",
      "native": "Barão de Cocais",
      "type": "city",
      "level": null,
      "parent_id": null,
      "population": 32264,
      "latitude": "-19.87980000",
      "longitude": "-43.49476000",
      "timezone": "America/Sao_Paulo",
      "wikiDataId": "Q770910",
      "country_code": "BR",
      "state_code": "MG",
      "state_id": 1998,
      "country_id": 31
    },
    {
      "id": 10576,
      "name": "Barão de Monte Alto",
      "name_default": "Barão de Monte Alto",
      "native": "Barão de Monte Alto",
      "type": "city",
      "level": null,
      "parent_id": null,
      "population": 4952,
      "latitude": "-21.26536000",
      "longitude": "-42.27886000",
      "timezone": "America/Sao_Paulo",
      "wikiDataId": "Q1806364",
      "country_code": "BR",
      "state_code": "MG",
      "state_id": 1998,
      "country_id": 31
    },
    {
      "id": 10507,
      "name": "Barbacena",
      "name_default": "Barbacena",
      "native": "Barbacena",
      "type": "city",
      "level": null,
      "parent_id": null,
      "population": 129695,
      "latitude": "-21.25031000",
      "longitude": "-43.84171000",
      "timezone": "America/Sao_Paulo",
      "wikiDataId": "Q1970827",
      "country_code": "BR",
      "state_code": "MG",
      "state_id": 1998,
      "country_id": 31
    },
    {
      "id": 10519,
      "name": "Barra Longa",
      "name_default": "Barra Longa",
      "native": "Barra Longa",
      "type": "city",
      "level": null,
      "parent_id": null,
      "population": 5717,
      "latitude": "-20.27861000",
      "longitude": "-43.07170000",
      "timezone": "America/Sao_Paulo",
      "wikiDataId": "Q1815639",
      "country_code": "BR",
      "state_code": "MG",
      "state_id": 1998,
      "country_id": 31
    },
    {
      "id": 10555,
      "name": "Barreiro do Jaíba",
      "name_default": "Barreiro do Jaíba",
      "native": "Barreiro do Jaíba",
      "type": "city",
      "level": null,
      "parent_id": null,
      "population": 18167,
      "latitude": "-15.61532000",
      "longitude": "-43.59187000",
      "timezone": "America/Sao_Paulo",
      "wikiDataId": "Q22048258",
      "country_code": "BR",
      "state_code": "MG",
      "state_id": 1998,
      "country_id": 31
    },
    {
      "id": 10568,
      "name": "Barroso",
      "name_default": "Barroso",
      "native": "Barroso",
      "type": "city",
      "level": null,
      "parent_id": null,
      "population": 20604,
      "latitude": "-21.17886000",
      "longitude": "-43.95708000",
      "timezone": "America/Sao_Paulo",
      "wikiDataId": "Q1792962",
      "country_code": "BR",
      "state_code": "MG",
      "state_id": 1998,
      "country_id": 31
    },
    {
      "id": 10597,
      "name": "Bela Vista de Minas",
      "name_default": "Bela Vista de Minas",
      "native": "Bela Vista de Minas",
      "type": "city",
      "level": null,
      "parent_id": null,
      "population": 10427,
      "latitude": "-19.80136000",
      "longitude": "-43.10273000",
      "timezone": "America/Sao_Paulo",
      "wikiDataId": "Q815101",
      "country_code": "BR",
      "state_code": "MG",
      "state_id": 1998,
      "country_id": 31
    },
    {
      "id": 10603,
      "name": "Belmiro Braga",
      "name_default": "Belmiro Braga",
      "native": "Belmiro Braga",
      "type": "city",
      "level": null,
      "parent_id": null,
      "population": 3292,
      "latitude": "-21.96440000",
      "longitude": "-43.45933000",
      "timezone": "America/Sao_Paulo",
      "wikiDataId": "Q737636",
      "country_code": "BR",
      "state_code": "MG",
      "state_id": 1998,
      "country_id": 31
    },
    {
      "id": 10607,
      "name": "Belo Horizonte",
      "name_default": "Belo Horizonte",
      "native": "Belo Horizonte",
      "type": "adm1",
      "level": null,
      "parent_id": null,
      "population": 2721564,
      "latitude": "-19.92083000",
      "longitude": "-43.93778000",
      "timezone": "America/Sao_Paulo",
      "wikiDataId": "Q42800",
      "country_code": "BR",
      "state_code": "MG",
      "state_id": 1998,
      "country_id": 31
    },
    {
      "id": 10610,
      "name": "Belo Oriente",
      "name_default": "Belo Oriente",
      "native": "Belo Oriente",
      "type": "city",
      "level": null,
      "parent_id": null,
      "population": 24546,
      "latitude": "-19.25558000",
      "longitude": "-42.44289000",
      "timezone": "America/Sao_Paulo",
      "wikiDataId": "Q816123",
      "country_code": "BR",
      "state_code": "MG",
      "state_id": 1998,
      "country_id": 31
    },
    {
      "id": 10611,
      "name": "Belo Vale",
      "name_default": "Belo Vale",
      "native": "Belo Vale",
      "type": "city",
      "level": null,
      "parent_id": null,
      "population": 9012,
      "latitude": "-20.41584000",
      "longitude": "-44.06470000",
      "timezone": "America/Sao_Paulo",
      "wikiDataId": "Q816123",
      "country_code": "BR",
      "state_code": "MG",
      "state_id": 1998,
      "country_id": 31
    },
    {
      "id": 10632,
      "name": "Berilo",
      "name_default": "Berilo",
      "native": "Leitura",
      "type": "city",
      "level": null,
      "parent_id": null,
      "population": 9638,
      "latitude": "-16.86340000",
      "longitude": "-42.48889000",
      "timezone": "America/Sao_Paulo",
      "wikiDataId": "Q2068952",
      "country_code": "BR",
      "state_code": "MG",
      "state_id": 1998,
      "country_id": 31
    },
    {
      "id": 10633,
      "name": "Berizal",
      "name_default": "Berizal",
      "native": "Berizal",
      "type": "city",
      "level": null,
      "parent_id": null,
      "population": 4270,
      "latitude": "-15.67761000",
      "longitude": "-41.77137000",
      "timezone": "America/Sao_Paulo",
      "wikiDataId": "Q2068952",
      "country_code": "BR",
      "state_code": "MG",
      "state_id": 1998,
      "country_id": 31
    },
    {
      "id": 10640,
      "name": "Bertopolis",
      "name_default": "Bertópolis",
      "native": "Bertopol",
      "type": "city",
      "level": null,
      "parent_id": null,
      "population": 4546,
      "latitude": "-16.95442000",
      "longitude": "-40.56435000",
      "timezone": "America/Sao_Paulo",
      "wikiDataId": "Q828319",
      "country_code": "BR",
      "state_code": "MG",
      "state_id": 1998,
      "country_id": 31
    },
    {
      "id": 10642,
      "name": "Betim",
      "name_default": "Betim",
      "native": "Betim",
      "type": "city",
      "level": null,
      "parent_id": null,
      "population": 384000,
      "latitude": "-19.96778000",
      "longitude": "-44.19833000",
      "timezone": "America/Sao_Paulo",
      "wikiDataId": "Q737644",
      "country_code": "BR",
      "state_code": "MG",
      "state_id": 1998,
      "country_id": 31
    },
    {
      "id": 10646,
      "name": "Bias Fortes",
      "name_default": "Bias Fortes",
      "native": "Bias Fortes",
      "type": "city",
      "level": null,
      "parent_id": null,
      "population": 3367,
      "latitude": "-21.63008000",
      "longitude": "-43.75508000",
      "timezone": "America/Sao_Paulo",
      "wikiDataId": "Q2011830",
      "country_code": "BR",
      "state_code": "MG",
      "state_id": 1998,
      "country_id": 31
    },
    {
      "id": 10647,
      "name": "Bicas",
      "name_default": "Bicas",
      "native": "Bicas",
      "type": "city",
      "level": null,
      "parent_id": null,
      "population": 14358,
      "latitude": "-21.73237000",
      "longitude": "-43.10454000",
      "timezone": "America/Sao_Paulo",
      "wikiDataId": "Q1792282",
      "country_code": "BR",
      "state_code": "MG",
      "state_id": 1998,
      "country_id": 31
    },
    {
      "id": 10650,
      "name": "Biquinhas",
      "name_default": "Biquinhas",
      "native": "Biquinhas",
      "type": "city",
      "level": null,
      "parent_id": null,
      "population": 2397,
      "latitude": "-18.76231000",
      "longitude": "-45.54853000",
      "timezone": "America/Sao_Paulo",
      "wikiDataId": "Q1754582",
      "country_code": "BR",
      "state_code": "MG",
      "state_id": 1998,
      "country_id": 31
    },
    {
      "id": 10658,
      "name": "Boa Esperança",
      "name_default": "Boa Esperança",
      "native": "Boa Esperança",
      "type": "city",
      "level": null,
      "parent_id": null,
      "population": 39848,
      "latitude": "-21.08132000",
      "longitude": "-45.62433000",
      "timezone": "America/Sao_Paulo",
      "wikiDataId": "Q22062767",
      "country_code": "BR",
      "state_code": "MG",
      "state_id": 1998,
      "country_id": 31
    },
    {
      "id": 10681,
      "name": "Bocaina de Minas",
      "name_default": "Bocaina de Minas",
      "native": "Bocaina de Minas",
      "type": "city",
      "level": null,
      "parent_id": null,
      "population": 5530,
      "latitude": "-22.23436000",
      "longitude": "-44.49342000",
      "timezone": "America/Sao_Paulo",
      "wikiDataId": "Q1759088",
      "country_code": "BR",
      "state_code": "MG",
      "state_id": 1998,
      "country_id": 31
    },
    {
      "id": 10683,
      "name": "Bocaiúva",
      "name_default": "Bocaiúva",
      "native": "Bocaiúva",
      "type": "city",
      "level": null,
      "parent_id": null,
      "population": 49797,
      "latitude": "-17.38916000",
      "longitude": "-43.83571000",
      "timezone": "America/Sao_Paulo",
      "wikiDataId": "Q1756928",
      "country_code": "BR",
      "state_code": "MG",
      "state_id": 1998,
      "country_id": 31
    },
    {
      "id": 10691,
      "name": "Bom Despacho",
      "name_default": "Bom Despacho",
      "native": "Bom Despacho",
      "type": "city",
      "level": null,
      "parent_id": null,
      "population": 54377,
      "latitude": "-19.69145000",
      "longitude": "-45.25297000",
      "timezone": "America/Sao_Paulo",
      "wikiDataId": "Q891713",
      "country_code": "BR",
      "state_code": "MG",
      "state_id": 1998,
      "country_id": 31
    },
    {
      "id": 10697,
      "name": "Bom Jardim de Minas",
      "name_default": "Bom Jardim de Minas",
      "native": "Bom Jardim de Minas",
      "type": "city",
      "level": null,
      "parent_id": null,
      "population": 6988,
      "latitude": "-21.94390000",
      "longitude": "-44.12193000",
      "timezone": "America/Sao_Paulo",
      "wikiDataId": "Q2279959",
      "country_code": "BR",
      "state_code": "MG",
      "state_id": 1998,
      "country_id": 31
    },
    {
      "id": 10704,
      "name": "Bom Jesus da Penha",
      "name_default": "Bom Jesus da Penha",
      "native": "Bom Jesus da Penha",
      "type": "city",
      "level": null,
      "parent_id": null,
      "population": 4677,
      "latitude": "-20.99902000",
      "longitude": "-46.54769000",
      "timezone": "America/Sao_Paulo",
      "wikiDataId": "Q891727",
      "country_code": "BR",
      "state_code": "MG",
      "state_id": 1998,
      "country_id": 31
    },
    {
      "id": 10708,
      "name": "Bom Jesus do Amparo",
      "name_default": "Bom Jesus do Amparo",
      "native": "Bom Jesus do Amparo",
      "type": "city",
      "level": null,
      "parent_id": null,
      "population": 5786,
      "latitude": "-19.71668000",
      "longitude": "-43.46840000",
      "timezone": "America/Sao_Paulo",
      "wikiDataId": "Q891727",
      "country_code": "BR",
      "state_code": "MG",
      "state_id": 1998,
      "country_id": 31
    },
    {
      "id": 10710,
      "name": "Bom Jesus do Galho",
      "name_default": "Bom Jesus do Galho",
      "native": "Bom Jesus do Galho",
      "type": "city",
      "level": null,
      "parent_id": null,
      "population": 14719,
      "latitude": "-19.71687000",
      "longitude": "-42.37558000",
      "timezone": "America/Sao_Paulo",
      "wikiDataId": "Q891733",
      "country_code": "BR",
      "state_code": "MG",
      "state_id": 1998,
      "country_id": 31
    },
    {
      "id": 10722,
      "name": "Bom Repouso",
      "name_default": "Bom Repouso",
      "native": "Bom Repouso",
      "type": "city",
      "level": null,
      "parent_id": null,
      "population": 13312,
      "latitude": "-22.44963000",
      "longitude": "-46.18632000",
      "timezone": "America/Sao_Paulo",
      "wikiDataId": "Q1648506",
      "country_code": "BR",
      "state_code": "MG",
      "state_id": 1998,
      "country_id": 31
    },
    {
      "id": 10726,
      "name": "Dobar uspjeh",
      "name_default": "Bom Sucesso",
      "native": "Bom Sucesso",
      "type": "city",
      "level": null,
      "parent_id": null,
      "population": 6674,
      "latitude": "-21.03029000",
      "longitude": "-44.79501000",
      "timezone": "America/Sao_Paulo",
      "wikiDataId": "Q1805732",
      "country_code": "BR",
      "state_code": "MG",
      "state_id": 1998,
      "country_id": 31
    },
    {
      "id": 10731,
      "name": "Bonfim",
      "name_default": "Bonfim",
      "native": "Bonfim",
      "type": "city",
      "level": null,
      "parent_id": null,
      "population": 7710,
      "latitude": "-20.31591000",
      "longitude": "-44.20740000",
      "timezone": "America/Sao_Paulo",
      "wikiDataId": "Q22062759",
      "country_code": "BR",
      "state_code": "MG",
      "state_id": 1998,
      "country_id": 31
    },
    {
      "id": 10734,
      "name": "Bonfinópolis de Minas",
      "name_default": "Bonfinópolis de Minas",
      "native": "Bonfinópolis de Minas",
      "type": "city",
      "level": null,
      "parent_id": null,
      "population": 5600,
      "latitude": "-16.54416000",
      "longitude": "-46.13266000",
      "timezone": "America/Sao_Paulo",
      "wikiDataId": "Q2089257",
      "country_code": "BR",
      "state_code": "MG",
      "state_id": 1998,
      "country_id": 31
    },
    {
      "id": 10740,
      "name": "Bonito de Minas",
      "name_default": "Bonito de Minas",
      "native": "Boas minas",
      "type": "city",
      "level": null,
      "parent_id": null,
      "population": 10525,
      "latitude": "-14.91015000",
      "longitude": "-44.88471000",
      "timezone": "America/Sao_Paulo",
      "wikiDataId": "Q1808128",
      "country_code": "BR",
      "state_code": "MG",
      "state_id": 1998,
      "country_id": 31
    },
    {
      "id": 10752,
      "name": "Borda da Mata",
      "name_default": "Borda da Mata",
      "native": "Borda da Mata",
      "type": "city",
      "level": null,
      "parent_id": null,
      "population": 17837,
      "latitude": "-22.25106000",
      "longitude": "-46.16707000",
      "timezone": "America/Sao_Paulo",
      "wikiDataId": "Q1792820",
      "country_code": "BR",
      "state_code": "MG",
      "state_id": 1998,
      "country_id": 31
    },
    {
      "id": 10757,
      "name": "Botelhosi",
      "name_default": "Botelhos",
      "native": "Botelhos",
      "type": "city",
      "level": null,
      "parent_id": null,
      "population": 15141,
      "latitude": "-21.64903000",
      "longitude": "-46.42831000",
      "timezone": "America/Sao_Paulo",
      "wikiDataId": "Q1756413",
      "country_code": "BR",
      "state_code": "MG",
      "state_id": 1998,
      "country_id": 31
    },
    {
      "id": 10759,
      "name": "Botumirim",
      "name_default": "Botumirim",
      "native": "Botumim",
      "type": "city",
      "level": null,
      "parent_id": null,
      "population": 5806,
      "latitude": "-16.90950000",
      "longitude": "-43.00848000",
      "timezone": "America/Sao_Paulo",
      "wikiDataId": "Q1625598",
      "country_code": "BR",
      "state_code": "MG",
      "state_id": 1998,
      "country_id": 31
    },
    {
      "id": 10813,
      "name": "Brás Pires",
      "name_default": "Brás Pires",
      "native": "Brás Pires",
      "type": "city",
      "level": null,
      "parent_id": null,
      "population": 4296,
      "latitude": "-20.87837000",
      "longitude": "-43.22442000",
      "timezone": "America/Sao_Paulo",
      "wikiDataId": "Q329488",
      "country_code": "BR",
      "state_code": "MG",
      "state_id": 1998,
      "country_id": 31
    },
    {
      "id": 10771,
      "name": "Brazilija de Minas",
      "name_default": "Brasilândia de Minas",
      "native": "Brasilândia de Minas",
      "type": "adm2",
      "level": null,
      "parent_id": null,
      "population": 15485,
      "latitude": "-16.93061000",
      "longitude": "-45.96385000",
      "timezone": "America/Sao_Paulo",
      "wikiDataId": "Q2329749",
      "country_code": "BR",
      "state_code": "MG",
      "state_id": 1998,
      "country_id": 31
    },
    {
      "id": 10777,
      "name": "Brasília de Minas",
      "name_default": "Brasília de Minas",
      "native": "Brasília de Minas",
      "type": "city",
      "level": null,
      "parent_id": null,
      "population": 32025,
      "latitude": "-16.25246000",
      "longitude": "-44.45712000",
      "timezone": "America/Sao_Paulo",
      "wikiDataId": "Q22062752",
      "country_code": "BR",
      "state_code": "MG",
      "state_id": 1998,
      "country_id": 31
    },
    {
      "id": 10783,
      "name": "Braúnas",
      "name_default": "Braúnas",
      "native": "Cantão",
      "type": "city",
      "level": null,
      "parent_id": null,
      "population": 4445,
      "latitude": "-19.02181000",
      "longitude": "-42.71399000",
      "timezone": "America/Sao_Paulo",
      "wikiDataId": "Q903373",
      "country_code": "BR",
      "state_code": "MG",
      "state_id": 1998,
      "country_id": 31
    },
    {
      "id": 10779,
      "name": "Brazópolis",
      "name_default": "Brazópolis",
      "native": "Brazópolis",
      "type": "city",
      "level": null,
      "parent_id": null,
      "population": null,
      "latitude": "-22.48169000",
      "longitude": "-45.62802000",
      "timezone": "America/Sao_Paulo",
      "wikiDataId": "Q22062752",
      "country_code": "BR",
      "state_code": "MG",
      "state_id": 1998,
      "country_id": 31
    },
    {
      "id": 10809,
      "name": "Brumadinho",
      "name_default": "Brumadinho",
      "native": "Brumadinho",
      "type": "city",
      "level": null,
      "parent_id": null,
      "population": 41090,
      "latitude": "-20.20447000",
      "longitude": "-44.15388000",
      "timezone": "America/Sao_Paulo",
      "wikiDataId": "Q1751212",
      "country_code": "BR",
      "state_code": "MG",
      "state_id": 1998,
      "country_id": 31
    },
    {
      "id": 10814,
      "name": "Bueno Brandão",
      "name_default": "Bueno Brandão",
      "native": "Bueno Brandão",
      "type": "city",
      "level": null,
      "parent_id": null,
      "population": 11168,
      "latitude": "-22.50459000",
      "longitude": "-46.35271000",
      "timezone": "America/Sao_Paulo",
      "wikiDataId": "Q1792008",
      "country_code": "BR",
      "state_code": "MG",
      "state_id": 1998,
      "country_id": 31
    },
    {
      "id": 10816,
      "name": "Buenópolis",
      "name_default": "Buenópolis",
      "native": "Goodópolis",
      "type": "city",
      "level": null,
      "parent_id": null,
      "population": 9171,
      "latitude": "-17.87455000",
      "longitude": "-44.02374000",
      "timezone": "America/Sao_Paulo",
      "wikiDataId": "Q2101554",
      "country_code": "BR",
      "state_code": "MG",
      "state_id": 1998,
      "country_id": 31
    },
    {
      "id": 10818,
      "name": "Bugre",
      "name_default": "Bugre",
      "native": "Bugre",
      "type": "city",
      "level": null,
      "parent_id": null,
      "population": 4159,
      "latitude": "-19.36701000",
      "longitude": "-42.30815000",
      "timezone": "America/Sao_Paulo",
      "wikiDataId": "Q1793226",
      "country_code": "BR",
      "state_code": "MG",
      "state_id": 1998,
      "country_id": 31
    },
    {
      "id": 10835,
      "name": "Buritis",
      "name_default": "Buritis",
      "native": "Buritis",
      "type": "city",
      "level": null,
      "parent_id": null,
      "population": 24779,
      "latitude": "-15.41389000",
      "longitude": "-46.55470000",
      "timezone": "America/Sao_Paulo",
      "wikiDataId": "Q1792148",
      "country_code": "BR",
      "state_code": "MG",
      "state_id": 1998,
      "country_id": 31
    },
    {
      "id": 10837,
      "name": "Buritizeiro",
      "name_default": "Buritizeiro",
      "native": "Buritizeiro",
      "type": "city",
      "level": null,
      "parent_id": null,
      "population": 23908,
      "latitude": "-17.40582000",
      "longitude": "-45.30446000",
      "timezone": "America/Sao_Paulo",
      "wikiDataId": "Q1792028",
      "country_code": "BR",
      "state_code": "MG",
      "state_id": 1998,
      "country_id": 31
    },
    {
      "id": 10847,
      "name": "Cabeceira Grande",
      "name_default": "Cabeceira Grande",
      "native": "Cabeceira Grande",
      "type": "city",
      "level": null,
      "parent_id": null,
      "population": 6811,
      "latitude": "-16.06178000",
      "longitude": "-47.17573000",
      "timezone": "America/Sao_Paulo",
      "wikiDataId": "Q279492",
      "country_code": "BR",
      "state_code": "MG",
      "state_id": 1998,
      "country_id": 31
    },
    {
      "id": 10854,
      "name": "Zelenortski Otoci",
      "name_default": "Cabo Verde",
      "native": "Cabo Verde",
      "type": "city",
      "level": null,
      "parent_id": null,
      "population": 11269,
      "latitude": "-21.48702000",
      "longitude": "-46.37999000",
      "timezone": "America/Sao_Paulo",
      "wikiDataId": "Q22062741",
      "country_code": "BR",
      "state_code": "MG",
      "state_id": 1998,
      "country_id": 31
    },
    {
      "id": 10867,
      "name": "Cachoeira da Prata",
      "name_default": "Cachoeira da Prata",
      "native": "Cachoeira da Prata",
      "type": "adm2",
      "level": null,
      "parent_id": null,
      "population": 3785,
      "latitude": "-19.51865000",
      "longitude": "-44.46250000",
      "timezone": "America/Sao_Paulo",
      "wikiDataId": "Q1760112",
      "country_code": "BR",
      "state_code": "MG",
      "state_id": 1998,
      "country_id": 31
    },
    {
      "id": 10869,
      "name": "Cachoeira de Minas",
      "name_default": "Cachoeira de Minas",
      "native": "Cachoeira de Minas",
      "type": "city",
      "level": null,
      "parent_id": null,
      "population": 12302,
      "latitude": "-22.35563000",
      "longitude": "-45.79447000",
      "timezone": "America/Sao_Paulo",
      "wikiDataId": "Q1760112",
      "country_code": "BR",
      "state_code": "MG",
      "state_id": 1998,
      "country_id": 31
    },
    {
      "id": 10870,
      "name": "Cachoeira de Pajeú",
      "name_default": "Cachoeira de Pajeú",
      "native": "Cachoeira de Pajeú",
      "type": "adm2",
      "level": null,
      "parent_id": null,
      "population": 9347,
      "latitude": "-15.97163000",
      "longitude": "-41.49303000",
      "timezone": "America/Sao_Paulo",
      "wikiDataId": "Q1760112",
      "country_code": "BR",
      "state_code": "MG",
      "state_id": 1998,
      "country_id": 31
    },
    {
      "id": 10863,
      "name": "Cachoeira Dourada",
      "name_default": "Cachoeira Dourada",
      "native": "Cachoeira Dourada",
      "type": "city",
      "level": null,
      "parent_id": null,
      "population": 2337,
      "latitude": "-18.59094000",
      "longitude": "-49.47013000",
      "timezone": "America/Sao_Paulo",
      "wikiDataId": "Q22062738",
      "country_code": "BR",
      "state_code": "MG",
      "state_id": 1998,
      "country_id": 31
    },
    {
      "id": 10889,
      "name": "Caetanópolis",
      "name_default": "Caetanópolis",
      "native": "Caetanópolis",
      "type": "city",
      "level": null,
      "parent_id": null,
      "population": 11906,
      "latitude": "-19.33473000",
      "longitude": "-44.41002000",
      "timezone": "America/Sao_Paulo",
      "wikiDataId": "Q1792016",
      "country_code": "BR",
      "state_code": "MG",
      "state_id": 1998,
      "country_id": 31
    },
    {
      "id": 10891,
      "name": "Caeté",
      "name_default": "Caeté",
      "native": "Caeté",
      "type": "city",
      "level": null,
      "parent_id": null,
      "population": 39775,
      "latitude": "-19.87017000",
      "longitude": "-43.65060000",
      "timezone": "America/Sao_Paulo",
      "wikiDataId": "Q1755373",
      "country_code": "BR",
      "state_code": "MG",
      "state_id": 1998,
      "country_id": 31
    },
    {
      "id": 10899,
      "name": "Caiana",
      "name_default": "Caiana",
      "native": "Caiana",
      "type": "city",
      "level": null,
      "parent_id": null,
      "population": 5484,
      "latitude": "-20.73080000",
      "longitude": "-41.90016000",
      "timezone": "America/Sao_Paulo",
      "wikiDataId": "Q2040790",
      "country_code": "BR",
      "state_code": "MG",
      "state_id": 1998,
      "country_id": 31
    },
    {
      "id": 10921,
      "name": "Cajuri",
      "name_default": "Cajuri",
      "native": "Cajuri",
      "type": "city",
      "level": null,
      "parent_id": null,
      "population": 4191,
      "latitude": "-20.78744000",
      "longitude": "-42.76259000",
      "timezone": "America/Sao_Paulo",
      "wikiDataId": "Q22023546",
      "country_code": "BR",
      "state_code": "MG",
      "state_id": 1998,
      "country_id": 31
    },
    {
      "id": 10923,
      "name": "Caldas",
      "name_default": "Caldas",
      "native": "Caldas",
      "type": "city",
      "level": null,
      "parent_id": null,
      "population": 14628,
      "latitude": "-21.88671000",
      "longitude": "-46.35924000",
      "timezone": "America/Sao_Paulo",
      "wikiDataId": "Q22062733",
      "country_code": "BR",
      "state_code": "MG",
      "state_id": 1998,
      "country_id": 31
    },
    {
      "id": 10935,
      "name": "Camacho",
      "name_default": "Camacho",
      "native": "Camacho",
      "type": "city",
      "level": null,
      "parent_id": null,
      "population": 2851,
      "latitude": "-20.64216000",
      "longitude": "-45.14334000",
      "timezone": "America/Sao_Paulo",
      "wikiDataId": "Q1756303",
      "country_code": "BR",
      "state_code": "MG",
      "state_id": 1998,
      "country_id": 31
    },
    {
      "id": 10938,
      "name": "Camanducaia",
      "name_default": "Camanducaia",
      "native": "Camanducaia",
      "type": "city",
      "level": null,
      "parent_id": null,
      "population": 26097,
      "latitude": "-22.75528000",
      "longitude": "-46.14472000",
      "timezone": "America/Sao_Paulo",
      "wikiDataId": "Q1754774",
      "country_code": "BR",
      "state_code": "MG",
      "state_id": 1998,
      "country_id": 31
    },
    {
      "id": 10950,
      "name": "Cambuí",
      "name_default": "Cambuí",
      "native": "Cambuí",
      "type": "city",
      "level": null,
      "parent_id": null,
      "population": 31066,
      "latitude": "-22.58243000",
      "longitude": "-46.06121000",
      "timezone": "America/Sao_Paulo",
      "wikiDataId": "Q1756818",
      "country_code": "BR",
      "state_code": "MG",
      "state_id": 1998,
      "country_id": 31
    },
    {
      "id": 10949,
      "name": "Cambuquira",
      "name_default": "Cambuquira",
      "native": "Cambuquira",
      "type": "city",
      "level": null,
      "parent_id": null,
      "population": 12551,
      "latitude": "-21.85379000",
      "longitude": "-45.27170000",
      "timezone": "America/Sao_Paulo",
      "wikiDataId": "Q1754942",
      "country_code": "BR",
      "state_code": "MG",
      "state_id": 1998,
      "country_id": 31
    },
    {
      "id": 10956,
      "name": "Campanário",
      "name_default": "Campanário",
      "native": "Campanário",
      "type": "city",
      "level": null,
      "parent_id": null,
      "population": 2884,
      "latitude": "-18.27490000",
      "longitude": "-41.73907000",
      "timezone": "America/Sao_Paulo",
      "wikiDataId": "Q22062728",
      "country_code": "BR",
      "state_code": "MG",
      "state_id": 1998,
      "country_id": 31
    },
    {
      "id": 10955,
      "name": "Kampanha",
      "name_default": "Campanha",
      "native": "Campanha",
      "type": "city",
      "level": null,
      "parent_id": null,
      "population": 16372,
      "latitude": "-21.81412000",
      "longitude": "-45.39753000",
      "timezone": "America/Sao_Paulo",
      "wikiDataId": "Q1780173",
      "country_code": "BR",
      "state_code": "MG",
      "state_id": 1998,
      "country_id": 31
    },
    {
      "id": 10958,
      "name": "Kampestre",
      "name_default": "Campestre",
      "native": "Campestre",
      "type": "city",
      "level": null,
      "parent_id": null,
      "population": 6808,
      "latitude": "-21.73436000",
      "longitude": "-46.22571000",
      "timezone": "America/Sao_Paulo",
      "wikiDataId": "Q22062719",
      "country_code": "BR",
      "state_code": "MG",
      "state_id": 1998,
      "country_id": 31
    },
    {
      "id": 10964,
      "name": "Campina Verde",
      "name_default": "Campina Verde",
      "native": "Campina Verde",
      "type": "city",
      "level": null,
      "parent_id": null,
      "population": 18188,
      "latitude": "-19.46113000",
      "longitude": "-49.73967000",
      "timezone": "America/Sao_Paulo",
      "wikiDataId": "Q1756064",
      "country_code": "BR",
      "state_code": "MG",
      "state_id": 1998,
      "country_id": 31
    },
    {
      "id": 10981,
      "name": "Plavi kamp",
      "name_default": "Campo Azul",
      "native": "Campo azul",
      "type": "city",
      "level": null,
      "parent_id": null,
      "population": 3806,
      "latitude": "-16.52161000",
      "longitude": "-44.80679000",
      "timezone": "America/Sao_Paulo",
      "wikiDataId": "Q1792812",
      "country_code": "BR",
      "state_code": "MG",
      "state_id": 1998,
      "country_id": 31
    },
    {
      "id": 10982,
      "name": "Campo Belo",
      "name_default": "Campo Belo",
      "native": "Campo Belo",
      "type": "city",
      "level": null,
      "parent_id": null,
      "population": 52277,
      "latitude": "-20.89722000",
      "longitude": "-45.27722000",
      "timezone": "America/Sao_Paulo",
      "wikiDataId": "Q595804",
      "country_code": "BR",
      "state_code": "MG",
      "state_id": 1998,
      "country_id": 31
    },
    {
      "id": 11006,
      "name": "Campo do Meio",
      "name_default": "Campo do Meio",
      "native": "Campo do Meio",
      "type": "city",
      "level": null,
      "parent_id": null,
      "population": 11625,
      "latitude": "-21.12604000",
      "longitude": "-45.79572000",
      "timezone": "America/Sao_Paulo",
      "wikiDataId": "Q1801972",
      "country_code": "BR",
      "state_code": "MG",
      "state_id": 1998,
      "country_id": 31
    },
    {
      "id": 10987,
      "name": "Campo Florido",
      "name_default": "Campo Florido",
      "native": "Campo Florido",
      "type": "city",
      "level": null,
      "parent_id": null,
      "population": 8931,
      "latitude": "-19.69262000",
      "longitude": "-48.65664000",
      "timezone": "America/Sao_Paulo",
      "wikiDataId": "Q1757768",
      "country_code": "BR",
      "state_code": "MG",
      "state_id": 1998,
      "country_id": 31
    },
    {
      "id": 11008,
      "name": "Campos Altos",
      "name_default": "Campos Altos",
      "native": "Campos Altos",
      "type": "city",
      "level": null,
      "parent_id": null,
      "population": 13076,
      "latitude": "-19.63694000",
      "longitude": "-46.19815000",
      "timezone": "America/Sao_Paulo",
      "wikiDataId": "Q585412",
      "country_code": "BR",
      "state_code": "MG",
      "state_id": 1998,
      "country_id": 31
    },
    {
      "id": 11011,
      "name": "Campos Gerais",
      "name_default": "Campos Gerais",
      "native": "Campos Gerais",
      "type": "city",
      "level": null,
      "parent_id": null,
      "population": 26105,
      "latitude": "-21.23500000",
      "longitude": "-45.75861000",
      "timezone": "America/Sao_Paulo",
      "wikiDataId": "Q1791960",
      "country_code": "BR",
      "state_code": "MG",
      "state_id": 1998,
      "country_id": 31
    },
    {
      "id": 11021,
      "name": "Kanada Verde",
      "name_default": "Cana Verde",
      "native": "Cana Verde",
      "type": "city",
      "level": null,
      "parent_id": null,
      "population": 5342,
      "latitude": "-21.02062000",
      "longitude": "-45.18335000",
      "timezone": "America/Sao_Paulo",
      "wikiDataId": "Q22047120",
      "country_code": "BR",
      "state_code": "MG",
      "state_id": 1998,
      "country_id": 31
    },
    {
      "id": 11030,
      "name": "Canaã",
      "name_default": "Canaã",
      "native": "Canaã",
      "type": "city",
      "level": null,
      "parent_id": null,
      "population": 4839,
      "latitude": "-20.66128000",
      "longitude": "-42.63787000",
      "timezone": "America/Sao_Paulo",
      "wikiDataId": "Q610966",
      "country_code": "BR",
      "state_code": "MG",
      "state_id": 1998,
      "country_id": 31
    },
    {
      "id": 11061,
      "name": "Canapolis",
      "name_default": "Canápolis",
      "native": "Canápolis",
      "type": "city",
      "level": null,
      "parent_id": null,
      "population": 10716,
      "latitude": "-18.77777000",
      "longitude": "-49.27579000",
      "timezone": "America/Sao_Paulo",
      "wikiDataId": "Q22062710",
      "country_code": "BR",
      "state_code": "MG",
      "state_id": 1998,
      "country_id": 31
    },
    {
      "id": 11034,
      "name": "Candeias",
      "name_default": "Candeias",
      "native": "Candeias",
      "type": "city",
      "level": null,
      "parent_id": null,
      "population": 14211,
      "latitude": "-20.73894000",
      "longitude": "-45.28719000",
      "timezone": "America/Sao_Paulo",
      "wikiDataId": "Q1906206",
      "country_code": "BR",
      "state_code": "MG",
      "state_id": 1998,
      "country_id": 31
    },
    {
      "id": 11053,
      "name": "Cantagalo",
      "name_default": "Cantagalo",
      "native": "Cantagalo",
      "type": "city",
      "level": null,
      "parent_id": null,
      "population": 4029,
      "latitude": "-18.51033000",
      "longitude": "-42.64980000",
      "timezone": "America/Sao_Paulo",
      "wikiDataId": "Q22062707",
      "country_code": "BR",
      "state_code": "MG",
      "state_id": 1998,
      "country_id": 31
    },
    {
      "id": 11064,
      "name": "Caparaó",
      "name_default": "Caparaó",
      "native": "Caparaó",
      "type": "city",
      "level": null,
      "parent_id": null,
      "population": 5138,
      "latitude": "-20.52613000",
      "longitude": "-41.90220000",
      "timezone": "America/Sao_Paulo",
      "wikiDataId": "Q742409",
      "country_code": "BR",
      "state_code": "MG",
      "state_id": 1998,
      "country_id": 31
    },
    {
      "id": 11067,
      "name": "Capela Nova",
      "name_default": "Capela Nova",
      "native": "Capela Nova",
      "type": "city",
      "level": null,
      "parent_id": null,
      "population": 4397,
      "latitude": "-20.91843000",
      "longitude": "-43.61587000",
      "timezone": "America/Sao_Paulo",
      "wikiDataId": "Q1955261",
      "country_code": "BR",
      "state_code": "MG",
      "state_id": 1998,
      "country_id": 31
    },
    {
      "id": 11071,
      "name": "Capelinha",
      "name_default": "Capelinha",
      "native": "Capelinha",
      "type": "city",
      "level": null,
      "parent_id": null,
      "population": 41858,
      "latitude": "-17.69167000",
      "longitude": "-42.50214000",
      "timezone": "America/Sao_Paulo",
      "wikiDataId": "Q1756225",
      "country_code": "BR",
      "state_code": "MG",
      "state_id": 1998,
      "country_id": 31
    },
    {
      "id": 11072,
      "name": "Capetinga",
      "name_default": "Capetinga",
      "native": "Capetinga",
      "type": "city",
      "level": null,
      "parent_id": null,
      "population": 6627,
      "latitude": "-20.65301000",
      "longitude": "-47.01826000",
      "timezone": "America/Sao_Paulo",
      "wikiDataId": "Q1756225",
      "country_code": "BR",
      "state_code": "MG",
      "state_id": 1998,
      "country_id": 31
    },
    {
      "id": 11074,
      "name": "Capim Branco",
      "name_default": "Capim Branco",
      "native": "Capim Branco",
      "type": "city",
      "level": null,
      "parent_id": null,
      "population": 11210,
      "latitude": "-19.57826000",
      "longitude": "-44.16662000",
      "timezone": "America/Sao_Paulo",
      "wikiDataId": "Q1792057",
      "country_code": "BR",
      "state_code": "MG",
      "state_id": 1998,
      "country_id": 31
    },
    {
      "id": 11078,
      "name": "Capinópolis",
      "name_default": "Capinópolis",
      "native": "Capinópolis",
      "type": "city",
      "level": null,
      "parent_id": null,
      "population": 14872,
      "latitude": "-18.69222000",
      "longitude": "-49.57943000",
      "timezone": "America/Sao_Paulo",
      "wikiDataId": "Q1791729",
      "country_code": "BR",
      "state_code": "MG",
      "state_id": 1998,
      "country_id": 31
    },
    {
      "id": 11081,
      "name": "Kapetan Andrade",
      "name_default": "Capitão Andrade",
      "native": "Capitão Andrade",
      "type": "adm2",
      "level": null,
      "parent_id": null,
      "population": 4634,
      "latitude": "-19.04293000",
      "longitude": "-41.82608000",
      "timezone": "America/Sao_Paulo",
      "wikiDataId": "Q1791913",
      "country_code": "BR",
      "state_code": "MG",
      "state_id": 1998,
      "country_id": 31
    },
    {
      "id": 11082,
      "name": "Kapetan Enéas",
      "name_default": "Capitão Enéas",
      "native": "Capitão Enéas",
      "type": "city",
      "level": null,
      "parent_id": null,
      "population": 14403,
      "latitude": "-16.05629000",
      "longitude": "-43.67470000",
      "timezone": "America/Sao_Paulo",
      "wikiDataId": "Q1791913",
      "country_code": "BR",
      "state_code": "MG",
      "state_id": 1998,
      "country_id": 31
    },
    {
      "id": 11087,
      "name": "Kapitólio",
      "name_default": "Capitólio",
      "native": "Capitólio",
      "type": "adm2",
      "level": null,
      "parent_id": null,
      "population": 10991,
      "latitude": "-20.61528000",
      "longitude": "-46.05000000",
      "timezone": "America/Sao_Paulo",
      "wikiDataId": "Q1257195",
      "country_code": "BR",
      "state_code": "MG",
      "state_id": 1998,
      "country_id": 31
    },
    {
      "id": 11093,
      "name": "Caputira",
      "name_default": "Caputira",
      "native": "Cabeça",
      "type": "city",
      "level": null,
      "parent_id": null,
      "population": 9128,
      "latitude": "-20.18512000",
      "longitude": "-42.25284000",
      "timezone": "America/Sao_Paulo",
      "wikiDataId": "Q2064882",
      "country_code": "BR",
      "state_code": "MG",
      "state_id": 1998,
      "country_id": 31
    },
    {
      "id": 11115,
      "name": "Caraí",
      "name_default": "Caraí",
      "native": "Caraíí",
      "type": "city",
      "level": null,
      "parent_id": null,
      "population": 19511,
      "latitude": "-17.18089000",
      "longitude": "-41.54964000",
      "timezone": "America/Sao_Paulo",
      "wikiDataId": "Q584168",
      "country_code": "BR",
      "state_code": "MG",
      "state_id": 1998,
      "country_id": 31
    },
    {
      "id": 11105,
      "name": "Caranaíba",
      "name_default": "Caranaíba",
      "native": "Caranaíba",
      "type": "city",
      "level": null,
      "parent_id": null,
      "population": 2942,
      "latitude": "-20.88526000",
      "longitude": "-43.71231000",
      "timezone": "America/Sao_Paulo",
      "wikiDataId": "Q1803923",
      "country_code": "BR",
      "state_code": "MG",
      "state_id": 1998,
      "country_id": 31
    },
    {
      "id": 11106,
      "name": "Carandaí",
      "name_default": "Carandaí",
      "native": "Carandaí",
      "type": "city",
      "level": null,
      "parent_id": null,
      "population": 24403,
      "latitude": "-20.98840000",
      "longitude": "-43.83413000",
      "timezone": "America/Sao_Paulo",
      "wikiDataId": "Q1792927",
      "country_code": "BR",
      "state_code": "MG",
      "state_id": 1998,
      "country_id": 31
    },
    {
      "id": 11107,
      "name": "Carangola",
      "name_default": "Carangola",
      "native": "Carangola",
      "type": "city",
      "level": null,
      "parent_id": null,
      "population": 32134,
      "latitude": "-20.70784000",
      "longitude": "-42.10486000",
      "timezone": "America/Sao_Paulo",
      "wikiDataId": "Q1793063",
      "country_code": "BR",
      "state_code": "MG",
      "state_id": 1998,
      "country_id": 31
    },
    {
      "id": 11110,
      "name": "Caratinga",
      "name_default": "Caratinga",
      "native": "Caratinga",
      "type": "city",
      "level": null,
      "parent_id": null,
      "population": 90890,
      "latitude": "-19.68877000",
      "longitude": "-41.88778000",
      "timezone": "America/Sao_Paulo",
      "wikiDataId": "Q905175",
      "country_code": "BR",
      "state_code": "MG",
      "state_id": 1998,
      "country_id": 31
    },
    {
      "id": 11120,
      "name": "Karbonita",
      "name_default": "Carbonita",
      "native": "Carbonita",
      "type": "city",
      "level": null,
      "parent_id": null,
      "population": 8603,
      "latitude": "-17.47884000",
      "longitude": "-43.04885000",
      "timezone": "America/Sao_Paulo",
      "wikiDataId": "Q2078721",
      "country_code": "BR",
      "state_code": "MG",
      "state_id": 1998,
      "country_id": 31
    },
    {
      "id": 11124,
      "name": "Careaçu",
      "name_default": "Careaçu",
      "native": "Careaçu",
      "type": "city",
      "level": null,
      "parent_id": null,
      "population": 7062,
      "latitude": "-22.07964000",
      "longitude": "-45.66541000",
      "timezone": "America/Sao_Paulo",
      "wikiDataId": "Q1649954",
      "country_code": "BR",
      "state_code": "MG",
      "state_id": 1998,
      "country_id": 31
    },
    {
      "id": 11139,
      "name": "Carlos Chagas",
      "name_default": "Carlos Chagas",
      "native": "Carlos Chagas",
      "type": "city",
      "level": null,
      "parent_id": null,
      "population": 18783,
      "latitude": "-17.67817000",
      "longitude": "-40.88519000",
      "timezone": "America/Sao_Paulo",
      "wikiDataId": "Q1650857",
      "country_code": "BR",
      "state_code": "MG",
      "state_id": 1998,
      "country_id": 31
    },
    {
      "id": 11151,
      "name": "Carmésia",
      "name_default": "Carmésia",
      "native": "Carmésia",
      "type": "city",
      "level": null,
      "parent_id": null,
      "population": 2693,
      "latitude": "-19.06534000",
      "longitude": "-43.18402000",
      "timezone": "America/Sao_Paulo",
      "wikiDataId": "Q1805778",
      "country_code": "BR",
      "state_code": "MG",
      "state_id": 1998,
      "country_id": 31
    },
    {
      "id": 11143,
      "name": "Carmo da Cachoeira",
      "name_default": "Carmo da Cachoeira",
      "native": "Carmo da Cachoeira",
      "type": "city",
      "level": null,
      "parent_id": null,
      "population": 11767,
      "latitude": "-21.43323000",
      "longitude": "-45.18036000",
      "timezone": "America/Sao_Paulo",
      "wikiDataId": "Q1765089",
      "country_code": "BR",
      "state_code": "MG",
      "state_id": 1998,
      "country_id": 31
    },
    {
      "id": 11144,
      "name": "Carmo da Mata",
      "name_default": "Carmo da Mata",
      "native": "Carmo da Mata",
      "type": "city",
      "level": null,
      "parent_id": null,
      "population": 11291,
      "latitude": "-20.56847000",
      "longitude": "-44.88516000",
      "timezone": "America/Sao_Paulo",
      "wikiDataId": "Q1765089",
      "country_code": "BR",
      "state_code": "MG",
      "state_id": 1998,
      "country_id": 31
    },
    {
      "id": 11145,
      "name": "Carmo de Minas",
      "name_default": "Carmo de Minas",
      "native": "Carmo de Minas",
      "type": "city",
      "level": null,
      "parent_id": null,
      "population": 14125,
      "latitude": "-22.08863000",
      "longitude": "-45.14949000",
      "timezone": "America/Sao_Paulo",
      "wikiDataId": "Q1765089",
      "country_code": "BR",
      "state_code": "MG",
      "state_id": 1998,
      "country_id": 31
    },
    {
      "id": 11146,
      "name": "Carmo do Cajuru",
      "name_default": "Carmo do Cajuru",
      "native": "Carmo do Cajuru",
      "type": "city",
      "level": null,
      "parent_id": null,
      "population": 23479,
      "latitude": "-20.18782000",
      "longitude": "-44.71399000",
      "timezone": "America/Sao_Paulo",
      "wikiDataId": "Q22062685",
      "country_code": "BR",
      "state_code": "MG",
      "state_id": 1998,
      "country_id": 31
    },
    {
      "id": 11147,
      "name": "Carmo do Paranaíba",
      "name_default": "Carmo do Paranaíba",
      "native": "Carmo do Paranaíba",
      "type": "city",
      "level": null,
      "parent_id": null,
      "population": 29885,
      "latitude": "-18.87335000",
      "longitude": "-46.14425000",
      "timezone": "America/Sao_Paulo",
      "wikiDataId": "Q1792297",
      "country_code": "BR",
      "state_code": "MG",
      "state_id": 1998,
      "country_id": 31
    },
    {
      "id": 11148,
      "name": "Carmo do Rio Claro",
      "name_default": "Carmo do Rio Claro",
      "native": "Carmo do Rio Claro",
      "type": "city",
      "level": null,
      "parent_id": null,
      "population": 21506,
      "latitude": "-20.97974000",
      "longitude": "-46.10445000",
      "timezone": "America/Sao_Paulo",
      "wikiDataId": "Q1756452",
      "country_code": "BR",
      "state_code": "MG",
      "state_id": 1998,
      "country_id": 31
    },
    {
      "id": 11153,
      "name": "Carmópolis de Minas",
      "name_default": "Carmópolis de Minas",
      "native": "Carmópolis de Minas",
      "type": "city",
      "level": null,
      "parent_id": null,
      "population": 18561,
      "latitude": "-20.54914000",
      "longitude": "-44.64527000",
      "timezone": "America/Sao_Paulo",
      "wikiDataId": "Q1805778",
      "country_code": "BR",
      "state_code": "MG",
      "state_id": 1998,
      "country_id": 31
    },
    {
      "id": 11159,
      "name": "Carneirinho",
      "name_default": "Carneirinho",
      "native": "Carneirinho",
      "type": "city",
      "level": null,
      "parent_id": null,
      "population": 9633,
      "latitude": "-19.71424000",
      "longitude": "-50.80874000",
      "timezone": "America/Sao_Paulo",
      "wikiDataId": "Q22024027",
      "country_code": "BR",
      "state_code": "MG",
      "state_id": 1998,
      "country_id": 31
    },
    {
      "id": 11163,
      "name": "Carrancas",
      "name_default": "Carrancas",
      "native": "Carrancas",
      "type": "city",
      "level": null,
      "parent_id": null,
      "population": 4161,
      "latitude": "-21.49589000",
      "longitude": "-44.61042000",
      "timezone": "America/Sao_Paulo",
      "wikiDataId": "Q1756048",
      "country_code": "BR",
      "state_code": "MG",
      "state_id": 1998,
      "country_id": 31
    },
    {
      "id": 11169,
      "name": "Carvalhópolis",
      "name_default": "Carvalhópolis",
      "native": "Carvalhópolis",
      "type": "adm2",
      "level": null,
      "parent_id": null,
      "population": 3419,
      "latitude": "-21.77488000",
      "longitude": "-45.82688000",
      "timezone": "America/Sao_Paulo",
      "wikiDataId": "Q741443",
      "country_code": "BR",
      "state_code": "MG",
      "state_id": 1998,
      "country_id": 31
    },
    {
      "id": 11168,
      "name": "Carvalhos",
      "name_default": "Carvalhos",
      "native": "Carvalhos",
      "type": "city",
      "level": null,
      "parent_id": null,
      "population": 4503,
      "latitude": "-22.03096000",
      "longitude": "-44.47544000",
      "timezone": "America/Sao_Paulo",
      "wikiDataId": "Q741443",
      "country_code": "BR",
      "state_code": "MG",
      "state_id": 1998,
      "country_id": 31
    },
    {
      "id": 11172,
      "name": "Casa Grande",
      "name_default": "Casa Grande",
      "native": "Casa grande",
      "type": "city",
      "level": null,
      "parent_id": null,
      "population": 2260,
      "latitude": "-20.84072000",
      "longitude": "-43.93951000",
      "timezone": "America/Sao_Paulo",
      "wikiDataId": "Q1074537",
      "country_code": "BR",
      "state_code": "MG",
      "state_id": 1998,
      "country_id": 31
    },
    {
      "id": 11175,
      "name": "Cascalho Rico",
      "name_default": "Cascalho Rico",
      "native": "Cascalho Rico",
      "type": "city",
      "level": null,
      "parent_id": null,
      "population": 2751,
      "latitude": "-18.54617000",
      "longitude": "-47.85132000",
      "timezone": "America/Sao_Paulo",
      "wikiDataId": "Q1786658",
      "country_code": "BR",
      "state_code": "MG",
      "state_id": 1998,
      "country_id": 31
    },
    {
      "id": 11543,
      "name": "Kasija",
      "name_default": "Cássia",
      "native": "Cássia",
      "type": "city",
      "level": null,
      "parent_id": null,
      "population": 17491,
      "latitude": "-20.59294000",
      "longitude": "-46.91761000",
      "timezone": "America/Sao_Paulo",
      "wikiDataId": "Q1793175",
      "country_code": "BR",
      "state_code": "MG",
      "state_id": 1998,
      "country_id": 31
    },
    {
      "id": 11193,
      "name": "Katagvasi",
      "name_default": "Cataguases",
      "native": "Cataguases",
      "type": "city",
      "level": null,
      "parent_id": null,
      "population": 67732,
      "latitude": "-21.34548000",
      "longitude": "-42.64976000",
      "timezone": "America/Sao_Paulo",
      "wikiDataId": "Q1749746",
      "country_code": "BR",
      "state_code": "MG",
      "state_id": 1998,
      "country_id": 31
    },
    {
      "id": 11199,
      "name": "Catas Altas",
      "name_default": "Catas Altas",
      "native": "Degustações altas",
      "type": "city",
      "level": null,
      "parent_id": null,
      "population": 5706,
      "latitude": "-20.07049000",
      "longitude": "-43.42197000",
      "timezone": "America/Sao_Paulo",
      "wikiDataId": "Q22059576",
      "country_code": "BR",
      "state_code": "MG",
      "state_id": 1998,
      "country_id": 31
    },
    {
      "id": 11200,
      "name": "Velike norveške katastralne planine",
      "name_default": "Catas Altas da Noruega",
      "native": "Da Noruega High Cats",
      "type": "city",
      "level": null,
      "parent_id": null,
      "population": 3124,
      "latitude": "-20.68094000",
      "longitude": "-43.49780000",
      "timezone": "America/Sao_Paulo",
      "wikiDataId": "Q22059576",
      "country_code": "BR",
      "state_code": "MG",
      "state_id": 1998,
      "country_id": 31
    },
    {
      "id": 11207,
      "name": "Catuji",
      "name_default": "Catuji",
      "native": "Wi",
      "type": "city",
      "level": null,
      "parent_id": null,
      "population": 7248,
      "latitude": "-17.36328000",
      "longitude": "-41.48183000",
      "timezone": "America/Sao_Paulo",
      "wikiDataId": "Q1762371",
      "country_code": "BR",
      "state_code": "MG",
      "state_id": 1998,
      "country_id": 31
    },
    {
      "id": 11212,
      "name": "Catuti",
      "name_default": "Catuti",
      "native": "Cavidade",
      "type": "city",
      "level": null,
      "parent_id": null,
      "population": 4788,
      "latitude": "-15.32360000",
      "longitude": "-43.11391000",
      "timezone": "America/Sao_Paulo",
      "wikiDataId": "Q22059575",
      "country_code": "BR",
      "state_code": "MG",
      "state_id": 1998,
      "country_id": 31
    },
    {
      "id": 11216,
      "name": "Caxambu",
      "name_default": "Caxambu",
      "native": "Caxambu",
      "type": "city",
      "level": null,
      "parent_id": null,
      "population": 21056,
      "latitude": "-21.97722000",
      "longitude": "-44.93250000",
      "timezone": "America/Sao_Paulo",
      "wikiDataId": "Q829417",
      "country_code": "BR",
      "state_code": "MG",
      "state_id": 1998,
      "country_id": 31
    },
    {
      "id": 11233,
      "name": "Cedro do Abaeté",
      "name_default": "Cedro do Abaeté",
      "native": "Cedro do Abaeté",
      "type": "city",
      "level": null,
      "parent_id": null,
      "population": 1084,
      "latitude": "-19.11465000",
      "longitude": "-45.70070000",
      "timezone": "America/Sao_Paulo",
      "wikiDataId": "Q2027857",
      "country_code": "BR",
      "state_code": "MG",
      "state_id": 1998,
      "country_id": 31
    },
    {
      "id": 11239,
      "name": "Središnji dio Minasa",
      "name_default": "Central de Minas",
      "native": "Central de Minas",
      "type": "city",
      "level": null,
      "parent_id": null,
      "population": 6213,
      "latitude": "-18.76784000",
      "longitude": "-41.28963000",
      "timezone": "America/Sao_Paulo",
      "wikiDataId": "Q2021433",
      "country_code": "BR",
      "state_code": "MG",
      "state_id": 1998,
      "country_id": 31
    },
    {
      "id": 11241,
      "name": "Centralina",
      "name_default": "Centralina",
      "native": "Unidade de controle",
      "type": "city",
      "level": null,
      "parent_id": null,
      "population": 10447,
      "latitude": "-18.60922000",
      "longitude": "-49.16062000",
      "timezone": "America/Sao_Paulo",
      "wikiDataId": "Q1792154",
      "country_code": "BR",
      "state_code": "MG",
      "state_id": 1998,
      "country_id": 31
    },
    {
      "id": 11285,
      "name": "Chácara",
      "name_default": "Chácara",
      "native": "Chácara",
      "type": "city",
      "level": null,
      "parent_id": null,
      "population": 3194,
      "latitude": "-21.67919000",
      "longitude": "-43.21835000",
      "timezone": "America/Sao_Paulo",
      "wikiDataId": "Q665968",
      "country_code": "BR",
      "state_code": "MG",
      "state_id": 1998,
      "country_id": 31
    },
    {
      "id": 11258,
      "name": "Chalé",
      "name_default": "Chalé",
      "native": "Chalé",
      "type": "city",
      "level": null,
      "parent_id": null,
      "population": 6289,
      "latitude": "-20.03354000",
      "longitude": "-41.67809000",
      "timezone": "America/Sao_Paulo",
      "wikiDataId": "Q1786013",
      "country_code": "BR",
      "state_code": "MG",
      "state_id": 1998,
      "country_id": 31
    },
    {
      "id": 11263,
      "name": "Chapada do Norte",
      "name_default": "Chapada do Norte",
      "native": "Chapada do Norte",
      "type": "city",
      "level": null,
      "parent_id": null,
      "population": 9763,
      "latitude": "-17.16293000",
      "longitude": "-42.37718000",
      "timezone": "America/Sao_Paulo",
      "wikiDataId": "Q1758303",
      "country_code": "BR",
      "state_code": "MG",
      "state_id": 1998,
      "country_id": 31
    },
    {
      "id": 11260,
      "name": "Chapada Gaúcha",
      "name_default": "Chapada Gaúcha",
      "native": "Chapada Gaúcha",
      "type": "city",
      "level": null,
      "parent_id": null,
      "population": 12904,
      "latitude": "-15.57934000",
      "longitude": "-45.41242000",
      "timezone": "America/Sao_Paulo",
      "wikiDataId": "Q1758303",
      "country_code": "BR",
      "state_code": "MG",
      "state_id": 1998,
      "country_id": 31
    },
    {
      "id": 11276,
      "name": "Čijador",
      "name_default": "Chiador",
      "native": "Chiador",
      "type": "city",
      "level": null,
      "parent_id": null,
      "population": 2868,
      "latitude": "-21.97253000",
      "longitude": "-43.00735000",
      "timezone": "America/Sao_Paulo",
      "wikiDataId": "Q1795758",
      "country_code": "BR",
      "state_code": "MG",
      "state_id": 1998,
      "country_id": 31
    },
    {
      "id": 11294,
      "name": "Cipotânea",
      "name_default": "Cipotânea",
      "native": "Cipotânea",
      "type": "city",
      "level": null,
      "parent_id": null,
      "population": 5549,
      "latitude": "-20.93027000",
      "longitude": "-43.36547000",
      "timezone": "America/Sao_Paulo",
      "wikiDataId": "Q1749883",
      "country_code": "BR",
      "state_code": "MG",
      "state_id": 1998,
      "country_id": 31
    },
    {
      "id": 11297,
      "name": "Claraval",
      "name_default": "Claraval",
      "native": "Claraval",
      "type": "city",
      "level": null,
      "parent_id": null,
      "population": 4786,
      "latitude": "-20.35681000",
      "longitude": "-47.25241000",
      "timezone": "America/Sao_Paulo",
      "wikiDataId": "Q1762353",
      "country_code": "BR",
      "state_code": "MG",
      "state_id": 1998,
      "country_id": 31
    },
    {
      "id": 11298,
      "name": "Claro dos Poções",
      "name_default": "Claro dos Poções",
      "native": "Claro dos Poções",
      "type": "city",
      "level": null,
      "parent_id": null,
      "population": 7230,
      "latitude": "-17.09679000",
      "longitude": "-44.23300000",
      "timezone": "America/Sao_Paulo",
      "wikiDataId": "Q1762353",
      "country_code": "BR",
      "state_code": "MG",
      "state_id": 1998,
      "country_id": 31
    },
    {
      "id": 11302,
      "name": "Claudio",
      "name_default": "Cláudio",
      "native": "Cláudio",
      "type": "city",
      "level": null,
      "parent_id": null,
      "population": 31936,
      "latitude": "-20.39006000",
      "longitude": "-44.79135000",
      "timezone": "America/Sao_Paulo",
      "wikiDataId": "Q22062655",
      "country_code": "BR",
      "state_code": "MG",
      "state_id": 1998,
      "country_id": 31
    },
    {
      "id": 11316,
      "name": "Coimbra",
      "name_default": "Coimbra",
      "native": "Coimbra",
      "type": "city",
      "level": null,
      "parent_id": null,
      "population": 4088,
      "latitude": "-20.84494000",
      "longitude": "-42.79834000",
      "timezone": "America/Sao_Paulo",
      "wikiDataId": "Q22062654",
      "country_code": "BR",
      "state_code": "MG",
      "state_id": 1998,
      "country_id": 31
    },
    {
      "id": 11332,
      "name": "Coluna",
      "name_default": "Coluna",
      "native": "Coluna",
      "type": "city",
      "level": null,
      "parent_id": null,
      "population": 8206,
      "latitude": "-18.26842000",
      "longitude": "-42.82813000",
      "timezone": "America/Sao_Paulo",
      "wikiDataId": "Q1780178",
      "country_code": "BR",
      "state_code": "MG",
      "state_id": 1998,
      "country_id": 31
    },
    {
      "id": 11340,
      "name": "Komandant Gomes",
      "name_default": "Comendador Gomes",
      "native": "Comendador Gomes",
      "type": "city",
      "level": null,
      "parent_id": null,
      "population": 2804,
      "latitude": "-19.65330000",
      "longitude": "-49.08738000",
      "timezone": "America/Sao_Paulo",
      "wikiDataId": "Q2066010",
      "country_code": "BR",
      "state_code": "MG",
      "state_id": 1998,
      "country_id": 31
    },
    {
      "id": 11342,
      "name": "Comercinho",
      "name_default": "Comercinho",
      "native": "Comercinho",
      "type": "city",
      "level": null,
      "parent_id": null,
      "population": 6540,
      "latitude": "-16.28896000",
      "longitude": "-41.77346000",
      "timezone": "America/Sao_Paulo",
      "wikiDataId": "Q2066010",
      "country_code": "BR",
      "state_code": "MG",
      "state_id": 1998,
      "country_id": 31
    },
    {
      "id": 11345,
      "name": "Začetak u Aparecidi",
      "name_default": "Conceição da Aparecida",
      "native": "Conceição da Aparecida",
      "type": "city",
      "level": null,
      "parent_id": null,
      "population": 10705,
      "latitude": "-21.10120000",
      "longitude": "-46.22626000",
      "timezone": "America/Sao_Paulo",
      "wikiDataId": "Q1221976",
      "country_code": "BR",
      "state_code": "MG",
      "state_id": 1998,
      "country_id": 31
    },
    {
      "id": 11347,
      "name": "Začetak Barra de Minas",
      "name_default": "Conceição da Barra de Minas",
      "native": "Conceição da Barra de Minas",
      "type": "adm2",
      "level": null,
      "parent_id": null,
      "population": 3576,
      "latitude": "-21.14228000",
      "longitude": "-44.48863000",
      "timezone": "America/Sao_Paulo",
      "wikiDataId": "Q1998957",
      "country_code": "BR",
      "state_code": "MG",
      "state_id": 1998,
      "country_id": 31
    },
    {
      "id": 11349,
      "name": "Conceição das Alagoas",
      "name_default": "Conceição das Alagoas",
      "native": "Conceição das Alagoas",
      "type": "city",
      "level": null,
      "parent_id": null,
      "population": 30278,
      "latitude": "-19.95627000",
      "longitude": "-48.30510000",
      "timezone": "America/Sao_Paulo",
      "wikiDataId": "Q745089",
      "country_code": "BR",
      "state_code": "MG",
      "state_id": 1998,
      "country_id": 31
    },
    {
      "id": 11350,
      "name": "Conceição das Pedras",
      "name_default": "Conceição das Pedras",
      "native": "Conceição das Pedras",
      "type": "city",
      "level": null,
      "parent_id": null,
      "population": 2840,
      "latitude": "-22.13866000",
      "longitude": "-45.42694000",
      "timezone": "America/Sao_Paulo",
      "wikiDataId": "Q745089",
      "country_code": "BR",
      "state_code": "MG",
      "state_id": 1998,
      "country_id": 31
    },
    {
      "id": 11351,
      "name": "Conceição de Ipanema",
      "name_default": "Conceição de Ipanema",
      "native": "Conceição de Ipanema",
      "type": "city",
      "level": null,
      "parent_id": null,
      "population": 4503,
      "latitude": "-19.91781000",
      "longitude": "-41.70024000",
      "timezone": "America/Sao_Paulo",
      "wikiDataId": "Q745089",
      "country_code": "BR",
      "state_code": "MG",
      "state_id": 1998,
      "country_id": 31
    },
    {
      "id": 11360,
      "name": "Zamisao o Matu u srcu",
      "name_default": "Conceição do Mato Dentro",
      "native": "Conceição do Mato Dentro",
      "type": "city",
      "level": null,
      "parent_id": null,
      "population": 24559,
      "latitude": "-18.90010000",
      "longitude": "-43.50229000",
      "timezone": "America/Sao_Paulo",
      "wikiDataId": "Q1792783",
      "country_code": "BR",
      "state_code": "MG",
      "state_id": 1998,
      "country_id": 31
    },
    {
      "id": 11361,
      "name": "Conceição do Pará",
      "name_default": "Conceição do Pará",
      "native": "Conceição do Pará",
      "type": "city",
      "level": null,
      "parent_id": null,
      "population": 5584,
      "latitude": "-19.78550000",
      "longitude": "-44.87016000",
      "timezone": "America/Sao_Paulo",
      "wikiDataId": "Q1792783",
      "country_code": "BR",
      "state_code": "MG",
      "state_id": 1998,
      "country_id": 31
    },
    {
      "id": 11362,
      "name": "Conceição do Rio Verde",
      "name_default": "Conceição do Rio Verde",
      "native": "Conceição do Rio Verde",
      "type": "city",
      "level": null,
      "parent_id": null,
      "population": 12765,
      "latitude": "-21.90132000",
      "longitude": "-45.07975000",
      "timezone": "America/Sao_Paulo",
      "wikiDataId": "Q1756600",
      "country_code": "BR",
      "state_code": "MG",
      "state_id": 1998,
      "country_id": 31
    },
    {
      "id": 11364,
      "name": "Začetak zlata",
      "name_default": "Conceição dos Ouros",
      "native": "Conceição dos Ouros",
      "type": "city",
      "level": null,
      "parent_id": null,
      "population": 11218,
      "latitude": "-22.45037000",
      "longitude": "-45.77976000",
      "timezone": "America/Sao_Paulo",
      "wikiDataId": "Q1756600",
      "country_code": "BR",
      "state_code": "MG",
      "state_id": 1998,
      "country_id": 31
    },
    {
      "id": 11558,
      "name": "Cônego Marinho",
      "name_default": "Cônego Marinho",
      "native": "Cônego Marinho",
      "type": "city",
      "level": null,
      "parent_id": null,
      "population": null,
      "latitude": "-14.98755000",
      "longitude": "-44.60965000",
      "timezone": "America/Sao_Paulo",
      "wikiDataId": "Q1791989",
      "country_code": "BR",
      "state_code": "MG",
      "state_id": 1998,
      "country_id": 31
    },
    {
      "id": 11375,
      "name": "Ograničenja",
      "name_default": "Confins",
      "native": "Fronteiras",
      "type": "city",
      "level": null,
      "parent_id": null,
      "population": 7758,
      "latitude": "-19.65686000",
      "longitude": "-43.98131000",
      "timezone": "America/Sao_Paulo",
      "wikiDataId": "Q1003399",
      "country_code": "BR",
      "state_code": "MG",
      "state_id": 1998,
      "country_id": 31
    },
    {
      "id": 11378,
      "name": "Congonhal",
      "name_default": "Congonhal",
      "native": "Congonhal",
      "type": "city",
      "level": null,
      "parent_id": null,
      "population": 11444,
      "latitude": "-22.13543000",
      "longitude": "-46.03992000",
      "timezone": "America/Sao_Paulo",
      "wikiDataId": "Q2009615",
      "country_code": "BR",
      "state_code": "MG",
      "state_id": 1998,
      "country_id": 31
    },
    {
      "id": 11379,
      "name": "Congonhas",
      "name_default": "Congonhas",
      "native": "Congonhas",
      "type": "city",
      "level": null,
      "parent_id": null,
      "population": 52890,
      "latitude": "-20.50525000",
      "longitude": "-43.85880000",
      "timezone": "America/Sao_Paulo",
      "wikiDataId": "Q275654",
      "country_code": "BR",
      "state_code": "MG",
      "state_id": 1998,
      "country_id": 31
    },
    {
      "id": 11380,
      "name": "Congonhas do Norte",
      "name_default": "Congonhas do Norte",
      "native": "Congonhas do Norte",
      "type": "city",
      "level": null,
      "parent_id": null,
      "population": 4924,
      "latitude": "-18.88604000",
      "longitude": "-43.69620000",
      "timezone": "America/Sao_Paulo",
      "wikiDataId": "Q275654",
      "country_code": "BR",
      "state_code": "MG",
      "state_id": 1998,
      "country_id": 31
    },
    {
      "id": 11382,
      "name": "Konkvista",
      "name_default": "Conquista",
      "native": "Conquista",
      "type": "city",
      "level": null,
      "parent_id": null,
      "population": 6878,
      "latitude": "-19.86841000",
      "longitude": "-47.63352000",
      "timezone": "America/Sao_Paulo",
      "wikiDataId": "Q275654",
      "country_code": "BR",
      "state_code": "MG",
      "state_id": 1998,
      "country_id": 31
    },
    {
      "id": 11384,
      "name": "Conselheiro Lafaiete",
      "name_default": "Conselheiro Lafaiete",
      "native": "Conselheiro Lafaiete",
      "type": "city",
      "level": null,
      "parent_id": null,
      "population": 111596,
      "latitude": "-20.66028000",
      "longitude": "-43.78611000",
      "timezone": "America/Sao_Paulo",
      "wikiDataId": "Q570312",
      "country_code": "BR",
      "state_code": "MG",
      "state_id": 1998,
      "country_id": 31
    },
    {
      "id": 11386,
      "name": "Conselheiro Pena",
      "name_default": "Conselheiro Pena",
      "native": "Conselheiro Pena",
      "type": "city",
      "level": null,
      "parent_id": null,
      "population": 21052,
      "latitude": "-19.17411000",
      "longitude": "-41.45800000",
      "timezone": "America/Sao_Paulo",
      "wikiDataId": "Q1792851",
      "country_code": "BR",
      "state_code": "MG",
      "state_id": 1998,
      "country_id": 31
    },