{
  "locale": "de",
  "country": {
    "id": 141,
    "code": "YT",
    "iso3": "MYT",
    "numeric_code": "175",
    "name": "Mayotte",
    "name_default": "Mayotte",
    "native": "Mayotte",
    "capital": "Mamoudzou",
    "phonecode": "262",
    "currency": "EUR",
    "currency_name": "Euro",
    "currency_symbol": "€",
    "tld": ".yt",
    "population": 337011,
    "gdp": null,
    "region": "Africa",
    "region_id": 1,
    "subregion": "Eastern Africa",
    "subregion_id": 4,
    "nationality": "Mahoran",
    "timezones": [
      {
        "zoneName": "Indian/Mayotte",
        "gmtOffset": 10800,
        "gmtOffsetName": "UTC+03:00",
        "abbreviation": "EAT",
        "tzName": "East Africa Time"
      }
    ],
    "latitude": "-12.83333333",
    "longitude": "45.16666666",
    "emoji": "🇾🇹",
    "emojiU": "U+1F1FE U+1F1F9"
  },
  "state": {
    "id": 5404,
    "code": "03",
    "iso2": "03",
    "iso3166_2": "YT-03",
    "fips_code": "03",
    "name": "Mamoudzou",
    "name_default": "Mamoudzou",
    "native": "Mamoudzou",
    "type": "commune",
    "level": null,
    "parent_id": null,
    "population": null,
    "latitude": "-12.78041360",
    "longitude": "45.22797610",
    "timezone": "Indian/Mayotte",
    "wikiDataId": "Q132676",
    "country_code": "YT"
  },
  "cities": [
    {
      "id": 160292,
      "name": "Combani",
      "name_default": "Combani",
      "native": null,
      "type": "city",
      "level": null,
      "parent_id": null,
      "population": 6665,
      "latitude": "-12.80000000",
      "longitude": "45.16667000",
      "timezone": "Indian/Mayotte",
      "wikiDataId": null,
      "country_code": "YT",
      "state_code": "03",
      "state_id": 5404,
      "country_id": 141
    },
    {
      "id": 160290,
      "name": "Kaouéni",
      "name_default": "Kaouéni",
      "native": null,
      "type": "city",
      "level": null,
      "parent_id": null,
      "population": 17060,
      "latitude": "-12.77121000",
      "longitude": "45.22419000",
      "timezone": "Indian/Mayotte",
      "wikiDataId": null,
      "country_code": "YT",
      "state_code": "03",
      "state_id": 5404,
      "country_id": 141
    },
    {
      "id": 160289,
      "name": "Kavani",
      "name_default": "Kavani",
      "native": null,
      "type": "section",
      "level": null,
      "parent_id": null,
      "population": 9740,
      "latitude": "-12.78447000",
      "longitude": "45.22299000",
      "timezone": "Indian/Mayotte",
      "wikiDataId": null,
      "country_code": "YT",
      "state_code": "03",
      "state_id": 5404,
      "country_id": 141
    },
    {
      "id": 160291,
      "name": "Majikavo Lamir",
      "name_default": "Majikavo Lamir",
      "native": null,
      "type": "city",
      "level": null,
      "parent_id": null,
      "population": 2081,
      "latitude": "-12.75572000",
      "longitude": "45.22968000",
      "timezone": "Indian/Mayotte",
      "wikiDataId": null,
      "country_code": "YT",
      "state_code": "03",
      "state_id": 5404,
      "country_id": 141
    },
    {
      "id": 160293,
      "name": "Mamoudzou",
      "name_default": "Mamoudzou",
      "native": null,
      "type": "capital",
      "level": null,
      "parent_id": null,
      "population": 54831,
      "latitude": "-12.78234000",
      "longitude": "45.22878000",
      "timezone": "Indian/Mayotte",
      "wikiDataId": null,
      "country_code": "YT",
      "state_code": "03",
      "state_id": 5404,
      "country_id": 141
    },
    {
      "id": 160288,
      "name": "Mtsapéré",
      "name_default": "Mtsapéré",
      "native": null,
      "type": "section",
      "level": null,
      "parent_id": null,
      "population": 15880,
      "latitude": "-12.78636000",
      "longitude": "45.21732000",
      "timezone": "Indian/Mayotte",
      "wikiDataId": null,
      "country_code": "YT",
      "state_code": "03",
      "state_id": 5404,
      "country_id": 141
    },
    {
      "id": 160294,
      "name": "Passamainty",
      "name_default": "Passamainty",
      "native": null,
      "type": "city",
      "level": null,
      "parent_id": null,
      "population": 8430,
      "latitude": "-12.80201000",
      "longitude": "45.20818000",
      "timezone": "Indian/Mayotte",
      "wikiDataId": null,
      "country_code": "YT",
      "state_code": "03",
      "state_id": 5404,
      "country_id": 141
    },
    {
      "id": 160287,
      "name": "Tsoundzou 1",
      "name_default": "Tsoundzou 1",
      "native": null,
      "type": "city",
      "level": null,
      "parent_id": null,
      "population": 5570,
      "latitude": "-12.80615000",
      "longitude": "45.20230000",
      "timezone": "Indian/Mayotte",
      "wikiDataId": null,
      "country_code": "YT",
      "state_code": "03",
      "state_id": 5404,
      "country_id": 141
    },
    {
      "id": 160286,
      "name": "Tsoundzou 2",
      "name_default": "Tsoundzou 2",
      "native": null,
      "type": "city",
      "level": null,
      "parent_id": null,
      "population": 2559,
      "latitude": "-12.81845000",
      "longitude": "45.19720000",
      "timezone": "Indian/Mayotte",
      "wikiDataId": null,
      "country_code": "YT",
      "state_code": "03",
      "state_id": 5404,
      "country_id": 141
    },
    {
      "id": 160285,
      "name": "Vahibé",
      "name_default": "Vahibé",
      "native": null,
      "type": "city",
      "level": null,
      "parent_id": null,
      "population": 6067,
      "latitude": "-12.79024000",
      "longitude": "45.17707000",
      "timezone": "Indian/Mayotte",
      "wikiDataId": null,
      "country_code": "YT",
      "state_code": "03",
      "state_id": 5404,
      "country_id": 141
    }
  ]
}
