{
  "locale": "ko",
  "country": {
    "id": 109,
    "code": "JP",
    "iso3": "JPN",
    "numeric_code": "392",
    "name": "일본",
    "name_default": "Japan",
    "native": "日本",
    "capital": "Tokyo",
    "phonecode": "81",
    "currency": "JPY",
    "currency_name": "Japanese yen",
    "currency_symbol": "¥",
    "tld": ".jp",
    "population": 123300000,
    "gdp": 4186431,
    "region": "Asia",
    "region_id": 3,
    "subregion": "Eastern Asia",
    "subregion_id": 12,
    "nationality": "Japanese",
    "timezones": [
      {
        "zoneName": "Asia/Tokyo",
        "gmtOffset": 32400,
        "gmtOffsetName": "UTC+09:00",
        "abbreviation": "JST",
        "tzName": "Japan Standard Time"
      }
    ],
    "latitude": "36.00000000",
    "longitude": "138.00000000",
    "emoji": "🇯🇵",
    "emojiU": "U+1F1EF U+1F1F5"
  },
  "state": {
    "id": 852,
    "code": "19",
    "iso2": "19",
    "iso3166_2": "JP-19",
    "fips_code": "46",
    "name": "야마나시",
    "name_default": "Yamanashi",
    "native": "山梨",
    "type": "prefecture",
    "level": null,
    "parent_id": null,
    "population": null,
    "latitude": "35.63993280",
    "longitude": "138.63804950",
    "timezone": "Asia/Tokyo",
    "wikiDataId": "Q132720",
    "country_code": "JP"
  },
  "cities": [
    {
      "id": 63316,
      "name": "주오시",
      "name_default": "Chūō-shi",
      "native": "中央市",
      "type": "city",
      "level": null,
      "parent_id": null,
      "population": 31053,
      "latitude": "35.58418000",
      "longitude": "138.54110000",
      "timezone": "Asia/Tokyo",
      "wikiDataId": "Q666049",
      "country_code": "JP",
      "state_code": "19",
      "state_id": 852,
      "country_id": 109
    },
    {
      "id": 63334,
      "name": "엔잔",
      "name_default": "Enzan",
      "native": "塩山",
      "type": "city",
      "level": null,
      "parent_id": null,
      "population": 25142,
      "latitude": "35.70000000",
      "longitude": "138.73333000",
      "timezone": "Asia/Tokyo",
      "wikiDataId": "Q1345990",
      "country_code": "JP",
      "state_code": "19",
      "state_id": 852,
      "country_id": 109
    },
    {
      "id": 63339,
      "name": "후에후키시",
      "name_default": "Fuefuki-shi",
      "native": "笛吹市",
      "type": "adm2",
      "level": null,
      "parent_id": null,
      "population": null,
      "latitude": "35.59955000",
      "longitude": "138.68067000",
      "timezone": "Asia/Tokyo",
      "wikiDataId": "Q849434",
      "country_code": "JP",
      "state_code": "19",
      "state_id": 852,
      "country_id": 109
    },
    {
      "id": 63341,
      "name": "후지요시다시",
      "name_default": "Fuji-yoshida Shi",
      "native": "富士吉田市",
      "type": "city",
      "level": null,
      "parent_id": null,
      "population": null,
      "latitude": "35.43915000",
      "longitude": "138.79368000",
      "timezone": "Asia/Tokyo",
      "wikiDataId": "Q647508",
      "country_code": "JP",
      "state_code": "19",
      "state_id": 852,
      "country_id": 109
    },
    {
      "id": 63344,
      "name": "후지카와구치코",
      "name_default": "Fujikawaguchiko",
      "native": "富士河口湖",
      "type": "city",
      "level": null,
      "parent_id": null,
      "population": 25495,
      "latitude": "35.48933000",
      "longitude": "138.68832000",
      "timezone": "Asia/Tokyo",
      "wikiDataId": "Q1004231",
      "country_code": "JP",
      "state_code": "19",
      "state_id": 852,
      "country_id": 109
    },
    {
      "id": 63355,
      "name": "후지요시다",
      "name_default": "Fujiyoshida",
      "native": "富士吉田",
      "type": "city",
      "level": null,
      "parent_id": null,
      "population": 46659,
      "latitude": "35.44032000",
      "longitude": "138.79586000",
      "timezone": "Asia/Tokyo",
      "wikiDataId": "Q5507483",
      "country_code": "JP",
      "state_code": "19",
      "state_id": 852,
      "country_id": 109
    },
    {
      "id": 63517,
      "name": "호쿠토",
      "name_default": "Hokuto",
      "native": "北斗",
      "type": "adm2",
      "level": null,
      "parent_id": null,
      "population": 43452,
      "latitude": "35.83458000",
      "longitude": "138.39606000",
      "timezone": "Asia/Tokyo",
      "wikiDataId": "Q842301",
      "country_code": "JP",
      "state_code": "19",
      "state_id": 852,
      "country_id": 109
    },
    {
      "id": 63518,
      "name": "호쿠토시",
      "name_default": "Hokuto-shi",
      "native": "北杜市",
      "type": "city",
      "level": null,
      "parent_id": null,
      "population": null,
      "latitude": "35.83717000",
      "longitude": "138.39375000",
      "timezone": "Asia/Tokyo",
      "wikiDataId": "Q825272",
      "country_code": "JP",
      "state_code": "19",
      "state_id": 852,
      "country_id": 109
    },
    {
      "id": 63583,
      "name": "이사와",
      "name_default": "Isawa",
      "native": "石和",
      "type": "city",
      "level": null,
      "parent_id": null,
      "population": 29616,
      "latitude": "35.65000000",
      "longitude": "138.63333000",
      "timezone": "Asia/Tokyo",
      "wikiDataId": "Q360795",
      "country_code": "JP",
      "state_code": "19",
      "state_id": 852,
      "country_id": 109
    },
    {
      "id": 63661,
      "name": "카이시",
      "name_default": "Kai-shi",
      "native": "甲斐市",
      "type": "city",
      "level": null,
      "parent_id": null,
      "population": null,
      "latitude": "35.71627000",
      "longitude": "138.51871000",
      "timezone": "Asia/Tokyo",
      "wikiDataId": "Q577309",
      "country_code": "JP",
      "state_code": "19",
      "state_id": 852,
      "country_id": 109
    },
    {
      "id": 63893,
      "name": "고후",
      "name_default": "Kōfu",
      "native": "甲府",
      "type": "adm1",
      "level": null,
      "parent_id": null,
      "population": 187144,
      "latitude": "35.66667000",
      "longitude": "138.56667000",
      "timezone": "Asia/Tokyo",
      "wikiDataId": "Q816728",
      "country_code": "JP",
      "state_code": "19",
      "state_id": 852,
      "country_id": 109
    },
    {
      "id": 63894,
      "name": "고후시",
      "name_default": "Kōfu-shi",
      "native": "甲府市",
      "type": "city",
      "level": null,
      "parent_id": null,
      "population": null,
      "latitude": "35.69606000",
      "longitude": "138.61261000",
      "timezone": "Asia/Tokyo",
      "wikiDataId": "Q201932",
      "country_code": "JP",
      "state_code": "19",
      "state_id": 852,
      "country_id": 109
    },
    {
      "id": 63902,
      "name": "고슈시",
      "name_default": "Kōshū-shi",
      "native": "甲州市",
      "type": "city",
      "level": null,
      "parent_id": null,
      "population": null,
      "latitude": "35.72649000",
      "longitude": "138.79178000",
      "timezone": "Asia/Tokyo",
      "wikiDataId": "Q248723",
      "country_code": "JP",
      "state_code": "19",
      "state_id": 852,
      "country_id": 109
    },
    {
      "id": 63961,
      "name": "미나미 알프스시",
      "name_default": "Minami Alps-shi",
      "native": "南アルプス市",
      "type": "city",
      "level": null,
      "parent_id": null,
      "population": null,
      "latitude": "35.65065000",
      "longitude": "138.35413000",
      "timezone": "Asia/Tokyo",
      "wikiDataId": "Q824000",
      "country_code": "JP",
      "state_code": "19",
      "state_id": 852,
      "country_id": 109
    },
    {
      "id": 64143,
      "name": "니라사키",
      "name_default": "Nirasaki",
      "native": "韮崎",
      "type": "adm2",
      "level": null,
      "parent_id": null,
      "population": 28896,
      "latitude": "35.70000000",
      "longitude": "138.45000000",
      "timezone": "Asia/Tokyo",
      "wikiDataId": "Q290326",
      "country_code": "JP",
      "state_code": "19",
      "state_id": 852,
      "country_id": 109
    },
    {
      "id": 64144,
      "name": "니라사키시",
      "name_default": "Nirasaki-shi",
      "native": "韮崎市",
      "type": "city",
      "level": null,
      "parent_id": null,
      "population": null,
      "latitude": "35.71772000",
      "longitude": "138.41200000",
      "timezone": "Asia/Tokyo",
      "wikiDataId": "Q290326",
      "country_code": "JP",
      "state_code": "19",
      "state_id": 852,
      "country_id": 109
    },
    {
      "id": 64766,
      "name": "오츠키",
      "name_default": "Ōtsuki",
      "native": "大月",
      "type": "adm2",
      "level": null,
      "parent_id": null,
      "population": 22356,
      "latitude": "35.61851000",
      "longitude": "138.97396000",
      "timezone": "Asia/Tokyo",
      "wikiDataId": "Q386508",
      "country_code": "JP",
      "state_code": "19",
      "state_id": 852,
      "country_id": 109
    },
    {
      "id": 64767,
      "name": "오쓰키시",
      "name_default": "Ōtsuki-shi",
      "native": "大月市",
      "type": "city",
      "level": null,
      "parent_id": null,
      "population": null,
      "latitude": "35.64285000",
      "longitude": "138.91993000",
      "timezone": "Asia/Tokyo",
      "wikiDataId": "Q386508",
      "country_code": "JP",
      "state_code": "19",
      "state_id": 852,
      "country_id": 109
    },
    {
      "id": 64235,
      "name": "류오",
      "name_default": "Ryūō",
      "native": "竜王",
      "type": "city",
      "level": null,
      "parent_id": null,
      "population": 43180,
      "latitude": "35.65000000",
      "longitude": "138.50000000",
      "timezone": "Asia/Tokyo",
      "wikiDataId": "Q844138",
      "country_code": "JP",
      "state_code": "19",
      "state_id": 852,
      "country_id": 109
    },
    {
      "id": 64552,
      "name": "쓰루시",
      "name_default": "Tsuru-shi",
      "native": "都留市",
      "type": "adm2",
      "level": null,
      "parent_id": null,
      "population": null,
      "latitude": "35.53660000",
      "longitude": "138.91489000",
      "timezone": "Asia/Tokyo",
      "wikiDataId": "Q747362",
      "country_code": "JP",
      "state_code": "19",
      "state_id": 852,
      "country_id": 109
    },
    {
      "id": 64582,
      "name": "우에노하라",
      "name_default": "Uenohara",
      "native": "上野原",
      "type": "adm2",
      "level": null,
      "parent_id": null,
      "population": 22557,
      "latitude": "35.61667000",
      "longitude": "139.11667000",
      "timezone": "Asia/Tokyo",
      "wikiDataId": "Q857843",
      "country_code": "JP",
      "state_code": "19",
      "state_id": 852,
      "country_id": 109
    },
    {
      "id": 64583,
      "name": "우에노하라시",
      "name_default": "Uenohara-shi",
      "native": "上野原市",
      "type": "city",
      "level": null,
      "parent_id": null,
      "population": null,
      "latitude": "35.65000000",
      "longitude": "139.05000000",
      "timezone": "Asia/Tokyo",
      "wikiDataId": "Q851030",
      "country_code": "JP",
      "state_code": "19",
      "state_id": 852,
      "country_id": 109
    },
    {
      "id": 64643,
      "name": "야마나시시",
      "name_default": "Yamanashi-shi",
      "native": "山梨市",
      "type": "city",
      "level": null,
      "parent_id": null,
      "population": null,
      "latitude": "35.79691000",
      "longitude": "138.69743000",
      "timezone": "Asia/Tokyo",
      "wikiDataId": "Q840610",
      "country_code": "JP",
      "state_code": "19",
      "state_id": 852,
      "country_id": 109
    }
  ]
}
