{
  "locale": "nl",
  "country": {
    "id": 172,
    "code": "PY",
    "iso3": "PRY",
    "numeric_code": "600",
    "name": "Paraguay",
    "name_default": "Paraguay",
    "native": "Paraguay",
    "capital": "Asunción",
    "phonecode": "595",
    "currency": "PYG",
    "currency_name": "Paraguayan guarani",
    "currency_symbol": "₲",
    "tld": ".py",
    "population": 6109644,
    "gdp": 45465,
    "region": "Americas",
    "region_id": 2,
    "subregion": "South America",
    "subregion_id": 8,
    "nationality": "Paraguayan",
    "timezones": [
      {
        "zoneName": "America/Asuncion",
        "gmtOffset": -10800,
        "gmtOffsetName": "UTC-03:00",
        "abbreviation": "PYST",
        "tzName": "Paraguay Summer Time"
      }
    ],
    "latitude": "-23.00000000",
    "longitude": "-58.00000000",
    "emoji": "🇵🇾",
    "emojiU": "U+1F1F5 U+1F1FE"
  },
  "state": {
    "id": 2778,
    "code": "7",
    "iso2": "7",
    "iso3166_2": "PY-7",
    "fips_code": "11",
    "name": "Itapúa",
    "name_default": "Itapúa",
    "native": "Itapúa",
    "type": "department",
    "level": null,
    "parent_id": null,
    "population": 449642,
    "latitude": "-26.83333300",
    "longitude": "-55.83333300",
    "timezone": "America/Asuncion",
    "wikiDataId": "Q222564",
    "country_code": "PY"
  },
  "cities": [
    {
      "id": 89721,
      "name": "Arquitecto Tomás Romero Pereira",
      "name_default": "Arquitecto Tomás Romero Pereira",
      "native": "Arquitecto Tomás Romero Pereira",
      "type": "city",
      "level": null,
      "parent_id": null,
      "population": null,
      "latitude": "-26.48333000",
      "longitude": "-55.25000000",
      "timezone": "America/Asuncion",
      "wikiDataId": "Q31884178",
      "country_code": "PY",
      "state_code": "7",
      "state_id": 2778,
      "country_id": 172
    },
    {
      "id": 89724,
      "name": "Prachtig uitzicht",
      "name_default": "Bella Vista",
      "native": "Hermosa vista",
      "type": "city",
      "level": null,
      "parent_id": null,
      "population": 5653,
      "latitude": "-27.05000000",
      "longitude": "-55.55000000",
      "timezone": "America/Asuncion",
      "wikiDataId": "Q2639218",
      "country_code": "PY",
      "state_code": "7",
      "state_id": 2778,
      "country_id": 172
    },
    {
      "id": 89735,
      "name": "Kapitein Miranda",
      "name_default": "Capitán Miranda",
      "native": "Capitán Miranda",
      "type": "city",
      "level": null,
      "parent_id": null,
      "population": 2498,
      "latitude": "-27.20000000",
      "longitude": "-55.80000000",
      "timezone": "America/Asuncion",
      "wikiDataId": "Q2717429",
      "country_code": "PY",
      "state_code": "7",
      "state_id": 2778,
      "country_id": 172
    },
    {
      "id": 89741,
      "name": "Carmen del Paraná",
      "name_default": "Carmen del Paraná",
      "native": "Carmen del Paraná",
      "type": "city",
      "level": null,
      "parent_id": null,
      "population": 4196,
      "latitude": "-27.22232000",
      "longitude": "-56.15243000",
      "timezone": "America/Asuncion",
      "wikiDataId": "Q17564711",
      "country_code": "PY",
      "state_code": "7",
      "state_id": 2778,
      "country_id": 172
    },
    {
      "id": 89746,
      "name": "Colonia Carlos Antonio López",
      "name_default": "Colonia Carlos Antonio López",
      "native": "Colonia Carlos Antonio López",
      "type": "city",
      "level": null,
      "parent_id": null,
      "population": 1496,
      "latitude": "-26.39853000",
      "longitude": "-54.75690000",
      "timezone": "America/Asuncion",
      "wikiDataId": "Q192235",
      "country_code": "PY",
      "state_code": "7",
      "state_id": 2778,
      "country_id": 172
    },
    {
      "id": 89754,
      "name": "Colonia San Lorenzo",
      "name_default": "Colonia San Lorenzo",
      "native": "Colonia San Lorenzo",
      "type": "city",
      "level": null,
      "parent_id": null,
      "population": 2000,
      "latitude": "-26.49324000",
      "longitude": "-54.79989000",
      "timezone": "America/Asuncion",
      "wikiDataId": "Q1709409",
      "country_code": "PY",
      "state_code": "7",
      "state_id": 2778,
      "country_id": 172
    },
    {
      "id": 89761,
      "name": "Edelira",
      "name_default": "Edelira",
      "native": "Edelira",
      "type": "city",
      "level": null,
      "parent_id": null,
      "population": 1698,
      "latitude": "-26.76734000",
      "longitude": "-55.27872000",
      "timezone": "America/Asuncion",
      "wikiDataId": "Q935504",
      "country_code": "PY",
      "state_code": "7",
      "state_id": 2778,
      "country_id": 172
    },
    {
      "id": 89763,
      "name": "Encarnación",
      "name_default": "Encarnación",
      "native": "Encarnación",
      "type": "adm1",
      "level": null,
      "parent_id": null,
      "population": 74983,
      "latitude": "-27.33056000",
      "longitude": "-55.86667000",
      "timezone": "America/Asuncion",
      "wikiDataId": "Q47138",
      "country_code": "PY",
      "state_code": "7",
      "state_id": 2778,
      "country_id": 172
    },
    {
      "id": 89767,
      "name": "Frame",
      "name_default": "Fram",
      "native": "Frente",
      "type": "city",
      "level": null,
      "parent_id": null,
      "population": 3916,
      "latitude": "-26.98333000",
      "longitude": "-55.88333000",
      "timezone": "America/Asuncion",
      "wikiDataId": "Q47062",
      "country_code": "PY",
      "state_code": "7",
      "state_id": 2778,
      "country_id": 172
    },
    {
      "id": 89769,
      "name": "Generaal Artigas",
      "name_default": "General Artigas",
      "native": "General Artigas",
      "type": "city",
      "level": null,
      "parent_id": null,
      "population": 4073,
      "latitude": "-26.93522000",
      "longitude": "-56.22168000",
      "timezone": "America/Asuncion",
      "wikiDataId": "Q47062",
      "country_code": "PY",
      "state_code": "7",
      "state_id": 2778,
      "country_id": 172
    },
    {
      "id": 89770,
      "name": "Generaal Delgado",
      "name_default": "General Delgado",
      "native": "General Delgado",
      "type": "city",
      "level": null,
      "parent_id": null,
      "population": 1544,
      "latitude": "-27.09046000",
      "longitude": "-56.52474000",
      "timezone": "America/Asuncion",
      "wikiDataId": "Q47062",
      "country_code": "PY",
      "state_code": "7",
      "state_id": 2778,
      "country_id": 172
    },
    {
      "id": 89776,
      "name": "Hohenau",
      "name_default": "Hohenau",
      "native": "Hemur",
      "type": "adm2",
      "level": null,
      "parent_id": null,
      "population": 5306,
      "latitude": "-27.07315000",
      "longitude": "-55.64247000",
      "timezone": "America/Asuncion",
      "wikiDataId": "Q47062",
      "country_code": "PY",
      "state_code": "7",
      "state_id": 2778,
      "country_id": 172
    },
    {
      "id": 89787,
      "name": "Jezus",
      "name_default": "Jesús",
      "native": "Jesús",
      "type": "city",
      "level": null,
      "parent_id": null,
      "population": 2530,
      "latitude": "-27.05598000",
      "longitude": "-55.74130000",
      "timezone": "America/Asuncion",
      "wikiDataId": "Q1988977",
      "country_code": "PY",
      "state_code": "7",
      "state_id": 2778,
      "country_id": 172
    },
    {
      "id": 89801,
      "name": "Natalio",
      "name_default": "Natalio",
      "native": "Natalio",
      "type": "city",
      "level": null,
      "parent_id": null,
      "population": 2252,
      "latitude": "-26.75702000",
      "longitude": "-55.13777000",
      "timezone": "America/Asuncion",
      "wikiDataId": "Q541522",
      "country_code": "PY",
      "state_code": "7",
      "state_id": 2778,
      "country_id": 172
    },
    {
      "id": 89805,
      "name": "Verplicht",
      "name_default": "Obligado",
      "native": "Obligado",
      "type": "city",
      "level": null,
      "parent_id": null,
      "population": 6350,
      "latitude": "-27.03333000",
      "longitude": "-55.63333000",
      "timezone": "America/Asuncion",
      "wikiDataId": "Q541522",
      "country_code": "PY",
      "state_code": "7",
      "state_id": 2778,
      "country_id": 172
    },
    {
      "id": 89809,
      "name": "Pirapó",
      "name_default": "Pirapó",
      "native": "Pirapó",
      "type": "city",
      "level": null,
      "parent_id": null,
      "population": 1756,
      "latitude": "-26.86012000",
      "longitude": "-55.54357000",
      "timezone": "America/Asuncion",
      "wikiDataId": "Q135970",
      "country_code": "PY",
      "state_code": "7",
      "state_id": 2778,
      "country_id": 172
    },
    {
      "id": 89813,
      "name": "Puerto Mayor Otaño",
      "name_default": "Puerto Mayor Otaño",
      "native": "Puerto Mayor Otaño",
      "type": "city",
      "level": null,
      "parent_id": null,
      "population": 4701,
      "latitude": "-26.40000000",
      "longitude": "-54.70000000",
      "timezone": "America/Asuncion",
      "wikiDataId": "Q135970",
      "country_code": "PY",
      "state_code": "7",
      "state_id": 2778,
      "country_id": 172
    },
    {
      "id": 89821,
      "name": "San Cosme y Damián",
      "name_default": "San Cosme y Damián",
      "native": "San Cosme y Damián",
      "type": "city",
      "level": null,
      "parent_id": null,
      "population": 2223,
      "latitude": "-27.31741000",
      "longitude": "-56.33087000",
      "timezone": "America/Asuncion",
      "wikiDataId": "Q135983",
      "country_code": "PY",
      "state_code": "7",
      "state_id": 2778,
      "country_id": 172
    },
    {
      "id": 89827,
      "name": "San Juan del Paraná",
      "name_default": "San Juan del Paraná",
      "native": "San Juan del Paraná",
      "type": "city",
      "level": null,
      "parent_id": null,
      "population": 1492,
      "latitude": "-27.30168000",
      "longitude": "-55.96509000",
      "timezone": "America/Asuncion",
      "wikiDataId": "Q135983",
      "country_code": "PY",
      "state_code": "7",
      "state_id": 2778,
      "country_id": 172
    },
    {
      "id": 89832,
      "name": "San Pedro del Paraná",
      "name_default": "San Pedro del Paraná",
      "native": "San Pedro del Paraná",
      "type": "city",
      "level": null,
      "parent_id": null,
      "population": 5722,
      "latitude": "-26.83268000",
      "longitude": "-56.20575000",
      "timezone": "America/Asuncion",
      "wikiDataId": "Q135993",
      "country_code": "PY",
      "state_code": "7",
      "state_id": 2778,
      "country_id": 172
    },
    {
      "id": 89841,
      "name": "Trinidad",
      "name_default": "Trinidad",
      "native": "Trinidad",
      "type": "city",
      "level": null,
      "parent_id": null,
      "population": 2837,
      "latitude": "-27.11667000",
      "longitude": "-55.78333000",
      "timezone": "America/Asuncion",
      "wikiDataId": "Q1092820",
      "country_code": "PY",
      "state_code": "7",
      "state_id": 2778,
      "country_id": 172
    }
  ]
}
