{
  "locale": "fa",
  "country": {
    "id": 103,
    "code": "IR",
    "iso3": "IRN",
    "numeric_code": "364",
    "name": "ایران",
    "name_default": "Iran",
    "native": "ایران",
    "capital": "Tehran",
    "phonecode": "98",
    "currency": "IRR",
    "currency_name": "Iranian rial",
    "currency_symbol": "﷼",
    "tld": ".ir",
    "population": 85961000,
    "gdp": 341013,
    "region": "Asia",
    "region_id": 3,
    "subregion": "Southern Asia",
    "subregion_id": 14,
    "nationality": "Iranian, Persian",
    "timezones": [
      {
        "zoneName": "Asia/Tehran",
        "gmtOffset": 12600,
        "gmtOffsetName": "UTC+03:30",
        "abbreviation": "IRDT",
        "tzName": "Iran Daylight Time"
      }
    ],
    "latitude": "32.00000000",
    "longitude": "53.00000000",
    "emoji": "🇮🇷",
    "emojiU": "U+1F1EE U+1F1F7"
  },
  "state": {
    "id": 3921,
    "code": "14",
    "iso2": "14",
    "iso3166_2": "IR-14",
    "fips_code": "03",
    "name": "چهارمحال و بختیاری",
    "name_default": "Chaharmahal and Bakhtiari",
    "native": "چهارمحال و بختیاری",
    "type": "province",
    "level": null,
    "parent_id": null,
    "population": 947763,
    "latitude": "32.01633070",
    "longitude": "50.68570900",
    "timezone": "Asia/Tehran",
    "wikiDataId": "Q171702",
    "country_code": "IR"
  },
  "cities": [
    {
      "id": 150411,
      "name": "آلونی",
      "name_default": "Aluni",
      "native": "خال",
      "type": "city",
      "level": null,
      "parent_id": null,
      "population": 5248,
      "latitude": "31.55421910",
      "longitude": "51.04972240",
      "timezone": "Asia/Tehran",
      "wikiDataId": "Q4359138",
      "country_code": "IR",
      "state_code": "14",
      "state_id": 3921,
      "country_id": 103
    },
    {
      "id": 150380,
      "name": "آردال",
      "name_default": "Ardal",
      "native": "منطقه",
      "type": "city",
      "level": null,
      "parent_id": null,
      "population": 10113,
      "latitude": "32.00501060",
      "longitude": "50.61478550",
      "timezone": "Asia/Tehran",
      "wikiDataId": "Q889142",
      "country_code": "IR",
      "state_code": "14",
      "state_id": 3921,
      "country_id": 103
    },
    {
      "id": 150399,
      "name": "باباحیدر",
      "name_default": "Babaheydar",
      "native": "عیاش",
      "type": "city",
      "level": null,
      "parent_id": null,
      "population": 11202,
      "latitude": "32.33058500",
      "longitude": "50.45960420",
      "timezone": "Asia/Tehran",
      "wikiDataId": "Q2613894",
      "country_code": "IR",
      "state_code": "14",
      "state_id": 3921,
      "country_id": 103
    },
    {
      "id": 150404,
      "name": "بازفت",
      "name_default": "Bazoft",
      "native": "محفل",
      "type": "city",
      "level": null,
      "parent_id": null,
      "population": 0,
      "latitude": "32.20000000",
      "longitude": "50.05000000",
      "timezone": "Asia/Tehran",
      "wikiDataId": "Q16256200",
      "country_code": "IR",
      "state_code": "14",
      "state_id": 3921,
      "country_id": 103
    },
    {
      "id": 134586,
      "name": "بن",
      "name_default": "Ben",
      "native": "سعادت",
      "type": "adm2",
      "level": null,
      "parent_id": null,
      "population": 0,
      "latitude": "32.53556000",
      "longitude": "50.75201000",
      "timezone": "Asia/Tehran",
      "wikiDataId": "Q814594",
      "country_code": "IR",
      "state_code": "14",
      "state_id": 3921,
      "country_id": 103
    },
    {
      "id": 150385,
      "name": "بلداجی",
      "name_default": "Boldaji",
      "native": "بولدیجی",
      "type": "city",
      "level": null,
      "parent_id": null,
      "population": 11980,
      "latitude": "31.93677560",
      "longitude": "51.04458330",
      "timezone": "Asia/Tehran",
      "wikiDataId": "Q888770",
      "country_code": "IR",
      "state_code": "14",
      "state_id": 3921,
      "country_id": 103
    },
    {
      "id": 150384,
      "name": "بروجن",
      "name_default": "Boroujen",
      "native": "بوروجن",
      "type": "adm2",
      "level": null,
      "parent_id": null,
      "population": null,
      "latitude": "31.97268680",
      "longitude": "51.27156200",
      "timezone": "Asia/Tehran",
      "wikiDataId": "Q888701",
      "country_code": "IR",
      "state_code": "14",
      "state_id": 3921,
      "country_id": 103
    },
    {
      "id": 134590,
      "name": "بروجن",
      "name_default": "Borujen",
      "native": "غوغا",
      "type": "adm2",
      "level": null,
      "parent_id": null,
      "population": 57071,
      "latitude": "31.96523000",
      "longitude": "51.28730000",
      "timezone": "Asia/Tehran",
      "wikiDataId": "Q888701",
      "country_code": "IR",
      "state_code": "14",
      "state_id": 3921,
      "country_id": 103
    },
    {
      "id": 134607,
      "name": "چلگرد",
      "name_default": "Chelgard",
      "native": "چلگارد",
      "type": "adm2",
      "level": null,
      "parent_id": null,
      "population": 0,
      "latitude": "32.46720000",
      "longitude": "50.12229000",
      "timezone": "Asia/Tehran",
      "wikiDataId": "Q2634871",
      "country_code": "IR",
      "state_code": "14",
      "state_id": 3921,
      "country_id": 103
    },
    {
      "id": 150405,
      "name": "چلگرد",
      "name_default": "Chelgerd",
      "native": "چلبر",
      "type": "adm2",
      "level": null,
      "parent_id": null,
      "population": 0,
      "latitude": "32.46261960",
      "longitude": "50.12346200",
      "timezone": "Asia/Tehran",
      "wikiDataId": "Q2634871",
      "country_code": "IR",
      "state_code": "14",
      "state_id": 3921,
      "country_id": 103
    },
    {
      "id": 150402,
      "name": "چولیچه",
      "name_default": "Choliche",
      "native": "کولیچ",
      "type": "city",
      "level": null,
      "parent_id": null,
      "population": null,
      "latitude": "32.23196940",
      "longitude": "50.62066420",
      "timezone": "Asia/Tehran",
      "wikiDataId": null,
      "country_code": "IR",
      "state_code": "14",
      "state_id": 3921,
      "country_id": 103
    },
    {
      "id": 150381,
      "name": "دشتک",
      "name_default": "Dashtak",
      "native": "دشتک",
      "type": "city",
      "level": null,
      "parent_id": null,
      "population": null,
      "latitude": "32.16260720",
      "longitude": "50.44992680",
      "timezone": "Asia/Tehran",
      "wikiDataId": "Q5226739",
      "country_code": "IR",
      "state_code": "14",
      "state_id": 3921,
      "country_id": 103
    },
    {
      "id": 150407,
      "name": "دستنا",
      "name_default": "Dastena",
      "native": "خندق",
      "type": "city",
      "level": null,
      "parent_id": null,
      "population": null,
      "latitude": "32.05881780",
      "longitude": "50.76100940",
      "timezone": "Asia/Tehran",
      "wikiDataId": null,
      "country_code": "IR",
      "state_code": "14",
      "state_id": 3921,
      "country_id": 103
    },
    {
      "id": 150387,
      "name": "فرادنبه",
      "name_default": "Faradonbeh",
      "native": "فرادوب",
      "type": "city",
      "level": null,
      "parent_id": null,
      "population": 0,
      "latitude": "32.00967370",
      "longitude": "51.19972210",
      "timezone": "Asia/Tehran",
      "wikiDataId": "Q613501",
      "country_code": "IR",
      "state_code": "14",
      "state_id": 3921,
      "country_id": 103
    },
    {
      "id": 134637,
      "name": "فرخ شهر",
      "name_default": "Farrokh Shahr",
      "native": "فرخ شاه",
      "type": "city",
      "level": null,
      "parent_id": null,
      "population": 31739,
      "latitude": "32.27174000",
      "longitude": "50.98008000",
      "timezone": "Asia/Tehran",
      "wikiDataId": "Q2614253",
      "country_code": "IR",
      "state_code": "14",
      "state_id": 3921,
      "country_id": 103
    },
    {
      "id": 134641,
      "name": "فارسان",
      "name_default": "Farsan",
      "native": "پدر",
      "type": "adm2",
      "level": null,
      "parent_id": null,
      "population": 30504,
      "latitude": "32.25694000",
      "longitude": "50.56095000",
      "timezone": "Asia/Tehran",
      "wikiDataId": "Q2325495",
      "country_code": "IR",
      "state_code": "14",
      "state_id": 3921,
      "country_id": 103
    },
    {
      "id": 150409,
      "name": "گهرو",
      "name_default": "Gahru",
      "native": "گوررو",
      "type": "city",
      "level": null,
      "parent_id": null,
      "population": 6263,
      "latitude": "32.00802020",
      "longitude": "50.87719190",
      "timezone": "Asia/Tehran",
      "wikiDataId": "Q2607247",
      "country_code": "IR",
      "state_code": "14",
      "state_id": 3921,
      "country_id": 103
    },
    {
      "id": 150388,
      "name": "گندمان",
      "name_default": "Gandoman",
      "native": "گودمن",
      "type": "city",
      "level": null,
      "parent_id": null,
      "population": 6291,
      "latitude": "31.86348680",
      "longitude": "51.13710870",
      "timezone": "Asia/Tehran",
      "wikiDataId": "Q888388",
      "country_code": "IR",
      "state_code": "14",
      "state_id": 3921,
      "country_id": 103
    },
    {
      "id": 150403,
      "name": "گوجان",
      "name_default": "Gujan",
      "native": "گژان",
      "type": "city",
      "level": null,
      "parent_id": null,
      "population": 6179,
      "latitude": "32.24561880",
      "longitude": "50.54045680",
      "timezone": "Asia/Tehran",
      "wikiDataId": "Q5103164",
      "country_code": "IR",
      "state_code": "14",
      "state_id": 3921,
      "country_id": 103
    },
    {
      "id": 150397,
      "name": "هارونی",
      "name_default": "Haarooni",
      "native": "ساینون",
      "type": "city",
      "level": null,
      "parent_id": null,
      "population": null,
      "latitude": "32.39291700",
      "longitude": "50.56652790",
      "timezone": "Asia/Tehran",
      "wikiDataId": null,
      "country_code": "IR",
      "state_code": "14",
      "state_id": 3921,
      "country_id": 103
    },
    {
      "id": 150398,
      "name": "هفشجان",
      "name_default": "Hafshejan",
      "native": "هفشجان",
      "type": "city",
      "level": null,
      "parent_id": null,
      "population": 21352,
      "latitude": "32.22555600",
      "longitude": "50.79388900",
      "timezone": "Asia/Tehran",
      "wikiDataId": "Q2614231",
      "country_code": "IR",
      "state_code": "14",
      "state_id": 3921,
      "country_id": 103
    },
    {
      "id": 150401,
      "name": "جونقان",
      "name_default": "Junqan",
      "native": "جنگی",
      "type": "adm2",
      "level": null,
      "parent_id": null,
      "population": null,
      "latitude": "32.15297870",
      "longitude": "50.67785030",
      "timezone": "Asia/Tehran",
      "wikiDataId": "Q2610947",
      "country_code": "IR",
      "state_code": "14",
      "state_id": 3921,
      "country_id": 103
    },
    {
      "id": 150383,
      "name": "کاج",
      "name_default": "Kaj",
      "native": "وت",
      "type": "city",
      "level": null,
      "parent_id": null,
      "population": 347,
      "latitude": "32.05868180",
      "longitude": "50.57817940",
      "timezone": "Asia/Tehran",
      "wikiDataId": "Q6348767",
      "country_code": "IR",
      "state_code": "14",
      "state_id": 3921,
      "country_id": 103
    },
    {
      "id": 150412,
      "name": "کال گه سردشت",
      "name_default": "Kal Geh-ye Sardasht",
      "native": "کال گه سردشت",
      "type": "city",
      "level": null,
      "parent_id": null,
      "population": null,
      "latitude": "31.39583300",
      "longitude": "50.83583300",
      "timezone": "Asia/Tehran",
      "wikiDataId": "Q5851969",
      "country_code": "IR",
      "state_code": "14",
      "state_id": 3921,
      "country_id": 103
    },
    {
      "id": 134937,
      "name": "کیار",
      "name_default": "Kiar",
      "native": "کیم",
      "type": "city",
      "level": null,
      "parent_id": null,
      "population": 50976,
      "latitude": "32.00000000",
      "longitude": "50.76667000",
      "timezone": "Asia/Tehran",
      "wikiDataId": "Q1264551",
      "country_code": "IR",
      "state_code": "14",
      "state_id": 3921,
      "country_id": 103
    },
    {
      "id": 134940,
      "name": "کوهرنگ",
      "name_default": "Kuhrang",
      "native": "قاهره",
      "type": "city",
      "level": null,
      "parent_id": null,
      "population": 41535,
      "latitude": "32.41667000",
      "longitude": "50.00000000",
      "timezone": "Asia/Tehran",
      "wikiDataId": "Q1264551",
      "country_code": "IR",
      "state_code": "14",
      "state_id": 3921,
      "country_id": 103
    },
    {
      "id": 134943,
      "name": "لردگان",
      "name_default": "Lordegan",
      "native": "لردگان",
      "type": "adm2",
      "level": null,
      "parent_id": null,
      "population": 40528,
      "latitude": "31.43333000",
      "longitude": "50.83333000",
      "timezone": "Asia/Tehran",
      "wikiDataId": "Q1264551",
      "country_code": "IR",
      "state_code": "14",
      "state_id": 3921,
      "country_id": 103
    },
    {
      "id": 150413,
      "name": "مال خلیفه",
      "name_default": "Mal-e Khalifeh",
      "native": "خلیفه",
      "type": "city",
      "level": null,
      "parent_id": null,
      "population": 4024,
      "latitude": "31.29168000",
      "longitude": "51.25682120",
      "timezone": "Asia/Tehran",
      "wikiDataId": "Q4358628",
      "country_code": "IR",
      "state_code": "14",
      "state_id": 3921,
      "country_id": 103
    },
    {
      "id": 150414,
      "name": "منج",
      "name_default": "Menj",
      "native": "رفتن",
      "type": "city",
      "level": null,
      "parent_id": null,
      "population": null,
      "latitude": "31.48467380",
      "longitude": "50.87308270",
      "timezone": "Asia/Tehran",
      "wikiDataId": null,
      "country_code": "IR",
      "state_code": "14",
      "state_id": 3921,
      "country_id": 103
    },
    {
      "id": 150396,
      "name": "نافچ",
      "name_default": "Nafch",
      "native": "نفی",
      "type": "city",
      "level": null,
      "parent_id": null,
      "population": null,
      "latitude": "32.42311540",
      "longitude": "50.77988140",
      "timezone": "Asia/Tehran",
      "wikiDataId": "Q4371207",
      "country_code": "IR",
      "state_code": "14",
      "state_id": 3921,
      "country_id": 103
    },
    {
      "id": 150410,
      "name": "ناغان",
      "name_default": "Naghan",
      "native": "مارشال",
      "type": "city",
      "level": null,
      "parent_id": null,
      "population": 6125,
      "latitude": "31.93457630",
      "longitude": "50.72042630",
      "timezone": "Asia/Tehran",
      "wikiDataId": "Q2607273",
      "country_code": "IR",
      "state_code": "14",
      "state_id": 3921,
      "country_id": 103
    },
    {
      "id": 150389,
      "name": "نقنه",
      "name_default": "Naghneh",
      "native": "ناله",
      "type": "city",
      "level": null,
      "parent_id": null,
      "population": null,
      "latitude": "31.93395290",
      "longitude": "51.32190230",
      "timezone": "Asia/Tehran",
      "wikiDataId": null,
      "country_code": "IR",
      "state_code": "14",
      "state_id": 3921,
      "country_id": 103
    },
    {
      "id": 150400,
      "name": "پردنجان",
      "name_default": "Pordanjan",
      "native": "زن",
      "type": "city",
      "level": null,
      "parent_id": null,
      "population": null,
      "latitude": "32.25403890",
      "longitude": "50.59079640",
      "timezone": "Asia/Tehran",
      "wikiDataId": "Q5103207",
      "country_code": "IR",
      "state_code": "14",
      "state_id": 3921,
      "country_id": 103
    },
    {
      "id": 134764,
      "name": "سامان",
      "name_default": "Saman",
      "native": "با هم",
      "type": "adm2",
      "level": null,
      "parent_id": null,
      "population": 14192,
      "latitude": "32.44980000",
      "longitude": "50.91379000",
      "timezone": "Asia/Tehran",
      "wikiDataId": "Q765806",
      "country_code": "IR",
      "state_code": "14",
      "state_id": 3921,
      "country_id": 103
    },
    {
      "id": 150406,
      "name": "صمصامی",
      "name_default": "Samsami",
      "native": "سامسامی",
      "type": "city",
      "level": null,
      "parent_id": null,
      "population": 1203,
      "latitude": "32.16811120",
      "longitude": "50.27090540",
      "timezone": "Asia/Tehran",
      "wikiDataId": "Q7410311",
      "country_code": "IR",
      "state_code": "14",
      "state_id": 3921,
      "country_id": 103
    },
    {
      "id": 150382,
      "name": "سرخون",
      "name_default": "SarKhun",
      "native": "سارخون",
      "type": "city",
      "level": null,
      "parent_id": null,
      "population": null,
      "latitude": "31.74577700",
      "longitude": "50.54092890",
      "timezone": "Asia/Tehran",
      "wikiDataId": null,
      "country_code": "IR",
      "state_code": "14",
      "state_id": 3921,
      "country_id": 103
    },
    {
      "id": 150386,
      "name": "سفیددشت",
      "name_default": "Sefiddasht",
      "native": "سفییدشت",
      "type": "city",
      "level": null,
      "parent_id": null,
      "population": 5471,
      "latitude": "32.13223020",
      "longitude": "51.17423050",
      "timezone": "Asia/Tehran",
      "wikiDataId": "Q888966",
      "country_code": "IR",
      "state_code": "14",
      "state_id": 3921,
      "country_id": 103
    },
    {
      "id": 134783,
      "name": "شهرکرد",
      "name_default": "Shahrekord",
      "native": "شاهرکورد",
      "type": "city",
      "level": null,
      "parent_id": null,
      "population": 315980,
      "latitude": "32.31667000",
      "longitude": "50.80000000",
      "timezone": "Asia/Tehran",
      "wikiDataId": "Q386649",
      "country_code": "IR",
      "state_code": "14",
      "state_id": 3921,
      "country_id": 103
    },
    {
      "id": 150395,
      "name": "شهرکیان",
      "name_default": "ShahrKian",
      "native": "شهربار",
      "type": "adm1",
      "level": null,
      "parent_id": null,
      "population": null,
      "latitude": "32.28446520",
      "longitude": "50.88317860",
      "timezone": "Asia/Tehran",
      "wikiDataId": null,
      "country_code": "IR",
      "state_code": "14",
      "state_id": 3921,
      "country_id": 103
    },
    {
      "id": 150408,
      "name": "شلمزار",
      "name_default": "Shalamzar",
      "native": "ساحلی",
      "type": "adm2",
      "level": null,
      "parent_id": null,
      "population": 6899,
      "latitude": "32.04720560",
      "longitude": "50.80899950",
      "timezone": "Asia/Tehran",
      "wikiDataId": "Q888936",
      "country_code": "IR",
      "state_code": "14",
      "state_id": 3921,
      "country_id": 103
    },
    {
      "id": 150391,
      "name": "سودجان",
      "name_default": "Sudejan",
      "native": "سعدی",
      "type": "city",
      "level": null,
      "parent_id": null,
      "population": null,
      "latitude": "32.52143210",
      "longitude": "50.39623970",
      "timezone": "Asia/Tehran",
      "wikiDataId": null,
      "country_code": "IR",
      "state_code": "14",
      "state_id": 3921,
      "country_id": 103
    },
    {
      "id": 150392,
      "name": "سورشجان",
      "name_default": "Sureshjan",
      "native": "سورسیان",
      "type": "city",
      "level": null,
      "parent_id": null,
      "population": 12308,
      "latitude": "32.31709400",
      "longitude": "50.67117690",
      "timezone": "Asia/Tehran",
      "wikiDataId": "Q2613878",
      "country_code": "IR",
      "state_code": "14",
      "state_id": 3921,
      "country_id": 103
    },
    {
      "id": 150393,
      "name": "طاقانک",
      "name_default": "Taqanak",
      "native": "طقناک",
      "type": "city",
      "level": null,
      "parent_id": null,
      "population": 6170,
      "latitude": "32.22333300",
      "longitude": "50.83861100",
      "timezone": "Asia/Tehran",
      "wikiDataId": "Q2607265",
      "country_code": "IR",
      "state_code": "14",
      "state_id": 3921,
      "country_id": 103
    },
    {
      "id": 150390,
      "name": "وردنجان",
      "name_default": "Vardanjan",
      "native": "وردنجان",
      "type": "adm2",
      "level": null,
      "parent_id": null,
      "population": null,
      "latitude": "32.47903740",
      "longitude": "50.75005520",
      "timezone": "Asia/Tehran",
      "wikiDataId": "Q7915537",
      "country_code": "IR",
      "state_code": "14",
      "state_id": 3921,
      "country_id": 103
    }
  ]
}
