{
  "locale": "zh-CN",
  "country": {
    "id": 22,
    "code": "BE",
    "iso3": "BEL",
    "numeric_code": "056",
    "name": "比利时",
    "name_default": "Belgium",
    "native": "België",
    "capital": "Brussels",
    "phonecode": "32",
    "currency": "EUR",
    "currency_name": "Euro",
    "currency_symbol": "€",
    "tld": ".be",
    "population": 11825551,
    "gdp": 684864,
    "region": "Europe",
    "region_id": 4,
    "subregion": "Western Europe",
    "subregion_id": 17,
    "nationality": "Belgian",
    "timezones": [
      {
        "zoneName": "Europe/Brussels",
        "gmtOffset": 3600,
        "gmtOffsetName": "UTC+01:00",
        "abbreviation": "CET",
        "tzName": "Central European Time"
      }
    ],
    "latitude": "50.83333333",
    "longitude": "4.00000000",
    "emoji": "🇧🇪",
    "emojiU": "U+1F1E7 U+1F1EA"
  },
  "state": {
    "id": 1373,
    "code": "VLG",
    "iso2": "VLG",
    "iso3166_2": "BE-VLG",
    "fips_code": "VLG",
    "name": "佛兰德斯",
    "name_default": "Flanders",
    "native": "Vlaanderen",
    "type": "region",
    "level": "1",
    "parent_id": null,
    "population": 6821770,
    "latitude": "51.09624620",
    "longitude": "4.17862910",
    "timezone": "Europe/Brussels",
    "wikiDataId": "Q234",
    "country_code": "BE"
  },
  "cities": [
    {
      "id": 8608,
      "name": "阿尔斯特",
      "name_default": "Aalst",
      "native": "Aalst",
      "type": "city",
      "level": null,
      "parent_id": null,
      "population": 77534,
      "latitude": "50.93604000",
      "longitude": "4.03550000",
      "timezone": "Europe/Brussels",
      "wikiDataId": "Q21770022",
      "country_code": "BE",
      "state_code": "VLG",
      "state_id": 1373,
      "country_id": 22
    },
    {
      "id": 8609,
      "name": "阿尔特",
      "name_default": "Aalter",
      "native": "Aalter",
      "type": "city",
      "level": null,
      "parent_id": null,
      "population": 18802,
      "latitude": "51.09017000",
      "longitude": "3.44693000",
      "timezone": "Europe/Brussels",
      "wikiDataId": "Q21770025",
      "country_code": "BE",
      "state_code": "VLG",
      "state_id": 1373,
      "country_id": 22
    },
    {
      "id": 8610,
      "name": "阿尔斯霍特",
      "name_default": "Aarschot",
      "native": "Aarschot",
      "type": "city",
      "level": null,
      "parent_id": null,
      "population": 29965,
      "latitude": "50.98715000",
      "longitude": "4.83695000",
      "timezone": "Europe/Brussels",
      "wikiDataId": "Q12358108",
      "country_code": "BE",
      "state_code": "VLG",
      "state_id": 1373,
      "country_id": 22
    },
    {
      "id": 8611,
      "name": "阿尔特拉尔",
      "name_default": "Aartselaar",
      "native": "Aartselaar",
      "type": "city",
      "level": null,
      "parent_id": null,
      "population": 14610,
      "latitude": "51.13412000",
      "longitude": "4.38678000",
      "timezone": "Europe/Brussels",
      "wikiDataId": "Q21770026",
      "country_code": "BE",
      "state_code": "VLG",
      "state_id": 1373,
      "country_id": 22
    },
    {
      "id": 8613,
      "name": "阿尔肯",
      "name_default": "Alken",
      "native": "Alken",
      "type": "city",
      "level": null,
      "parent_id": null,
      "population": 11757,
      "latitude": "50.87553000",
      "longitude": "5.30558000",
      "timezone": "Europe/Brussels",
      "wikiDataId": "Q21770050",
      "country_code": "BE",
      "state_code": "VLG",
      "state_id": 1373,
      "country_id": 22
    },
    {
      "id": 8614,
      "name": "阿尔弗林厄姆",
      "name_default": "Alveringem",
      "native": "Alveringem",
      "type": "city",
      "level": null,
      "parent_id": null,
      "population": 5089,
      "latitude": "51.01238000",
      "longitude": "2.71117000",
      "timezone": "Europe/Brussels",
      "wikiDataId": "Q21770057",
      "country_code": "BE",
      "state_code": "VLG",
      "state_id": 1373,
      "country_id": 22
    },
    {
      "id": 8623,
      "name": "安特卫普",
      "name_default": "Antwerpen",
      "native": "Antwerpen",
      "type": "city",
      "level": null,
      "parent_id": null,
      "population": null,
      "latitude": "51.21989000",
      "longitude": "4.40346000",
      "timezone": "Europe/Brussels",
      "wikiDataId": "Q31467408",
      "country_code": "BE",
      "state_code": "VLG",
      "state_id": 1373,
      "country_id": 22
    },
    {
      "id": 8624,
      "name": "安泽海姆",
      "name_default": "Anzegem",
      "native": "Anzegem",
      "type": "city",
      "level": null,
      "parent_id": null,
      "population": 14609,
      "latitude": "50.83700000",
      "longitude": "3.47786000",
      "timezone": "Europe/Brussels",
      "wikiDataId": "Q21770084",
      "country_code": "BE",
      "state_code": "VLG",
      "state_id": 1373,
      "country_id": 22
    },
    {
      "id": 8625,
      "name": "阿杜伊",
      "name_default": "Ardooie",
      "native": "Ardooie",
      "type": "city",
      "level": null,
      "parent_id": null,
      "population": 8988,
      "latitude": "50.97570000",
      "longitude": "3.19736000",
      "timezone": "Europe/Brussels",
      "wikiDataId": "Q21770087",
      "country_code": "BE",
      "state_code": "VLG",
      "state_id": 1373,
      "country_id": 22
    },
    {
      "id": 8626,
      "name": "阿伦东克",
      "name_default": "Arendonk",
      "native": "Arendonk",
      "type": "city",
      "level": null,
      "parent_id": null,
      "population": 13290,
      "latitude": "51.32267000",
      "longitude": "5.08289000",
      "timezone": "Europe/Brussels",
      "wikiDataId": "Q21770093",
      "country_code": "BE",
      "state_code": "VLG",
      "state_id": 1373,
      "country_id": 22
    },
    {
      "id": 8628,
      "name": "作为",
      "name_default": "As",
      "native": "Als",
      "type": "city",
      "level": null,
      "parent_id": null,
      "population": 8190,
      "latitude": "51.00755000",
      "longitude": "5.58453000",
      "timezone": "Europe/Brussels",
      "wikiDataId": "Q21770097",
      "country_code": "BE",
      "state_code": "VLG",
      "state_id": 1373,
      "country_id": 22
    },
    {
      "id": 8629,
      "name": "阿塞",
      "name_default": "Asse",
      "native": "Asse",
      "type": "city",
      "level": null,
      "parent_id": null,
      "population": 32958,
      "latitude": "50.91011000",
      "longitude": "4.19836000",
      "timezone": "Europe/Brussels",
      "wikiDataId": "Q31469777",
      "country_code": "BE",
      "state_code": "VLG",
      "state_id": 1373,
      "country_id": 22
    },
    {
      "id": 8630,
      "name": "阿塞内德",
      "name_default": "Assenede",
      "native": "Assenede",
      "type": "city",
      "level": null,
      "parent_id": null,
      "population": 14200,
      "latitude": "51.22598000",
      "longitude": "3.75085000",
      "timezone": "Europe/Brussels",
      "wikiDataId": "Q21770102",
      "country_code": "BE",
      "state_code": "VLG",
      "state_id": 1373,
      "country_id": 22
    },
    {
      "id": 8636,
      "name": "阿夫尔赫姆",
      "name_default": "Avelgem",
      "native": "Avelgem",
      "type": "city",
      "level": null,
      "parent_id": null,
      "population": 10065,
      "latitude": "50.77618000",
      "longitude": "3.44502000",
      "timezone": "Europe/Brussels",
      "wikiDataId": "Q21770132",
      "country_code": "BE",
      "state_code": "VLG",
      "state_id": 1373,
      "country_id": 22
    },
    {
      "id": 8639,
      "name": "巴勒-赫尔托赫",
      "name_default": "Baarle-Hertog",
      "native": "Baarle-Hertog",
      "type": "city",
      "level": null,
      "parent_id": null,
      "population": 2865,
      "latitude": "51.40504000",
      "longitude": "4.89226000",
      "timezone": "Europe/Brussels",
      "wikiDataId": "Q21770147",
      "country_code": "BE",
      "state_code": "VLG",
      "state_id": 1373,
      "country_id": 22
    },
    {
      "id": 8641,
      "name": "巴伦",
      "name_default": "Balen",
      "native": "Balen",
      "type": "city",
      "level": null,
      "parent_id": null,
      "population": 22813,
      "latitude": "51.16837000",
      "longitude": "5.17027000",
      "timezone": "Europe/Brussels",
      "wikiDataId": "Q2543386",
      "country_code": "BE",
      "state_code": "VLG",
      "state_id": 1373,
      "country_id": 22
    },
    {
      "id": 8648,
      "name": "贝尔内姆",
      "name_default": "Beernem",
      "native": "Beernem",
      "type": "city",
      "level": null,
      "parent_id": null,
      "population": 15687,
      "latitude": "51.13981000",
      "longitude": "3.33896000",
      "timezone": "Europe/Brussels",
      "wikiDataId": "Q21770227",
      "country_code": "BE",
      "state_code": "VLG",
      "state_id": 1373,
      "country_id": 22
    },
    {
      "id": 8649,
      "name": "贝尔瑟",
      "name_default": "Beerse",
      "native": "Beerse",
      "type": "city",
      "level": null,
      "parent_id": null,
      "population": 18128,
      "latitude": "51.31927000",
      "longitude": "4.85304000",
      "timezone": "Europe/Brussels",
      "wikiDataId": "Q21770228",
      "country_code": "BE",
      "state_code": "VLG",
      "state_id": 1373,
      "country_id": 22
    },
    {
      "id": 8650,
      "name": "贝尔塞尔",
      "name_default": "Beersel",
      "native": "Beersel",
      "type": "city",
      "level": null,
      "parent_id": null,
      "population": 25069,
      "latitude": "50.76589000",
      "longitude": "4.30020000",
      "timezone": "Europe/Brussels",
      "wikiDataId": "Q31495214",
      "country_code": "BE",
      "state_code": "VLG",
      "state_id": 1373,
      "country_id": 22
    },
    {
      "id": 8651,
      "name": "贝吉嫩代克",
      "name_default": "Begijnendijk",
      "native": "Begijnendijk",
      "type": "city",
      "level": null,
      "parent_id": null,
      "population": 10053,
      "latitude": "51.01942000",
      "longitude": "4.78377000",
      "timezone": "Europe/Brussels",
      "wikiDataId": "Q21770234",
      "country_code": "BE",
      "state_code": "VLG",
      "state_id": 1373,
      "country_id": 22
    },
    {
      "id": 8652,
      "name": "贝克沃特",
      "name_default": "Bekkevoort",
      "native": "Bekkevoort",
      "type": "city",
      "level": null,
      "parent_id": null,
      "population": 6274,
      "latitude": "50.94074000",
      "longitude": "4.96900000",
      "timezone": "Europe/Brussels",
      "wikiDataId": "Q21770237",
      "country_code": "BE",
      "state_code": "VLG",
      "state_id": 1373,
      "country_id": 22
    },
    {
      "id": 8654,
      "name": "贝林根",
      "name_default": "Beringen",
      "native": "Beringen",
      "type": "city",
      "level": null,
      "parent_id": null,
      "population": 46065,
      "latitude": "51.04954000",
      "longitude": "5.22606000",
      "timezone": "Europe/Brussels",
      "wikiDataId": "Q31496998",
      "country_code": "BE",
      "state_code": "VLG",
      "state_id": 1373,
      "country_id": 22
    },
    {
      "id": 8655,
      "name": "贝尔拉尔",
      "name_default": "Berlaar",
      "native": "Berlaar",
      "type": "city",
      "level": null,
      "parent_id": null,
      "population": 11656,
      "latitude": "51.11760000",
      "longitude": "4.65835000",
      "timezone": "Europe/Brussels",
      "wikiDataId": "Q21770271",
      "country_code": "BE",
      "state_code": "VLG",
      "state_id": 1373,
      "country_id": 22
    },
    {
      "id": 8656,
      "name": "贝拉雷",
      "name_default": "Berlare",
      "native": "Berlare",
      "type": "city",
      "level": null,
      "parent_id": null,
      "population": 14849,
      "latitude": "51.03333000",
      "longitude": "4.00000000",
      "timezone": "Europe/Brussels",
      "wikiDataId": "Q21770273",
      "country_code": "BE",
      "state_code": "VLG",
      "state_id": 1373,
      "country_id": 22
    },
    {
      "id": 8659,
      "name": "贝尔特姆",
      "name_default": "Bertem",
      "native": "Bertem",
      "type": "city",
      "level": null,
      "parent_id": null,
      "population": 9958,
      "latitude": "50.86403000",
      "longitude": "4.62918000",
      "timezone": "Europe/Brussels",
      "wikiDataId": "Q21770285",
      "country_code": "BE",
      "state_code": "VLG",
      "state_id": 1373,
      "country_id": 22
    },
    {
      "id": 8662,
      "name": "贝弗",
      "name_default": "Bever",
      "native": "Bank",
      "type": "city",
      "level": null,
      "parent_id": null,
      "population": 2204,
      "latitude": "50.91667000",
      "longitude": "4.31667000",
      "timezone": "Europe/Brussels",
      "wikiDataId": "Q21770305",
      "country_code": "BE",
      "state_code": "VLG",
      "state_id": 1373,
      "country_id": 22
    },
    {
      "id": 8663,
      "name": "贝弗伦",
      "name_default": "Beveren",
      "native": "Beveren",
      "type": "city",
      "level": null,
      "parent_id": null,
      "population": 45179,
      "latitude": "51.21187000",
      "longitude": "4.25633000",
      "timezone": "Europe/Brussels",
      "wikiDataId": "Q31498075",
      "country_code": "BE",
      "state_code": "VLG",
      "state_id": 1373,
      "country_id": 22
    },
    {
      "id": 8665,
      "name": "比尔贝克",
      "name_default": "Bierbeek",
      "native": "Bierbeek",
      "type": "city",
      "level": null,
      "parent_id": null,
      "population": 10025,
      "latitude": "50.82876000",
      "longitude": "4.75949000",
      "timezone": "Europe/Brussels",
      "wikiDataId": "Q21770318",
      "country_code": "BE",
      "state_code": "VLG",
      "state_id": 1373,
      "country_id": 22
    },
    {
      "id": 8666,
      "name": "比尔森",
      "name_default": "Bilzen",
      "native": "Bilzen",
      "type": "city",
      "level": null,
      "parent_id": null,
      "population": 29622,
      "latitude": "50.87325000",
      "longitude": "5.51840000",
      "timezone": "Europe/Brussels",
      "wikiDataId": "Q31501520",
      "country_code": "BE",
      "state_code": "VLG",
      "state_id": 1373,
      "country_id": 22
    },
    {
      "id": 8669,
      "name": "布兰肯贝赫",
      "name_default": "Blankenberge",
      "native": "Blankenberge",
      "type": "city",
      "level": null,
      "parent_id": null,
      "population": 20349,
      "latitude": "51.31306000",
      "longitude": "3.13227000",
      "timezone": "Europe/Brussels",
      "wikiDataId": "Q328104",
      "country_code": "BE",
      "state_code": "VLG",
      "state_id": 1373,
      "country_id": 22
    },
    {
      "id": 8671,
      "name": "博霍尔特",
      "name_default": "Bocholt",
      "native": "Bocholt",
      "type": "city",
      "level": null,
      "parent_id": null,
      "population": 13085,
      "latitude": "51.17337000",
      "longitude": "5.57994000",
      "timezone": "Europe/Brussels",
      "wikiDataId": "Q21770354",
      "country_code": "BE",
      "state_code": "VLG",
      "state_id": 1373,
      "country_id": 22
    },
    {
      "id": 8672,
      "name": "布乔特",
      "name_default": "Boechout",
      "native": "Boechout",
      "type": "city",
      "level": null,
      "parent_id": null,
      "population": 13372,
      "latitude": "51.15959000",
      "longitude": "4.49195000",
      "timezone": "Europe/Brussels",
      "wikiDataId": "Q21770358",
      "country_code": "BE",
      "state_code": "VLG",
      "state_id": 1373,
      "country_id": 22
    },
    {
      "id": 8673,
      "name": "邦海登",
      "name_default": "Bonheiden",
      "native": "Bonheiden",
      "type": "city",
      "level": null,
      "parent_id": null,
      "population": 1840,
      "latitude": "51.02261000",
      "longitude": "4.54714000",
      "timezone": "Europe/Brussels",
      "wikiDataId": "Q21770391",
      "country_code": "BE",
      "state_code": "VLG",
      "state_id": 1373,
      "country_id": 22
    },
    {
      "id": 8674,
      "name": "繁荣",
      "name_default": "Boom",
      "native": "Boom",
      "type": "city",
      "level": null,
      "parent_id": null,
      "population": 18555,
      "latitude": "51.09242000",
      "longitude": "4.37170000",
      "timezone": "Europe/Brussels",
      "wikiDataId": "Q21770396",
      "country_code": "BE",
      "state_code": "VLG",
      "state_id": 1373,
      "country_id": 22
    },
    {
      "id": 8675,
      "name": "博特梅尔贝克",
      "name_default": "Boortmeerbeek",
      "native": "Boortmeerbeek",
      "type": "city",
      "level": null,
      "parent_id": null,
      "population": 12379,
      "latitude": "50.97929000",
      "longitude": "4.57443000",
      "timezone": "Europe/Brussels",
      "wikiDataId": "Q21770398",
      "country_code": "BE",
      "state_code": "VLG",
      "state_id": 1373,
      "country_id": 22
    },
    {
      "id": 8676,
      "name": "博尔赫隆",
      "name_default": "Borgloon",
      "native": "Borgloon",
      "type": "city",
      "level": null,
      "parent_id": null,
      "population": 9955,
      "latitude": "50.80505000",
      "longitude": "5.34366000",
      "timezone": "Europe/Brussels",
      "wikiDataId": "Q21770402",
      "country_code": "BE",
      "state_code": "VLG",
      "state_id": 1373,
      "country_id": 22
    },
    {
      "id": 8677,
      "name": "博尔内姆",
      "name_default": "Bornem",
      "native": "Bornem",
      "type": "city",
      "level": null,
      "parent_id": null,
      "population": 19997,
      "latitude": "51.09716000",
      "longitude": "4.24364000",
      "timezone": "Europe/Brussels",
      "wikiDataId": "Q31510162",
      "country_code": "BE",
      "state_code": "VLG",
      "state_id": 1373,
      "country_id": 22
    },
    {
      "id": 8678,
      "name": "博尔斯贝克",
      "name_default": "Borsbeek",
      "native": "Borsbeek",
      "type": "city",
      "level": null,
      "parent_id": null,
      "population": 10334,
      "latitude": "51.19661000",
      "longitude": "4.48543000",
      "timezone": "Europe/Brussels",
      "wikiDataId": "Q21770407",
      "country_code": "BE",
      "state_code": "VLG",
      "state_id": 1373,
      "country_id": 22
    },
    {
      "id": 8681,
      "name": "鲍特瑟姆",
      "name_default": "Boutersem",
      "native": "Boutersem",
      "type": "city",
      "level": null,
      "parent_id": null,
      "population": 8167,
      "latitude": "50.83511000",
      "longitude": "4.83450000",
      "timezone": "Europe/Brussels",
      "wikiDataId": "Q21770446",
      "country_code": "BE",
      "state_code": "VLG",
      "state_id": 1373,
      "country_id": 22
    },
    {
      "id": 8686,
      "name": "布拉斯哈特",
      "name_default": "Brasschaat",
      "native": "Brasschaat",
      "type": "city",
      "level": null,
      "parent_id": null,
      "population": 38223,
      "latitude": "51.29120000",
      "longitude": "4.49182000",
      "timezone": "Europe/Brussels",
      "wikiDataId": "Q31511597",
      "country_code": "BE",
      "state_code": "VLG",
      "state_id": 1373,
      "country_id": 22
    },
    {
      "id": 8687,
      "name": "布莱希特",
      "name_default": "Brecht",
      "native": "Brecht",
      "type": "adm4",
      "level": null,
      "parent_id": null,
      "population": 14007,
      "latitude": "51.35024000",
      "longitude": "4.63829000",
      "timezone": "Europe/Brussels",
      "wikiDataId": "Q31511665",
      "country_code": "BE",
      "state_code": "VLG",
      "state_id": 1373,
      "country_id": 22
    },
    {
      "id": 8688,
      "name": "布雷德内",
      "name_default": "Bredene",
      "native": "Bredene",
      "type": "city",
      "level": null,
      "parent_id": null,
      "population": 17828,
      "latitude": "51.23489000",
      "longitude": "2.97559000",
      "timezone": "Europe/Brussels",
      "wikiDataId": "Q21770466",
      "country_code": "BE",
      "state_code": "VLG",
      "state_id": 1373,
      "country_id": 22
    },
    {
      "id": 8689,
      "name": "布里",
      "name_default": "Bree",
      "native": "Bree",
      "type": "city",
      "level": null,
      "parent_id": null,
      "population": 16324,
      "latitude": "51.14152000",
      "longitude": "5.59690000",
      "timezone": "Europe/Brussels",
      "wikiDataId": "Q21770467",
      "country_code": "BE",
      "state_code": "VLG",
      "state_id": 1373,
      "country_id": 22
    },
    {
      "id": 8691,
      "name": "布鲁日",
      "name_default": "Brugge",
      "native": "Bruggen",
      "type": "city",
      "level": null,
      "parent_id": null,
      "population": 118509,
      "latitude": "51.20892000",
      "longitude": "3.22424000",
      "timezone": "Europe/Brussels",
      "wikiDataId": "Q12994",
      "country_code": "BE",
      "state_code": "VLG",
      "state_id": 1373,
      "country_id": 22
    },
    {
      "id": 8694,
      "name": "布根豪特",
      "name_default": "Buggenhout",
      "native": "Buggenhout",
      "type": "city",
      "level": null,
      "parent_id": null,
      "population": 14475,
      "latitude": "51.01590000",
      "longitude": "4.20173000",
      "timezone": "Europe/Brussels",
      "wikiDataId": "Q21770518",
      "country_code": "BE",
      "state_code": "VLG",
      "state_id": 1373,
      "country_id": 22
    },
    {
      "id": 8718,
      "name": "达姆",
      "name_default": "Damme",
      "native": "Dam",
      "type": "city",
      "level": null,
      "parent_id": null,
      "population": 11008,
      "latitude": "51.25147000",
      "longitude": "3.28144000",
      "timezone": "Europe/Brussels",
      "wikiDataId": "Q31560704",
      "country_code": "BE",
      "state_code": "VLG",
      "state_id": 1373,
      "country_id": 22
    },
    {
      "id": 8720,
      "name": "德哈恩",
      "name_default": "De Haan",
      "native": "De Haan",
      "type": "city",
      "level": null,
      "parent_id": null,
      "population": 12635,
      "latitude": "51.27261000",
      "longitude": "3.03446000",
      "timezone": "Europe/Brussels",
      "wikiDataId": "Q21768617",
      "country_code": "BE",
      "state_code": "VLG",
      "state_id": 1373,
      "country_id": 22
    },
    {
      "id": 8721,
      "name": "德帕内",
      "name_default": "De Panne",
      "native": "Uitsplitsing",
      "type": "city",
      "level": null,
      "parent_id": null,
      "population": 11129,
      "latitude": "51.09793000",
      "longitude": "2.59368000",
      "timezone": "Europe/Brussels",
      "wikiDataId": "Q21768633",
      "country_code": "BE",
      "state_code": "VLG",
      "state_id": 1373,
      "country_id": 22
    },
    {
      "id": 8722,
      "name": "德平特",
      "name_default": "De Pinte",
      "native": "Verf",
      "type": "city",
      "level": null,
      "parent_id": null,
      "population": 10020,
      "latitude": "50.99339000",
      "longitude": "3.64747000",
      "timezone": "Europe/Brussels",
      "wikiDataId": "Q21768637",
      "country_code": "BE",
      "state_code": "VLG",
      "state_id": 1373,
      "country_id": 22
    },
    {
      "id": 8723,
      "name": "德尔莱克",
      "name_default": "Deerlijk",
      "native": "Deerlijk",
      "type": "city",
      "level": null,
      "parent_id": null,
      "population": 11796,
      "latitude": "50.85337000",
      "longitude": "3.35416000",
      "timezone": "Europe/Brussels",
      "wikiDataId": "Q21768611",
      "country_code": "BE",
      "state_code": "VLG",
      "state_id": 1373,
      "country_id": 22
    },
    {
      "id": 8724,
      "name": "德因泽",
      "name_default": "Deinze",
      "native": "Deinze",
      "type": "city",
      "level": null,
      "parent_id": null,
      "population": 29815,
      "latitude": "50.98175000",
      "longitude": "3.53096000",
      "timezone": "Europe/Brussels",
      "wikiDataId": "Q31564462",
      "country_code": "BE",
      "state_code": "VLG",
      "state_id": 1373,
      "country_id": 22
    },
    {
      "id": 8725,
      "name": "登德莱乌",
      "name_default": "Denderleeuw",
      "native": "Denderleeuw",
      "type": "city",
      "level": null,
      "parent_id": null,
      "population": 20086,
      "latitude": "50.88506000",
      "longitude": "4.07601000",
      "timezone": "Europe/Brussels",
      "wikiDataId": "Q21768627",
      "country_code": "BE",
      "state_code": "VLG",
      "state_id": 1373,
      "country_id": 22
    },
    {
      "id": 8726,
      "name": "登德尔蒙德",
      "name_default": "Dendermonde",
      "native": "Dendermonde",
      "type": "adm3",
      "level": null,
      "parent_id": null,
      "population": 45673,
      "latitude": "51.02869000",
      "longitude": "4.10106000",
      "timezone": "Europe/Brussels",
      "wikiDataId": "Q31565231",
      "country_code": "BE",
      "state_code": "VLG",
      "state_id": 1373,
      "country_id": 22
    },
    {
      "id": 8727,
      "name": "登特尔海姆",
      "name_default": "Dentergem",
      "native": "Dentergem",
      "type": "adm4",
      "level": null,
      "parent_id": null,
      "population": 2600,
      "latitude": "50.96429000",
      "longitude": "3.41617000",
      "timezone": "Europe/Brussels",
      "wikiDataId": "Q21768632",
      "country_code": "BE",
      "state_code": "VLG",
      "state_id": 1373,
      "country_id": 22
    },
    {
      "id": 8728,
      "name": "德塞尔",
      "name_default": "Dessel",
      "native": "Dessel",
      "type": "adm4",
      "level": null,
      "parent_id": null,
      "population": 2553,
      "latitude": "51.23855000",
      "longitude": "5.11448000",
      "timezone": "Europe/Brussels",
      "wikiDataId": "Q21768646",
      "country_code": "BE",
      "state_code": "VLG",
      "state_id": 1373,
      "country_id": 22
    },
    {
      "id": 8729,
      "name": "德斯特尔贝亨",
      "name_default": "Destelbergen",
      "native": "Destelbergen",
      "type": "city",
      "level": null,
      "parent_id": null,
      "population": 18026,
      "latitude": "51.05952000",
      "longitude": "3.79899000",
      "timezone": "Europe/Brussels",
      "wikiDataId": "Q21768651",
      "country_code": "BE",
      "state_code": "VLG",
      "state_id": 1373,
      "country_id": 22
    },
    {
      "id": 8730,
      "name": "德尔纳",
      "name_default": "Deurne",
      "native": "Deurne",
      "type": "city",
      "level": null,
      "parent_id": null,
      "population": 85283,
      "latitude": "51.22134000",
      "longitude": "4.46595000",
      "timezone": "Europe/Brussels",
      "wikiDataId": "Q21768651",
      "country_code": "BE",
      "state_code": "VLG",
      "state_id": 1373,
      "country_id": 22
    },
    {
      "id": 8731,
      "name": "迪格姆",
      "name_default": "Diegem",
      "native": "Diegem",
      "type": "city",
      "level": null,
      "parent_id": null,
      "population": 5001,
      "latitude": "50.89727000",
      "longitude": "4.43354000",
      "timezone": "Europe/Brussels",
      "wikiDataId": "Q723990",
      "country_code": "BE",
      "state_code": "VLG",
      "state_id": 1373,
      "country_id": 22
    },
    {
      "id": 8732,
      "name": "迪彭贝克",
      "name_default": "Diepenbeek",
      "native": "Diepenbeek",
      "type": "city",
      "level": null,
      "parent_id": null,
      "population": 19137,
      "latitude": "50.90769000",
      "longitude": "5.41875000",
      "timezone": "Europe/Brussels",
      "wikiDataId": "Q21768660",
      "country_code": "BE",
      "state_code": "VLG",
      "state_id": 1373,
      "country_id": 22
    },
    {
      "id": 8733,
      "name": "迪斯特",
      "name_default": "Diest",
      "native": "Diest",
      "type": "city",
      "level": null,
      "parent_id": null,
      "population": 23824,
      "latitude": "50.98923000",
      "longitude": "5.05062000",
      "timezone": "Europe/Brussels",
      "wikiDataId": "Q31566756",
      "country_code": "BE",
      "state_code": "VLG",
      "state_id": 1373,
      "country_id": 22
    },
    {
      "id": 8734,
      "name": "迪克斯迈德",
      "name_default": "Diksmuide",
      "native": "Diksmuide",
      "type": "adm3",
      "level": null,
      "parent_id": null,
      "population": 16739,
      "latitude": "51.03248000",
      "longitude": "2.86384000",
      "timezone": "Europe/Brussels",
      "wikiDataId": "Q21768668",
      "country_code": "BE",
      "state_code": "VLG",
      "state_id": 1373,
      "country_id": 22
    },
    {
      "id": 8735,
      "name": "迪尔贝克",
      "name_default": "Dilbeek",
      "native": "Dilbeek",
      "type": "city",
      "level": null,
      "parent_id": null,
      "population": 42434,
      "latitude": "50.84799000",
      "longitude": "4.25972000",
      "timezone": "Europe/Brussels",
      "wikiDataId": "Q31567150",
      "country_code": "BE",
      "state_code": "VLG",
      "state_id": 1373,
      "country_id": 22
    },
    {
      "id": 8741,
      "name": "德罗亨博斯",
      "name_default": "Drogenbos",
      "native": "Drogenbos",
      "type": "city",
      "level": null,
      "parent_id": null,
      "population": 5599,
      "latitude": "50.78733000",
      "longitude": "4.31471000",
      "timezone": "Europe/Brussels",
      "wikiDataId": "Q31571519",
      "country_code": "BE",
      "state_code": "VLG",
      "state_id": 1373,
      "country_id": 22
    },
    {
      "id": 8742,
      "name": "行李袋",
      "name_default": "Duffel",
      "native": "Plunje",
      "type": "city",
      "level": null,
      "parent_id": null,
      "population": 17664,
      "latitude": "51.09554000",
      "longitude": "4.50903000",
      "timezone": "Europe/Brussels",
      "wikiDataId": "Q21768707",
      "country_code": "BE",
      "state_code": "VLG",
      "state_id": 1373,
      "country_id": 22
    },
    {
      "id": 8744,
      "name": "埃德海姆",
      "name_default": "Edegem",
      "native": "Edegem",
      "type": "city",
      "level": null,
      "parent_id": null,
      "population": 22261,
      "latitude": "51.15662000",
      "longitude": "4.44504000",
      "timezone": "Europe/Brussels",
      "wikiDataId": "Q31575484",
      "country_code": "BE",
      "state_code": "VLG",
      "state_id": 1373,
      "country_id": 22
    },
    {
      "id": 8745,
      "name": "埃克洛",
      "name_default": "Eeklo",
      "native": "Eeklo",
      "type": "adm3",
      "level": null,
      "parent_id": null,
      "population": 20890,
      "latitude": "51.18703000",
      "longitude": "3.55654000",
      "timezone": "Europe/Brussels",
      "wikiDataId": "Q31575952",
      "country_code": "BE",
      "state_code": "VLG",
      "state_id": 1373,
      "country_id": 22
    },
    {
      "id": 8751,
      "name": "埃森",
      "name_default": "Essen",
      "native": "Essen",
      "type": "adm4",
      "level": null,
      "parent_id": null,
      "population": 10000,
      "latitude": "51.46791000",
      "longitude": "4.46901000",
      "timezone": "Europe/Brussels",
      "wikiDataId": "Q21768786",
      "country_code": "BE",
      "state_code": "VLG",
      "state_id": 1373,
      "country_id": 22
    },
    {
      "id": 8755,
      "name": "埃弗海姆",
      "name_default": "Evergem",
      "native": "Evergem",
      "type": "city",
      "level": null,
      "parent_id": null,
      "population": 35239,
      "latitude": "51.11306000",
      "longitude": "3.70976000",
      "timezone": "Europe/Brussels",
      "wikiDataId": "Q31579974",
      "country_code": "BE",
      "state_code": "VLG",
      "state_id": 1373,
      "country_id": 22
    },
    {
      "id": 8773,
      "name": "加尔马登",
      "name_default": "Galmaarden",
      "native": "Galmaarden",
      "type": "city",
      "level": null,
      "parent_id": null,
      "population": 7939,
      "latitude": "50.75389000",
      "longitude": "3.97121000",
      "timezone": "Europe/Brussels",
      "wikiDataId": "Q21768971",
      "country_code": "BE",
      "state_code": "VLG",
      "state_id": 1373,
      "country_id": 22
    },
    {
      "id": 8774,
      "name": "加韦雷",
      "name_default": "Gavere",
      "native": "Gavere",
      "type": "city",
      "level": null,
      "parent_id": null,
      "population": 12769,
      "latitude": "50.92917000",
      "longitude": "3.66184000",
      "timezone": "Europe/Brussels",
      "wikiDataId": "Q21768983",
      "country_code": "BE",
      "state_code": "VLG",
      "state_id": 1373,
      "country_id": 22
    },
    {
      "id": 8776,
      "name": "吉尔",
      "name_default": "Geel",
      "native": "Geel",
      "type": "city",
      "level": null,
      "parent_id": null,
      "population": 41828,
      "latitude": "51.16557000",
      "longitude": "4.98917000",
      "timezone": "Europe/Brussels",
      "wikiDataId": "Q31589706",
      "country_code": "BE",
      "state_code": "VLG",
      "state_id": 1373,
      "country_id": 22
    },
    {
      "id": 8778,
      "name": "吉特贝茨",
      "name_default": "Geetbets",
      "native": "Geetbets",
      "type": "city",
      "level": null,
      "parent_id": null,
      "population": 6035,
      "latitude": "50.89431000",
      "longitude": "5.11199000",
      "timezone": "Europe/Brussels",
      "wikiDataId": "Q21768989",
      "country_code": "BE",
      "state_code": "VLG",
      "state_id": 1373,
      "country_id": 22
    },
    {
      "id": 8781,
      "name": "亨克",
      "name_default": "Genk",
      "native": "Genk",
      "type": "city",
      "level": null,
      "parent_id": null,
      "population": 66110,
      "latitude": "50.96500000",
      "longitude": "5.50082000",
      "timezone": "Europe/Brussels",
      "wikiDataId": "Q21769011",
      "country_code": "BE",
      "state_code": "VLG",
      "state_id": 1373,
      "country_id": 22
    },
    {
      "id": 8782,
      "name": "根特",
      "name_default": "Gent",
      "native": "Gent",
      "type": "city",
      "level": null,
      "parent_id": null,
      "population": 265086,
      "latitude": "51.05000000",
      "longitude": "3.71667000",
      "timezone": "Europe/Brussels",
      "wikiDataId": "Q31590146",
      "country_code": "BE",
      "state_code": "VLG",
      "state_id": 1373,
      "country_id": 22
    },
    {
      "id": 8783,
      "name": "赫拉尔兹贝亨",
      "name_default": "Geraardsbergen",
      "native": "Geraardsbergen",
      "type": "city",
      "level": null,
      "parent_id": null,
      "population": 33403,
      "latitude": "50.77343000",
      "longitude": "3.88223000",
      "timezone": "Europe/Brussels",
      "wikiDataId": "Q31590351",
      "country_code": "BE",
      "state_code": "VLG",
      "state_id": 1373,
      "country_id": 22
    },
    {
      "id": 8786,
      "name": "金格洛姆",
      "name_default": "Gingelom",
      "native": "Gingelom",
      "type": "city",
      "level": null,
      "parent_id": null,
      "population": 8391,
      "latitude": "50.74792000",
      "longitude": "5.13422000",
      "timezone": "Europe/Brussels",
      "wikiDataId": "Q21769045",
      "country_code": "BE",
      "state_code": "VLG",
      "state_id": 1373,
      "country_id": 22
    },
    {
      "id": 8787,
      "name": "吉斯特尔",
      "name_default": "Gistel",
      "native": "Gistel",
      "type": "city",
      "level": null,
      "parent_id": null,
      "population": 12106,
      "latitude": "51.15612000",
      "longitude": "2.96387000",
      "timezone": "Europe/Brussels",
      "wikiDataId": "Q21769047",
      "country_code": "BE",
      "state_code": "VLG",
      "state_id": 1373,
      "country_id": 22
    },
    {
      "id": 8788,
      "name": "格拉贝克",
      "name_default": "Glabbeek",
      "native": "Glabbeek",
      "type": "city",
      "level": null,
      "parent_id": null,
      "population": 5298,
      "latitude": "50.87267000",
      "longitude": "4.95615000",
      "timezone": "Europe/Brussels",
      "wikiDataId": "Q21769047",
      "country_code": "BE",
      "state_code": "VLG",
      "state_id": 1373,
      "country_id": 22
    },
    {
      "id": 8789,
      "name": "戈伊克",
      "name_default": "Gooik",
      "native": "Gooik",
      "type": "city",
      "level": null,
      "parent_id": null,
      "population": 8957,
      "latitude": "50.79443000",
      "longitude": "4.11378000",
      "timezone": "Europe/Brussels",
      "wikiDataId": "Q31824012",
      "country_code": "BE",
      "state_code": "VLG",
      "state_id": 1373,
      "country_id": 22
    },
    {
      "id": 8792,
      "name": "赫林贝亨",
      "name_default": "Grimbergen",
      "native": "Grimbergen",
      "type": "adm4",
      "level": null,
      "parent_id": null,
      "population": 37355,
      "latitude": "50.93409000",
      "longitude": "4.37213000",
      "timezone": "Europe/Brussels",
      "wikiDataId": "Q31824015",
      "country_code": "BE",
      "state_code": "VLG",
      "state_id": 1373,
      "country_id": 22
    },
    {
      "id": 8793,
      "name": "格罗本东克",
      "name_default": "Grobbendonk",
      "native": "Grobbendonk",
      "type": "city",
      "level": null,
      "parent_id": null,
      "population": 11172,
      "latitude": "51.19043000",
      "longitude": "4.73562000",
      "timezone": "Europe/Brussels",
      "wikiDataId": "Q21769133",
      "country_code": "BE",
      "state_code": "VLG",
      "state_id": 1373,
      "country_id": 22
    },
    {
      "id": 8794,
      "name": "哈赫特",
      "name_default": "Haacht",
      "native": "Haacht",
      "type": "city",
      "level": null,
      "parent_id": null,
      "population": 1763,
      "latitude": "50.97737000",
      "longitude": "4.63777000",
      "timezone": "Europe/Brussels",
      "wikiDataId": "Q21767623",
      "country_code": "BE",
      "state_code": "VLG",
      "state_id": 1373,
      "country_id": 22
    },
    {
      "id": 8795,
      "name": "哈尔特",
      "name_default": "Haaltert",
      "native": "Haaltert",
      "type": "city",
      "level": null,
      "parent_id": null,
      "population": 18443,
      "latitude": "50.90634000",
      "longitude": "4.00093000",
      "timezone": "Europe/Brussels",
      "wikiDataId": "Q21767627",
      "country_code": "BE",
      "state_code": "VLG",
      "state_id": 1373,
      "country_id": 22
    },
    {
      "id": 8797,
      "name": "哈伦",
      "name_default": "Halen",
      "native": "Halen",
      "type": "city",
      "level": null,
      "parent_id": null,
      "population": 8548,
      "latitude": "50.94837000",
      "longitude": "5.11096000",
      "timezone": "Europe/Brussels",
      "wikiDataId": "Q31824016",
      "country_code": "BE",
      "state_code": "VLG",
      "state_id": 1373,
      "country_id": 22
    },
    {
      "id": 8798,
      "name": "哈勒",
      "name_default": "Halle",
      "native": "Halle",
      "type": "city",
      "level": null,
      "parent_id": null,
      "population": 39096,
      "latitude": "50.73385000",
      "longitude": "4.23454000",
      "timezone": "Europe/Brussels",
      "wikiDataId": "Q31824017",
      "country_code": "BE",
      "state_code": "VLG",
      "state_id": 1373,
      "country_id": 22
    },
    {
      "id": 8799,
      "name": "哈默",
      "name_default": "Hamme",
      "native": "Hamme",
      "type": "city",
      "level": null,
      "parent_id": null,
      "population": 24829,
      "latitude": "51.09822000",
      "longitude": "4.13705000",
      "timezone": "Europe/Brussels",
      "wikiDataId": "Q31811416",
      "country_code": "BE",
      "state_code": "VLG",
      "state_id": 1373,
      "country_id": 22
    },
    {
      "id": 8803,
      "name": "哈雷尔贝克",
      "name_default": "Harelbeke",
      "native": "Harelbeke",
      "type": "city",
      "level": null,
      "parent_id": null,
      "population": 27886,
      "latitude": "50.85343000",
      "longitude": "3.30935000",
      "timezone": "Europe/Brussels",
      "wikiDataId": "Q31824027",
      "country_code": "BE",
      "state_code": "VLG",
      "state_id": 1373,
      "country_id": 22
    },
    {
      "id": 8804,
      "name": "哈瑟尔特",
      "name_default": "Hasselt",
      "native": "Hasselt",
      "type": "city",
      "level": null,
      "parent_id": null,
      "population": 77651,
      "latitude": "50.93106000",
      "longitude": "5.33781000",
      "timezone": "Europe/Brussels",
      "wikiDataId": "Q21767697",
      "country_code": "BE",
      "state_code": "VLG",
      "state_id": 1373,
      "country_id": 22
    },
    {
      "id": 8807,
      "name": "希尔斯",
      "name_default": "Heers",
      "native": "Zegevieren",
      "type": "city",
      "level": null,
      "parent_id": null,
      "population": 7290,
      "latitude": "50.75383000",
      "longitude": "5.30210000",
      "timezone": "Europe/Brussels",
      "wikiDataId": "Q21767739",
      "country_code": "BE",
      "state_code": "VLG",
      "state_id": 1373,
      "country_id": 22
    },
    {
      "id": 8808,
      "name": "希尔斯特奥普登贝尔格",
      "name_default": "Heist-op-den-Berg",
      "native": "Heist-op-den-Berg",
      "type": "adm4",
      "level": null,
      "parent_id": null,
      "population": 42950,
      "latitude": "51.07537000",
      "longitude": "4.72827000",
      "timezone": "Europe/Brussels",
      "wikiDataId": "Q31824028",
      "country_code": "BE",
      "state_code": "VLG",
      "state_id": 1373,
      "country_id": 22
    },
    {
      "id": 8809,
      "name": "赫尔希特伦",
      "name_default": "Helchteren",
      "native": "Helchteren",
      "type": "city",
      "level": null,
      "parent_id": null,
      "population": 30050,
      "latitude": "51.05591000",
      "longitude": "5.38244000",
      "timezone": "Europe/Brussels",
      "wikiDataId": "Q31824028",
      "country_code": "BE",
      "state_code": "VLG",
      "state_id": 1373,
      "country_id": 22
    },
    {
      "id": 8810,
      "name": "赫米克塞姆",
      "name_default": "Hemiksem",
      "native": "Hemiksem",
      "type": "city",
      "level": null,
      "parent_id": null,
      "population": 11634,
      "latitude": "51.14484000",
      "longitude": "4.33874000",
      "timezone": "Europe/Brussels",
      "wikiDataId": "Q21767764",
      "country_code": "BE",
      "state_code": "VLG",
      "state_id": 1373,
      "country_id": 22
    },
    {
      "id": 8813,
      "name": "赫伦特",
      "name_default": "Herent",
      "native": "Herent",
      "type": "city",
      "level": null,
      "parent_id": null,
      "population": 21632,
      "latitude": "50.90861000",
      "longitude": "4.67056000",
      "timezone": "Europe/Brussels",
      "wikiDataId": "Q31824029",
      "country_code": "BE",
      "state_code": "VLG",
      "state_id": 1373,
      "country_id": 22
    },
    {
      "id": 8814,
      "name": "赫伦塔尔斯",
      "name_default": "Herentals",
      "native": "Herentals",
      "type": "city",
      "level": null,
      "parent_id": null,
      "population": 28272,
      "latitude": "51.17655000",
      "longitude": "4.83248000",
      "timezone": "Europe/Brussels",
      "wikiDataId": "Q31824030",
      "country_code": "BE",
      "state_code": "VLG",
      "state_id": 1373,
      "country_id": 22
    },
    {
      "id": 8815,
      "name": "赫伦豪特",
      "name_default": "Herenthout",
      "native": "Herenthout",
      "type": "city",
      "level": null,
      "parent_id": null,
      "population": 3942,
      "latitude": "51.14010000",
      "longitude": "4.75572000",
      "timezone": "Europe/Brussels",
      "wikiDataId": "Q21767782",
      "country_code": "BE",
      "state_code": "VLG",
      "state_id": 1373,
      "country_id": 22
    },
    {
      "id": 8816,
      "name": "赫尔克德斯塔德",
      "name_default": "Herk-de-Stad",
      "native": "Herk-de-Stad",
      "type": "city",
      "level": null,
      "parent_id": null,
      "population": 12817,
      "latitude": "50.94013000",
      "longitude": "5.16636000",
      "timezone": "Europe/Brussels",
      "wikiDataId": "Q21767785",
      "country_code": "BE",
      "state_code": "VLG",
      "state_id": 1373,
      "country_id": 22
    },
    {
      "id": 8817,
      "name": "赫恩",
      "name_default": "Herne",
      "native": "Herne",
      "type": "city",
      "level": null,
      "parent_id": null,
      "population": 6459,
      "latitude": "50.72423000",
      "longitude": "4.03481000",
      "timezone": "Europe/Brussels",
      "wikiDataId": "Q21767790",
      "country_code": "BE",
      "state_code": "VLG",
      "state_id": 1373,
      "country_id": 22
    },
    {
      "id": 8818,
      "name": "赫塞尔特",
      "name_default": "Herselt",
      "native": "Herselt",
      "type": "city",
      "level": null,
      "parent_id": null,
      "population": 14521,
      "latitude": "51.05159000",
      "longitude": "4.88231000",
      "timezone": "Europe/Brussels",
      "wikiDataId": "Q21767799",
      "country_code": "BE",
      "state_code": "VLG",
      "state_id": 1373,
      "country_id": 22
    },
    {
      "id": 8821,
      "name": "赫泽勒",
      "name_default": "Herzele",
      "native": "Herzele",
      "type": "city",
      "level": null,
      "parent_id": null,
      "population": 17723,
      "latitude": "50.88681000",
      "longitude": "3.89014000",
      "timezone": "Europe/Brussels",
      "wikiDataId": "Q21767811",
      "country_code": "BE",
      "state_code": "VLG",
      "state_id": 1373,
      "country_id": 22
    },
    {
      "id": 8822,
      "name": "赫斯登",
      "name_default": "Heusden",
      "native": "Heusden",
      "type": "city",
      "level": null,
      "parent_id": null,
      "population": 31017,
      "latitude": "51.03664000",
      "longitude": "5.28013000",
      "timezone": "Europe/Brussels",
      "wikiDataId": "Q21767811",
      "country_code": "BE",
      "state_code": "VLG",
      "state_id": 1373,
      "country_id": 22
    },
    {
      "id": 8823,
      "name": "霍博肯",
      "name_default": "Hoboken",
      "native": "Hoboken",
      "type": "city",
      "level": null,
      "parent_id": null,
      "population": 41853,
      "latitude": "51.17611000",
      "longitude": "4.34844000",
      "timezone": "Europe/Brussels",
      "wikiDataId": "Q267663",
      "country_code": "BE",
      "state_code": "VLG",
      "state_id": 1373,
      "country_id": 22
    },
    {
      "id": 8824,
      "name": "福佳登",
      "name_default": "Hoegaarden",
      "native": "Hoegaarden",
      "type": "city",
      "level": null,
      "parent_id": null,
      "population": 3226,
      "latitude": "50.77560000",
      "longitude": "4.88952000",
      "timezone": "Europe/Brussels",
      "wikiDataId": "Q31824032",
      "country_code": "BE",
      "state_code": "VLG",
      "state_id": 1373,
      "country_id": 22
    },
    {
      "id": 8825,
      "name": "霍伊拉特",
      "name_default": "Hoeilaart",
      "native": "Hoeilaart",
      "type": "city",
      "level": null,
      "parent_id": null,
      "population": 11172,
      "latitude": "50.76730000",
      "longitude": "4.46835000",
      "timezone": "Europe/Brussels",
      "wikiDataId": "Q21767840",
      "country_code": "BE",
      "state_code": "VLG",
      "state_id": 1373,
      "country_id": 22
    },
    {
      "id": 8826,
      "name": "霍瑟尔特",
      "name_default": "Hoeselt",
      "native": "Hoeselt",
      "type": "city",
      "level": null,
      "parent_id": null,
      "population": 9265,
      "latitude": "50.84714000",
      "longitude": "5.48767000",
      "timezone": "Europe/Brussels",
      "wikiDataId": "Q21767843",
      "country_code": "BE",
      "state_code": "VLG",
      "state_id": 1373,
      "country_id": 22
    },
    {
      "id": 8827,
      "name": "霍尔斯贝克",
      "name_default": "Holsbeek",
      "native": "Holsbeek",
      "type": "city",
      "level": null,
      "parent_id": null,
      "population": 9905,
      "latitude": "50.92097000",
      "longitude": "4.75747000",
      "timezone": "Europe/Brussels",
      "wikiDataId": "Q21767868",
      "country_code": "BE",
      "state_code": "VLG",
      "state_id": 1373,
      "country_id": 22
    },
    {
      "id": 8828,
      "name": "霍格莱德",
      "name_default": "Hooglede",
      "native": "Hooglede",
      "type": "city",
      "level": null,
      "parent_id": null,
      "population": 9950,
      "latitude": "50.98333000",
      "longitude": "3.08333000",
      "timezone": "Europe/Brussels",
      "wikiDataId": "Q21767880",
      "country_code": "BE",
      "state_code": "VLG",
      "state_id": 1373,
      "country_id": 22
    },
    {
      "id": 8829,
      "name": "霍赫斯特拉滕",
      "name_default": "Hoogstraten",
      "native": "Hoogstraten",
      "type": "city",
      "level": null,
      "parent_id": null,
      "population": 21424,
      "latitude": "51.40029000",
      "longitude": "4.76034000",
      "timezone": "Europe/Brussels",
      "wikiDataId": "Q31824034",
      "country_code": "BE",
      "state_code": "VLG",
      "state_id": 1373,
      "country_id": 22
    },
    {
      "id": 8832,
      "name": "胡塔伦",
      "name_default": "Houthalen",
      "native": "Houthalen",
      "type": "city",
      "level": null,
      "parent_id": null,
      "population": 30050,
      "latitude": "51.03427000",
      "longitude": "5.37429000",
      "timezone": "Europe/Brussels",
      "wikiDataId": "Q21767894",
      "country_code": "BE",
      "state_code": "VLG",
      "state_id": 1373,
      "country_id": 22
    },
    {
      "id": 8833,
      "name": "豪瑟尔斯特",
      "name_default": "Houthulst",
      "native": "Houthulst",
      "type": "city",
      "level": null,
      "parent_id": null,
      "population": 10032,
      "latitude": "50.97824000",
      "longitude": "2.95050000",
      "timezone": "Europe/Brussels",
      "wikiDataId": "Q21767908",
      "country_code": "BE",
      "state_code": "VLG",
      "state_id": 1373,
      "country_id": 22
    },
    {
      "id": 8835,
      "name": "霍夫",
      "name_default": "Hove",
      "native": "Hove",
      "type": "city",
      "level": null,
      "parent_id": null,
      "population": 8277,
      "latitude": "51.15446000",
      "longitude": "4.47070000",
      "timezone": "Europe/Brussels",
      "wikiDataId": "Q21767915",
      "country_code": "BE",
      "state_code": "VLG",
      "state_id": 1373,
      "country_id": 22
    },
    {
      "id": 8836,
      "name": "胡尔登贝格",
      "name_default": "Huldenberg",
      "native": "Huldenberg",
      "type": "city",
      "level": null,
      "parent_id": null,
      "population": 9892,
      "latitude": "50.78939000",
      "longitude": "4.58310000",
      "timezone": "Europe/Brussels",
      "wikiDataId": "Q21767922",
      "country_code": "BE",
      "state_code": "VLG",
      "state_id": 1373,
      "country_id": 22
    },
    {
      "id": 8837,
      "name": "赫尔绍特",
      "name_default": "Hulshout",
      "native": "Hulshout",
      "type": "city",
      "level": null,
      "parent_id": null,
      "population": 3447,
      "latitude": "51.07451000",
      "longitude": "4.79081000",
      "timezone": "Europe/Brussels",
      "wikiDataId": "Q21767926",
      "country_code": "BE",
      "state_code": "VLG",
      "state_id": 1373,
      "country_id": 22
    },
    {
      "id": 8840,
      "name": "伊赫特海姆",
      "name_default": "Ichtegem",
      "native": "Ichtegem",
      "type": "city",
      "level": null,
      "parent_id": null,
      "population": 13939,
      "latitude": "51.09572000",
      "longitude": "3.01549000",
      "timezone": "Europe/Brussels",
      "wikiDataId": "Q21767935",
      "country_code": "BE",
      "state_code": "VLG",
      "state_id": 1373,
      "country_id": 22
    },
    {
      "id": 8841,
      "name": "伊珀尔",
      "name_default": "Ieper",
      "native": "Ieper",
      "type": "adm3",
      "level": null,
      "parent_id": null,
      "population": 35089,
      "latitude": "50.85114000",
      "longitude": "2.88569000",
      "timezone": "Europe/Brussels",
      "wikiDataId": "Q31824036",
      "country_code": "BE",
      "state_code": "VLG",
      "state_id": 1373,
      "country_id": 22
    },
    {
      "id": 8843,
      "name": "英格尔明斯特",
      "name_default": "Ingelmunster",
      "native": "Ingelmunster",
      "type": "city",
      "level": null,
      "parent_id": null,
      "population": 10928,
      "latitude": "50.92081000",
      "longitude": "3.25571000",
      "timezone": "Europe/Brussels",
      "wikiDataId": "Q21767948",
      "country_code": "BE",
      "state_code": "VLG",
      "state_id": 1373,
      "country_id": 22
    },
    {
      "id": 8845,
      "name": "伊泽海姆",
      "name_default": "Izegem",
      "native": "Izegem",
      "type": "city",
      "level": null,
      "parent_id": null,
      "population": 28845,
      "latitude": "50.91396000",
      "longitude": "3.21378000",
      "timezone": "Europe/Brussels",
      "wikiDataId": "Q31811524",
      "country_code": "BE",
      "state_code": "VLG",
      "state_id": 1373,
      "country_id": 22
    },
    {
      "id": 8846,
      "name": "雅贝克",
      "name_default": "Jabbeke",
      "native": "Jabbeke",
      "type": "city",
      "level": null,
      "parent_id": null,
      "population": 13880,
      "latitude": "51.18185000",
      "longitude": "3.08935000",
      "timezone": "Europe/Brussels",
      "wikiDataId": "Q21767957",
      "country_code": "BE",
      "state_code": "VLG",
      "state_id": 1373,
      "country_id": 22
    },
    {
      "id": 8851,
      "name": "卡尔姆豪特",
      "name_default": "Kalmthout",
      "native": "Kalmthout",
      "type": "city",
      "level": null,
      "parent_id": null,
      "population": 18872,
      "latitude": "51.38442000",
      "longitude": "4.47556000",
      "timezone": "Europe/Brussels",
      "wikiDataId": "Q21767145",
      "country_code": "BE",
      "state_code": "VLG",
      "state_id": 1373,
      "country_id": 22
    },
    {
      "id": 8852,
      "name": "坎彭豪特",
      "name_default": "Kampenhout",
      "native": "Kampenhout",
      "type": "city",
      "level": null,
      "parent_id": null,
      "population": 1538,
      "latitude": "50.94210000",
      "longitude": "4.55103000",
      "timezone": "Europe/Brussels",
      "wikiDataId": "Q31824039",
      "country_code": "BE",
      "state_code": "VLG",
      "state_id": 1373,
      "country_id": 22
    },
    {
      "id": 8853,
      "name": "卡佩勒奥普登博斯",
      "name_default": "Kapelle-op-den-Bos",
      "native": "Kapelle-op-den-Bos",
      "type": "city",
      "level": null,
      "parent_id": null,
      "population": 9396,
      "latitude": "51.00970000",
      "longitude": "4.36303000",
      "timezone": "Europe/Brussels",
      "wikiDataId": "Q21767154",
      "country_code": "BE",
      "state_code": "VLG",
      "state_id": 1373,
      "country_id": 22
    },
    {
      "id": 8854,
      "name": "卡佩伦",
      "name_default": "Kapellen",
      "native": "Kapel",
      "type": "city",
      "level": null,
      "parent_id": null,
      "population": 26981,
      "latitude": "51.31377000",
      "longitude": "4.43539000",
      "timezone": "Europe/Brussels",
      "wikiDataId": "Q31824040",
      "country_code": "BE",
      "state_code": "VLG",
      "state_id": 1373,
      "country_id": 22
    },
    {
      "id": 8855,
      "name": "卡普赖克",
      "name_default": "Kaprijke",
      "native": "Kaprijke",
      "type": "city",
      "level": null,
      "parent_id": null,
      "population": 6429,
      "latitude": "51.21720000",
      "longitude": "3.61519000",
      "timezone": "Europe/Brussels",
      "wikiDataId": "Q21767157",
      "country_code": "BE",
      "state_code": "VLG",
      "state_id": 1373,
      "country_id": 22
    },
    {
      "id": 8856,
      "name": "卡斯特莱",
      "name_default": "Kasterlee",
      "native": "Kasterlee",
      "type": "city",
      "level": null,
      "parent_id": null,
      "population": 18882,
      "latitude": "51.24118000",
      "longitude": "4.96651000",
      "timezone": "Europe/Brussels",
      "wikiDataId": "Q21767175",
      "country_code": "BE",
      "state_code": "VLG",
      "state_id": 1373,
      "country_id": 22
    },
    {
      "id": 8857,
      "name": "克尔贝亨",
      "name_default": "Keerbergen",
      "native": "Keerbergen",
      "type": "city",
      "level": null,
      "parent_id": null,
      "population": 2440,
      "latitude": "51.00295000",
      "longitude": "4.63434000",
      "timezone": "Europe/Brussels",
      "wikiDataId": "Q21767185",
      "country_code": "BE",
      "state_code": "VLG",
      "state_id": 1373,
      "country_id": 22
    },
    {
      "id": 8858,
      "name": "金罗伊",
      "name_default": "Kinrooi",
      "native": "Kinrooi",
      "type": "city",
      "level": null,
      "parent_id": null,
      "population": 12233,
      "latitude": "51.14543000",
      "longitude": "5.74207000",
      "timezone": "Europe/Brussels",
      "wikiDataId": "Q21767215",
      "country_code": "BE",
      "state_code": "VLG",
      "state_id": 1373,
      "country_id": 22
    },
    {
      "id": 8859,
      "name": "克内瑟拉尔",
      "name_default": "Knesselare",
      "native": "Knesselare",
      "type": "city",
      "level": null,
      "parent_id": null,
      "population": 7889,
      "latitude": "51.13932000",
      "longitude": "3.41282000",
      "timezone": "Europe/Brussels",
      "wikiDataId": "Q21767265",
      "country_code": "BE",
      "state_code": "VLG",
      "state_id": 1373,
      "country_id": 22
    },
    {
      "id": 8860,
      "name": "诺克·海斯特",
      "name_default": "Knokke-Heist",
      "native": "Knokkel-heist",
      "type": "city",
      "level": null,
      "parent_id": null,
      "population": 33097,
      "latitude": "51.35000000",
      "longitude": "3.26667000",
      "timezone": "Europe/Brussels",
      "wikiDataId": "Q31824041",
      "country_code": "BE",
      "state_code": "VLG",
      "state_id": 1373,
      "country_id": 22
    },
    {
      "id": 8861,
      "name": "库克拉雷",
      "name_default": "Koekelare",
      "native": "Koekelare",
      "type": "city",
      "level": null,
      "parent_id": null,
      "population": 8784,
      "latitude": "51.09047000",
      "longitude": "2.97830000",
      "timezone": "Europe/Brussels",
      "wikiDataId": "Q21767270",
      "country_code": "BE",
      "state_code": "VLG",
      "state_id": 1373,
      "country_id": 22
    },
    {
      "id": 8862,
      "name": "科克赛德",
      "name_default": "Koksijde",
      "native": "Koksijde",
      "type": "city",
      "level": null,
      "parent_id": null,
      "population": 21957,
      "latitude": "51.11642000",
      "longitude": "2.63772000",
      "timezone": "Europe/Brussels",
      "wikiDataId": "Q15071298",
      "country_code": "BE",
      "state_code": "VLG",
      "state_id": 1373,
      "country_id": 22
    },
    {
      "id": 8863,
      "name": "孔蒂奇",
      "name_default": "Kontich",
      "native": "Kontich",
      "type": "city",
      "level": null,
      "parent_id": null,
      "population": 21203,
      "latitude": "51.13213000",
      "longitude": "4.44706000",
      "timezone": "Europe/Brussels",
      "wikiDataId": "Q31824055",
      "country_code": "BE",
      "state_code": "VLG",
      "state_id": 1373,
      "country_id": 22
    },
    {
      "id": 8864,
      "name": "科特马克",
      "name_default": "Kortemark",
      "native": "Kortemark",
      "type": "city",
      "level": null,
      "parent_id": null,
      "population": 12584,
      "latitude": "51.02951000",
      "longitude": "3.04112000",
      "timezone": "Europe/Brussels",
      "wikiDataId": "Q21767292",
      "country_code": "BE",
      "state_code": "VLG",
      "state_id": 1373,
      "country_id": 22
    },
    {
      "id": 8865,
      "name": "科特纳肯",
      "name_default": "Kortenaken",
      "native": "Kortenaken",
      "type": "city",
      "level": null,
      "parent_id": null,
      "population": 7875,
      "latitude": "50.90862000",
      "longitude": "5.05968000",
      "timezone": "Europe/Brussels",
      "wikiDataId": "Q21767293",
      "country_code": "BE",
      "state_code": "VLG",
      "state_id": 1373,
      "country_id": 22
    },
    {
      "id": 8866,
      "name": "科滕贝格",
      "name_default": "Kortenberg",
      "native": "Kortenberg",
      "type": "city",
      "level": null,
      "parent_id": null,
      "population": 20214,
      "latitude": "50.88982000",
      "longitude": "4.54353000",
      "timezone": "Europe/Brussels",
      "wikiDataId": "Q21767295",
      "country_code": "BE",
      "state_code": "VLG",
      "state_id": 1373,
      "country_id": 22
    },
    {
      "id": 8867,
      "name": "科特塞姆",
      "name_default": "Kortessem",
      "native": "Kortessem",
      "type": "city",
      "level": null,
      "parent_id": null,
      "population": 8042,
      "latitude": "50.85890000",
      "longitude": "5.38974000",
      "timezone": "Europe/Brussels",
      "wikiDataId": "Q21767297",
      "country_code": "BE",
      "state_code": "VLG",
      "state_id": 1373,
      "country_id": 22
    },
    {
      "id": 8868,
      "name": "科特赖克",
      "name_default": "Kortrijk",
      "native": "Kortrijk",
      "type": "city",
      "level": null,
      "parent_id": null,
      "population": 77741,
      "latitude": "50.82803000",
      "longitude": "3.26487000",
      "timezone": "Europe/Brussels",
      "wikiDataId": "Q21767298",
      "country_code": "BE",
      "state_code": "VLG",
      "state_id": 1373,
      "country_id": 22
    },
    {
      "id": 8869,
      "name": "克莱因姆",
      "name_default": "Kraainem",
      "native": "Kraainem",
      "type": "city",
      "level": null,
      "parent_id": null,
      "population": 13690,
      "latitude": "50.86155000",
      "longitude": "4.46946000",
      "timezone": "Europe/Brussels",
      "wikiDataId": "Q31824063",
      "country_code": "BE",
      "state_code": "VLG",
      "state_id": 1373,
      "country_id": 22
    },
    {
      "id": 8870,
      "name": "克鲁伊贝克",
      "name_default": "Kruibeke",
      "native": "Kruibeke",
      "type": "city",
      "level": null,
      "parent_id": null,
      "population": 14815,
      "latitude": "51.17048000",
      "longitude": "4.31444000",
      "timezone": "Europe/Brussels",
      "wikiDataId": "Q21767327",
      "country_code": "BE",
      "state_code": "VLG",
      "state_id": 1373,
      "country_id": 22
    },
    {
      "id": 8871,
      "name": "克鲁伊绍特姆",
      "name_default": "Kruishoutem",
      "native": "Kruishoutem",
      "type": "city",
      "level": null,
      "parent_id": null,
      "population": 8179,
      "latitude": "50.90168000",
      "longitude": "3.52588000",
      "timezone": "Europe/Brussels",
      "wikiDataId": "Q21767332",
      "country_code": "BE",
      "state_code": "VLG",
      "state_id": 1373,
      "country_id": 22
    },
    {
      "id": 8872,
      "name": "库尔内",
      "name_default": "Kuurne",
      "native": "Schuur",
      "type": "city",
      "level": null,
      "parent_id": null,
      "population": 13318,
      "latitude": "50.85143000",
      "longitude": "3.28240000",
      "timezone": "Europe/Brussels",
      "wikiDataId": "Q21767334",
      "country_code": "BE",
      "state_code": "VLG",
      "state_id": 1373,
      "country_id": 22
    },
    {
      "id": 8878,
      "name": "拉尔内",
      "name_default": "Laarne",
      "native": "Laarne",
      "type": "city",
      "level": null,
      "parent_id": null,
      "population": 12487,
      "latitude": "51.03078000",
      "longitude": "3.85077000",
      "timezone": "Europe/Brussels",
      "wikiDataId": "Q21767343",
      "country_code": "BE",
      "state_code": "VLG",
      "state_id": 1373,
      "country_id": 22
    },
    {
      "id": 8879,
      "name": "拉纳肯",
      "name_default": "Lanaken",
      "native": "Lanaken",
      "type": "city",
      "level": null,
      "parent_id": null,
      "population": 25818,
      "latitude": "50.89318000",
      "longitude": "5.64680000",
      "timezone": "Europe/Brussels",
      "wikiDataId": "Q31824076",
      "country_code": "BE",
      "state_code": "VLG",
      "state_id": 1373,
      "country_id": 22
    },
    {
      "id": 8880,
      "name": "兰登",
      "name_default": "Landen",
      "native": "Landen",
      "type": "city",
      "level": null,
      "parent_id": null,
      "population": 15961,
      "latitude": "50.75267000",
      "longitude": "5.08200000",
      "timezone": "Europe/Brussels",
      "wikiDataId": "Q21765449",
      "country_code": "BE",
      "state_code": "VLG",
      "state_id": 1373,
      "country_id": 22
    },
    {
      "id": 8881,
      "name": "莱贝克",
      "name_default": "Lebbeke",
      "native": "Lebbeke",
      "type": "city",
      "level": null,
      "parent_id": null,
      "population": 19195,
      "latitude": "51.00464000",
      "longitude": "4.13457000",
      "timezone": "Europe/Brussels",
      "wikiDataId": "Q21765489",
      "country_code": "BE",
      "state_code": "VLG",
      "state_id": 1373,
      "country_id": 22
    },
    {
      "id": 8882,
      "name": "莱德",
      "name_default": "Lede",
      "native": "Lede",
      "type": "city",
      "level": null,
      "parent_id": null,
      "population": 18628,
      "latitude": "50.96626000",
      "longitude": "3.98594000",
      "timezone": "Europe/Brussels",
      "wikiDataId": "Q21765497",
      "country_code": "BE",
      "state_code": "VLG",
      "state_id": 1373,
      "country_id": 22
    },
    {
      "id": 8883,
      "name": "莱德贝里",
      "name_default": "Ledeberg",
      "native": "Ledeberg",
      "type": "city",
      "level": null,
      "parent_id": null,
      "population": 8454,
      "latitude": "51.03859000",
      "longitude": "3.74458000",
      "timezone": "Europe/Brussels",
      "wikiDataId": "Q2802143",
      "country_code": "BE",
      "state_code": "VLG",
      "state_id": 1373,
      "country_id": 22
    },
    {
      "id": 8884,
      "name": "莱德海姆",
      "name_default": "Ledegem",
      "native": "Ledegem",
      "type": "city",
      "level": null,
      "parent_id": null,
      "population": 1582,
      "latitude": "50.85785000",
      "longitude": "3.12409000",
      "timezone": "Europe/Brussels",
      "wikiDataId": "Q21765501",
      "country_code": "BE",
      "state_code": "VLG",
      "state_id": 1373,
      "country_id": 22
    },
    {
      "id": 8885,
      "name": "伦德莱德",
      "name_default": "Lendelede",
      "native": "Lendelede",
      "type": "city",
      "level": null,
      "parent_id": null,
      "population": 5747,
      "latitude": "50.88626000",
      "longitude": "3.23747000",
      "timezone": "Europe/Brussels",
      "wikiDataId": "Q21765541",
      "country_code": "BE",
      "state_code": "VLG",
      "state_id": 1373,
      "country_id": 22
    },
    {
      "id": 8887,
      "name": "利奥波德斯堡",
      "name_default": "Leopoldsburg",
      "native": "Leopoldsburg",
      "type": "city",
      "level": null,
      "parent_id": null,
      "population": 15625,
      "latitude": "51.11667000",
      "longitude": "5.25000000",
      "timezone": "Europe/Brussels",
      "wikiDataId": "Q21765544",
      "country_code": "BE",
      "state_code": "VLG",
      "state_id": 1373,
      "country_id": 22
    },
    {
      "id": 8889,
      "name": "鲁汶",
      "name_default": "Leuven",
      "native": "Leuven",
      "type": "city",
      "level": null,
      "parent_id": null,
      "population": 101032,
      "latitude": "50.87959000",
      "longitude": "4.70093000",
      "timezone": "Europe/Brussels",
      "wikiDataId": "Q21765562",
      "country_code": "BE",
      "state_code": "VLG",
      "state_id": 1373,
      "country_id": 22
    },
    {
      "id": 8891,
      "name": "利希特维尔德",
      "name_default": "Lichtervelde",
      "native": "Lichtervelde",
      "type": "city",
      "level": null,
      "parent_id": null,
      "population": 8793,
      "latitude": "51.03333000",
      "longitude": "3.15000000",
      "timezone": "Europe/Brussels",
      "wikiDataId": "Q21765568",
      "country_code": "BE",
      "state_code": "VLG",
      "state_id": 1373,
      "country_id": 22
    },
    {
      "id": 8892,
      "name": "利德克尔克",
      "name_default": "Liedekerke",
      "native": "Liedekerke",
      "type": "city",
      "level": null,
      "parent_id": null,
      "population": 13188,
      "latitude": "50.86892000",
      "longitude": "4.08743000",
      "timezone": "Europe/Brussels",
      "wikiDataId": "Q31824078",
      "country_code": "BE",
      "state_code": "VLG",
      "state_id": 1373,
      "country_id": 22
    },
    {
      "id": 8893,
      "name": "利尔",
      "name_default": "Lier",
      "native": "Lier",
      "type": "city",
      "level": null,
      "parent_id": null,
      "population": 36646,
      "latitude": "51.13128000",
      "longitude": "4.57041000",
      "timezone": "Europe/Brussels",
      "wikiDataId": "Q31824079",
      "country_code": "BE",
      "state_code": "VLG",
      "state_id": 1373,
      "country_id": 22
    },
    {
      "id": 8895,
      "name": "里尔",
      "name_default": "Lille",
      "native": "Lille",
      "type": "city",
      "level": null,
      "parent_id": null,
      "population": 16564,
      "latitude": "51.24197000",
      "longitude": "4.82313000",
      "timezone": "Europe/Brussels",
      "wikiDataId": "Q21765583",
      "country_code": "BE",
      "state_code": "VLG",
      "state_id": 1373,
      "country_id": 22
    },
    {
      "id": 8898,
      "name": "林克贝克",
      "name_default": "Linkebeek",
      "native": "Linkebeek",
      "type": "city",
      "level": null,
      "parent_id": null,
      "population": 4760,
      "latitude": "50.76781000",
      "longitude": "4.33688000",
      "timezone": "Europe/Brussels",
      "wikiDataId": "Q31824080",
      "country_code": "BE",
      "state_code": "VLG",
      "state_id": 1373,
      "country_id": 22
    },
    {
      "id": 8899,
      "name": "皮棉",
      "name_default": "Lint",
      "native": "Lint",
      "type": "city",
      "level": null,
      "parent_id": null,
      "population": 2268,
      "latitude": "51.12707000",
      "longitude": "4.49669000",
      "timezone": "Europe/Brussels",
      "wikiDataId": "Q21765593",
      "country_code": "BE",
      "state_code": "VLG",
      "state_id": 1373,
      "country_id": 22
    },
    {
      "id": 8902,
      "name": "洛克里斯蒂",
      "name_default": "Lochristi",
      "native": "Lochristi",
      "type": "city",
      "level": null,
      "parent_id": null,
      "population": 19696,
      "latitude": "51.09644000",
      "longitude": "3.83194000",
      "timezone": "Europe/Brussels",
      "wikiDataId": "Q31824081",
      "country_code": "BE",
      "state_code": "VLG",
      "state_id": 1373,
      "country_id": 22
    },
    {
      "id": 8903,
      "name": "洛克伦",
      "name_default": "Lokeren",
      "native": "Lokeren",
      "type": "city",
      "level": null,
      "parent_id": null,
      "population": 41438,
      "latitude": "51.10364000",
      "longitude": "3.99339000",
      "timezone": "Europe/Brussels",
      "wikiDataId": "Q31824081",
      "country_code": "BE",
      "state_code": "VLG",
      "state_id": 1373,
      "country_id": 22
    },
    {
      "id": 8904,
      "name": "洛默尔",
      "name_default": "Lommel",
      "native": "Lommel",
      "type": "city",
      "level": null,
      "parent_id": null,
      "population": 34044,
      "latitude": "51.23074000",
      "longitude": "5.31349000",
      "timezone": "Europe/Brussels",
      "wikiDataId": "Q31824084",
      "country_code": "BE",
      "state_code": "VLG",
      "state_id": 1373,
      "country_id": 22
    },
    {
      "id": 8905,
      "name": "隆德泽尔",
      "name_default": "Londerzeel",
      "native": "Londerzeel",
      "type": "city",
      "level": null,
      "parent_id": null,
      "population": 1842,
      "latitude": "51.00468000",
      "longitude": "4.30304000",
      "timezone": "Europe/Brussels",
      "wikiDataId": "Q31824085",
      "country_code": "BE",
      "state_code": "VLG",
      "state_id": 1373,
      "country_id": 22
    },
    {
      "id": 8908,
      "name": "洛芬德海姆",
      "name_default": "Lovendegem",
      "native": "Lovendegem",
      "type": "city",
      "level": null,
      "parent_id": null,
      "population": 9272,
      "latitude": "51.10168000",
      "longitude": "3.61298000",
      "timezone": "Europe/Brussels",
      "wikiDataId": "Q21765635",
      "country_code": "BE",
      "state_code": "VLG",
      "state_id": 1373,
      "country_id": 22
    },
    {
      "id": 8909,
      "name": "卢贝克",
      "name_default": "Lubbeek",
      "native": "Lubbeek",
      "type": "city",
      "level": null,
      "parent_id": null,
      "population": 14393,
      "latitude": "50.88278000",
      "longitude": "4.83896000",
      "timezone": "Europe/Brussels",
      "wikiDataId": "Q21765640",
      "country_code": "BE",
      "state_code": "VLG",
      "state_id": 1373,
      "country_id": 22
    },
    {
      "id": 8910,
      "name": "吕门",
      "name_default": "Lummen",
      "native": "Lummen",
      "type": "city",
      "level": null,
      "parent_id": null,
      "population": 14762,
      "latitude": "50.98772000",
      "longitude": "5.19121000",
      "timezone": "Europe/Brussels",
      "wikiDataId": "Q21765647",
      "country_code": "BE",
      "state_code": "VLG",
      "state_id": 1373,
      "country_id": 22
    },
    {
      "id": 8912,
      "name": "马塞克",
      "name_default": "Maaseik",
      "native": "Maaseik",
      "type": "city",
      "level": null,
      "parent_id": null,
      "population": 25201,
      "latitude": "51.09802000",
      "longitude": "5.78379000",
      "timezone": "Europe/Brussels",
      "wikiDataId": "Q31824086",
      "country_code": "BE",
      "state_code": "VLG",
      "state_id": 1373,
      "country_id": 22
    },
    {
      "id": 8913,
      "name": "马斯梅赫伦",
      "name_default": "Maasmechelen",
      "native": "Maasmechelen",
      "type": "city",
      "level": null,
      "parent_id": null,
      "population": 38193,
      "latitude": "50.96545000",
      "longitude": "5.69452000",
      "timezone": "Europe/Brussels",
      "wikiDataId": "Q31824086",
      "country_code": "BE",
      "state_code": "VLG",
      "state_id": 1373,
      "country_id": 22
    },
    {
      "id": 8914,
      "name": "马赫伦",
      "name_default": "Machelen",
      "native": "Machelen",
      "type": "city",
      "level": null,
      "parent_id": null,
      "population": 12252,
      "latitude": "50.91061000",
      "longitude": "4.44174000",
      "timezone": "Europe/Brussels",
      "wikiDataId": "Q21765652",
      "country_code": "BE",
      "state_code": "VLG",
      "state_id": 1373,
      "country_id": 22
    },
    {
      "id": 8915,
      "name": "马尔德海姆",
      "name_default": "Maldegem",
      "native": "Maldegem",
      "type": "city",
      "level": null,
      "parent_id": null,
      "population": 23689,
      "latitude": "51.20737000",
      "longitude": "3.44511000",
      "timezone": "Europe/Brussels",
      "wikiDataId": "Q31824087",
      "country_code": "BE",
      "state_code": "VLG",
      "state_id": 1373,
      "country_id": 22
    },
    {
      "id": 8922,
      "name": "梅赫伦",
      "name_default": "Mechelen",
      "native": "Mechelen",
      "type": "city",
      "level": null,
      "parent_id": null,
      "population": 86921,
      "latitude": "51.02574000",
      "longitude": "4.47762000",
      "timezone": "Europe/Brussels",
      "wikiDataId": "Q21765751",
      "country_code": "BE",
      "state_code": "VLG",
      "state_id": 1373,
      "country_id": 22
    },
    {
      "id": 8923,
      "name": "梅尔豪特",
      "name_default": "Meerhout",
      "native": "Meerhout",
      "type": "city",
      "level": null,
      "parent_id": null,
      "population": 10324,
      "latitude": "51.13210000",
      "longitude": "5.07842000",
      "timezone": "Europe/Brussels",
      "wikiDataId": "Q21765759",
      "country_code": "BE",
      "state_code": "VLG",
      "state_id": 1373,
      "country_id": 22
    },
    {
      "id": 8924,
      "name": "梅塞",
      "name_default": "Meise",
      "native": "Meise",
      "type": "city",
      "level": null,
      "parent_id": null,
      "population": 19164,
      "latitude": "50.93934000",
      "longitude": "4.32655000",
      "timezone": "Europe/Brussels",
      "wikiDataId": "Q31824090",
      "country_code": "BE",
      "state_code": "VLG",
      "state_id": 1373,
      "country_id": 22
    },
    {
      "id": 8926,
      "name": "梅勒",
      "name_default": "Melle",
      "native": "Honing",
      "type": "city",
      "level": null,
      "parent_id": null,
      "population": 10687,
      "latitude": "51.00232000",
      "longitude": "3.80526000",
      "timezone": "Europe/Brussels",
      "wikiDataId": "Q21765771",
      "country_code": "BE",
      "state_code": "VLG",
      "state_id": 1373,
      "country_id": 22
    },
    {
      "id": 8927,
      "name": "梅嫩",
      "name_default": "Menen",
      "native": "Ik zal gaan",
      "type": "city",
      "level": null,
      "parent_id": null,
      "population": 33982,
      "latitude": "50.79722000",
      "longitude": "3.12245000",
      "timezone": "Europe/Brussels",
      "wikiDataId": "Q31824091",
      "country_code": "BE",
      "state_code": "VLG",
      "state_id": 1373,
      "country_id": 22
    },
    {
      "id": 8929,
      "name": "梅希特姆",
      "name_default": "Merchtem",
      "native": "Merchtem",
      "type": "city",
      "level": null,
      "parent_id": null,
      "population": 16294,
      "latitude": "50.95129000",
      "longitude": "4.23197000",
      "timezone": "Europe/Brussels",
      "wikiDataId": "Q21765786",
      "country_code": "BE",
      "state_code": "VLG",
      "state_id": 1373,
      "country_id": 22
    },
    {
      "id": 8930,
      "name": "梅雷尔贝克",
      "name_default": "Merelbeke",
      "native": "Merelbeke",
      "type": "adm4",
      "level": null,
      "parent_id": null,
      "population": 16684,
      "latitude": "50.99447000",
      "longitude": "3.74621000",
      "timezone": "Europe/Brussels",
      "wikiDataId": "Q31824092",
      "country_code": "BE",
      "state_code": "VLG",
      "state_id": 1373,
      "country_id": 22
    },
    {
      "id": 8931,
      "name": "默克斯普拉斯",
      "name_default": "Merksplas",
      "native": "Merksplas",
      "type": "city",
      "level": null,
      "parent_id": null,
      "population": 8588,
      "latitude": "51.35851000",
      "longitude": "4.86513000",
      "timezone": "Europe/Brussels",
      "wikiDataId": "Q21765789",
      "country_code": "BE",
      "state_code": "VLG",
      "state_id": 1373,
      "country_id": 22
    },
    {
      "id": 8934,
      "name": "默莱贝克",
      "name_default": "Meulebeke",
      "native": "Meulebeke",
      "type": "city",
      "level": null,
      "parent_id": null,
      "population": 10948,
      "latitude": "50.95136000",
      "longitude": "3.28804000",
      "timezone": "Europe/Brussels",
      "wikiDataId": "Q21765800",
      "country_code": "BE",
      "state_code": "VLG",
      "state_id": 1373,
      "country_id": 22
    },
    {
      "id": 8935,
      "name": "米德尔克尔克",
      "name_default": "Middelkerke",
      "native": "Middelkerke",
      "type": "city",
      "level": null,
      "parent_id": null,
      "population": 19371,
      "latitude": "51.18532000",
      "longitude": "2.82077000",
      "timezone": "Europe/Brussels",
      "wikiDataId": "Q21765816",
      "country_code": "BE",
      "state_code": "VLG",
      "state_id": 1373,
      "country_id": 22
    },
    {
      "id": 8937,
      "name": "莫尔贝克",
      "name_default": "Moerbeke",
      "native": "Moerbeke",
      "type": "city",
      "level": null,
      "parent_id": null,
      "population": 5855,
      "latitude": "51.17409000",
      "longitude": "3.93001000",
      "timezone": "Europe/Brussels",
      "wikiDataId": "Q21765833",
      "country_code": "BE",
      "state_code": "VLG",
      "state_id": 1373,
      "country_id": 22
    },
    {
      "id": 8938,
      "name": "摩尔",
      "name_default": "Mol",
      "native": "Mol",
      "type": "city",
      "level": null,
      "parent_id": null,
      "population": 37022,
      "latitude": "51.19188000",
      "longitude": "5.11662000",
      "timezone": "Europe/Brussels",
      "wikiDataId": "Q31824099",
      "country_code": "BE",
      "state_code": "VLG",
      "state_id": 1373,
      "country_id": 22
    },
    {
      "id": 8943,
      "name": "摩尔斯莱德",
      "name_default": "Moorslede",
      "native": "Moorslede",
      "type": "city",
      "level": null,
      "parent_id": null,
      "population": 11080,
      "latitude": "50.89190000",
      "longitude": "3.06117000",
      "timezone": "Europe/Brussels",
      "wikiDataId": "Q21765968",
      "country_code": "BE",
      "state_code": "VLG",
      "state_id": 1373,
      "country_id": 22
    },
    {
      "id": 8945,
      "name": "莫特塞尔",
      "name_default": "Mortsel",
      "native": "Mortsel",
      "type": "city",
      "level": null,
      "parent_id": null,
      "population": 26181,
      "latitude": "51.16697000",
      "longitude": "4.45127000",
      "timezone": "Europe/Brussels",
      "wikiDataId": "Q31824113",
      "country_code": "BE",
      "state_code": "VLG",
      "state_id": 1373,
      "country_id": 22
    },
    {
      "id": 8951,
      "name": "拿撒勒",
      "name_default": "Nazareth",
      "native": "Nazareth",
      "type": "city",
      "level": null,
      "parent_id": null,
      "population": 10890,
      "latitude": "50.95686000",
      "longitude": "3.59425000",
      "timezone": "Europe/Brussels",
      "wikiDataId": "Q21766031",
      "country_code": "BE",
      "state_code": "VLG",
      "state_id": 1373,
      "country_id": 22
    },
    {
      "id": 8952,
      "name": "内尔佩尔特",
      "name_default": "Neerpelt",
      "native": "Neerpelt",
      "type": "city",
      "level": null,
      "parent_id": null,
      "population": 16122,
      "latitude": "51.22807000",
      "longitude": "5.44270000",
      "timezone": "Europe/Brussels",
      "wikiDataId": "Q16481661",
      "country_code": "BE",
      "state_code": "VLG",
      "state_id": 1373,
      "country_id": 22
    },
    {
      "id": 8954,
      "name": "内韦莱",
      "name_default": "Nevele",
      "native": "Nevele",
      "type": "city",
      "level": null,
      "parent_id": null,
      "population": 11153,
      "latitude": "51.03531000",
      "longitude": "3.54574000",
      "timezone": "Europe/Brussels",
      "wikiDataId": "Q21766064",
      "country_code": "BE",
      "state_code": "VLG",
      "state_id": 1373,
      "country_id": 22
    },
    {
      "id": 8955,
      "name": "尼尔",
      "name_default": "Niel",
      "native": "Niel",
      "type": "city",
      "level": null,
      "parent_id": null,
      "population": 10546,
      "latitude": "51.11096000",
      "longitude": "4.33428000",
      "timezone": "Europe/Brussels",
      "wikiDataId": "Q21766070",
      "country_code": "BE",
      "state_code": "VLG",
      "state_id": 1373,
      "country_id": 22
    },
    {
      "id": 8956,
      "name": "新教堂",
      "name_default": "Nieuwerkerken",
      "native": "Nieuwerkerken",
      "type": "city",
      "level": null,
      "parent_id": null,
      "population": 6960,
      "latitude": "50.86380000",
      "longitude": "5.19467000",
      "timezone": "Europe/Brussels",
      "wikiDataId": "Q21766078",
      "country_code": "BE",
      "state_code": "VLG",
      "state_id": 1373,
      "country_id": 22
    },
    {
      "id": 8957,
      "name": "纽波特",
      "name_default": "Nieuwpoort",
      "native": "Nieuwpoort",
      "type": "city",
      "level": null,
      "parent_id": null,
      "population": 11488,
      "latitude": "51.13008000",
      "longitude": "2.75135000",
      "timezone": "Europe/Brussels",
      "wikiDataId": "Q21766081",
      "country_code": "BE",
      "state_code": "VLG",
      "state_id": 1373,
      "country_id": 22
    },
    {
      "id": 8958,
      "name": "奈伦",
      "name_default": "Nijlen",
      "native": "Nijlen",
      "type": "city",
      "level": null,
      "parent_id": null,
      "population": 22936,
      "latitude": "51.16096000",
      "longitude": "4.67008000",
      "timezone": "Europe/Brussels",
      "wikiDataId": "Q31824122",
      "country_code": "BE",
      "state_code": "VLG",
      "state_id": 1373,
      "country_id": 22
    },
    {
      "id": 8959,
      "name": "尼诺夫",
      "name_default": "Ninove",
      "native": "Ninove",
      "type": "city",
      "level": null,
      "parent_id": null,
      "population": 39626,
      "latitude": "50.82776000",
      "longitude": "4.02657000",
      "timezone": "Europe/Brussels",
      "wikiDataId": "Q31812647",
      "country_code": "BE",
      "state_code": "VLG",
      "state_id": 1373,
      "country_id": 22
    },
    {
      "id": 8963,
      "name": "奥伦",
      "name_default": "Olen",
      "native": "Ik ben",
      "type": "adm4",
      "level": null,
      "parent_id": null,
      "population": 3209,
      "latitude": "51.14391000",
      "longitude": "4.85980000",
      "timezone": "Europe/Brussels",
      "wikiDataId": "Q21766128",
      "country_code": "BE",
      "state_code": "VLG",
      "state_id": 1373,
      "country_id": 22
    },
    {
      "id": 8966,
      "name": "东代因凯尔克",
      "name_default": "Oostduinkerke",
      "native": "Oostduinkerke",
      "type": "city",
      "level": null,
      "parent_id": null,
      "population": 8534,
      "latitude": "51.11565000",
      "longitude": "2.68217000",
      "timezone": "Europe/Brussels",
      "wikiDataId": "Q21766148",
      "country_code": "BE",
      "state_code": "VLG",
      "state_id": 1373,
      "country_id": 22
    },
    {
      "id": 8967,
      "name": "奥斯特泽勒",
      "name_default": "Oosterzele",
      "native": "Oosterzele",
      "type": "city",
      "level": null,
      "parent_id": null,
      "population": 13546,
      "latitude": "50.95261000",
      "longitude": "3.79826000",
      "timezone": "Europe/Brussels",
      "wikiDataId": "Q21764228",
      "country_code": "BE",
      "state_code": "VLG",
      "state_id": 1373,
      "country_id": 22
    },
    {
      "id": 8968,
      "name": "奥斯特坎普",
      "name_default": "Oostkamp",
      "native": "Oostkamp",
      "type": "city",
      "level": null,
      "parent_id": null,
      "population": 23580,
      "latitude": "51.15432000",
      "longitude": "3.23128000",
      "timezone": "Europe/Brussels",
      "wikiDataId": "Q18479689",
      "country_code": "BE",
      "state_code": "VLG",
      "state_id": 1373,
      "country_id": 22
    },
    {
      "id": 8969,
      "name": "奥斯特马勒",
      "name_default": "Oostmalle",
      "native": "Oostmalle",
      "type": "city",
      "level": null,
      "parent_id": null,
      "population": 7034,
      "latitude": "51.30000000",
      "longitude": "4.73333000",
      "timezone": "Europe/Brussels",
      "wikiDataId": "Q18479689",
      "country_code": "BE",
      "state_code": "VLG",
      "state_id": 1373,
      "country_id": 22
    },
    {
      "id": 8970,
      "name": "奥斯特罗泽贝克",
      "name_default": "Oostrozebeke",
      "native": "Oostrozebeke",
      "type": "city",
      "level": null,
      "parent_id": null,
      "population": 7849,
      "latitude": "50.92093000",
      "longitude": "3.33799000",
      "timezone": "Europe/Brussels",
      "wikiDataId": "Q21764231",
      "country_code": "BE",
      "state_code": "VLG",
      "state_id": 1373,
      "country_id": 22
    },
    {
      "id": 8971,
      "name": "奥普格拉贝克",
      "name_default": "Opglabbeek",
      "native": "Opglabbeek",
      "type": "city",
      "level": null,
      "parent_id": null,
      "population": 9452,
      "latitude": "51.04258000",
      "longitude": "5.58346000",
      "timezone": "Europe/Brussels",
      "wikiDataId": "Q21764233",
      "country_code": "BE",
      "state_code": "VLG",
      "state_id": 1373,
      "country_id": 22
    },
    {
      "id": 8972,
      "name": "奥普维克",
      "name_default": "Opwijk",
      "native": "Opwijk",
      "type": "city",
      "level": null,
      "parent_id": null,
      "population": 14378,
      "latitude": "50.96724000",
      "longitude": "4.18442000",
      "timezone": "Europe/Brussels",
      "wikiDataId": "Q21764240",
      "country_code": "BE",
      "state_code": "VLG",
      "state_id": 1373,
      "country_id": 22
    },
    {
      "id": 8974,
      "name": "奥斯坦德",
      "name_default": "Ostend",
      "native": "Ostend",
      "type": "adm3",
      "level": null,
      "parent_id": null,
      "population": 71557,
      "latitude": "51.21551000",
      "longitude": "2.92700000",
      "timezone": "Europe/Brussels",
      "wikiDataId": "Q21766156",
      "country_code": "BE",
      "state_code": "VLG",
      "state_id": 1373,
      "country_id": 22
    },
    {
      "id": 8976,
      "name": "奥德-赫弗利",
      "name_default": "Oud-Heverlee",
      "native": "Oud-Heverlee",
      "type": "city",
      "level": null,
      "parent_id": null,
      "population": 11099,
      "latitude": "50.83522000",
      "longitude": "4.66421000",
      "timezone": "Europe/Brussels",
      "wikiDataId": "Q21764275",
      "country_code": "BE",
      "state_code": "VLG",
      "state_id": 1373,
      "country_id": 22
    },
    {
      "id": 8977,
      "name": "旧特伦豪特",
      "name_default": "Oud-Turnhout",
      "native": "Oud-Turnhout",
      "type": "city",
      "level": null,
      "parent_id": null,
      "population": 13977,
      "latitude": "51.31978000",
      "longitude": "4.98410000",
      "timezone": "Europe/Brussels",
      "wikiDataId": "Q21764277",
      "country_code": "BE",
      "state_code": "VLG",
      "state_id": 1373,
      "country_id": 22
    },
    {
      "id": 8978,
      "name": "奥德纳尔德",
      "name_default": "Oudenaarde",
      "native": "Oudenaarde",
      "type": "adm3",
      "level": null,
      "parent_id": null,
      "population": 31866,
      "latitude": "50.85168000",
      "longitude": "3.60891000",
      "timezone": "Europe/Brussels",
      "wikiDataId": "Q31824126",
      "country_code": "BE",
      "state_code": "VLG",
      "state_id": 1373,
      "country_id": 22
    },
    {
      "id": 8979,
      "name": "奥登堡",
      "name_default": "Oudenburg",
      "native": "Oudenburg",
      "type": "city",
      "level": null,
      "parent_id": null,
      "population": 9717,
      "latitude": "51.18489000",
      "longitude": "3.00035000",
      "timezone": "Europe/Brussels",
      "wikiDataId": "Q21764272",
      "country_code": "BE",
      "state_code": "VLG",
      "state_id": 1373,
      "country_id": 22
    },
    {
      "id": 8982,
      "name": "奥韦赖瑟",
      "name_default": "Overijse",
      "native": "Overijse",
      "type": "city",
      "level": null,
      "parent_id": null,
      "population": 25169,
      "latitude": "50.77436000",
      "longitude": "4.53461000",
      "timezone": "Europe/Brussels",
      "wikiDataId": "Q31824128",
      "country_code": "BE",
      "state_code": "VLG",
      "state_id": 1373,
      "country_id": 22
    },
    {
      "id": 8983,
      "name": "奥弗佩尔特",
      "name_default": "Overpelt",
      "native": "Overpelt",
      "type": "city",
      "level": null,
      "parent_id": null,
      "population": 13344,
      "latitude": "51.21038000",
      "longitude": "5.41557000",
      "timezone": "Europe/Brussels",
      "wikiDataId": "Q21764289",
      "country_code": "BE",
      "state_code": "VLG",
      "state_id": 1373,
      "country_id": 22
    },
    {
      "id": 8986,
      "name": "同行",
      "name_default": "Peer",
      "native": "Gelijke",
      "type": "city",
      "level": null,
      "parent_id": null,
      "population": 16421,
      "latitude": "51.13030000",
      "longitude": "5.45952000",
      "timezone": "Europe/Brussels",
      "wikiDataId": "Q21764310",
      "country_code": "BE",
      "state_code": "VLG",
      "state_id": 1373,
      "country_id": 22
    },
    {
      "id": 8987,
      "name": "佩平根",
      "name_default": "Pepingen",
      "native": "Pepingen",
      "type": "city",
      "level": null,
      "parent_id": null,
      "population": 603,
      "latitude": "50.75922000",
      "longitude": "4.15983000",
      "timezone": "Europe/Brussels",
      "wikiDataId": "Q21764319",
      "country_code": "BE",
      "state_code": "VLG",
      "state_id": 1373,
      "country_id": 22
    },
    {
      "id": 8989,
      "name": "佩雷",
      "name_default": "Perre",
      "native": "Aan de familie",
      "type": "city",
      "level": null,
      "parent_id": null,
      "population": 3000,
      "latitude": "50.88914000",
      "longitude": "3.86098000",
      "timezone": "Europe/Brussels",
      "wikiDataId": "Q21764321",
      "country_code": "BE",
      "state_code": "VLG",
      "state_id": 1373,
      "country_id": 22
    },
    {
      "id": 8992,
      "name": "皮特姆",
      "name_default": "Pittem",
      "native": "Pittem",
      "type": "city",
      "level": null,
      "parent_id": null,
      "population": 6752,
      "latitude": "50.99279000",
      "longitude": "3.26317000",
      "timezone": "Europe/Brussels",
      "wikiDataId": "Q21764368",
      "country_code": "BE",
      "state_code": "VLG",
      "state_id": 1373,
      "country_id": 22
    },
    {
      "id": 8995,
      "name": "波佩林格",
      "name_default": "Poperinge",
      "native": "Poperinge",
      "type": "city",
      "level": null,
      "parent_id": null,
      "population": 19782,
      "latitude": "50.85386000",
      "longitude": "2.72659000",
      "timezone": "Europe/Brussels",
      "wikiDataId": "Q31475234",
      "country_code": "BE",
      "state_code": "VLG",
      "state_id": 1373,
      "country_id": 22
    },
    {
      "id": 9002,
      "name": "安特卫普省",
      "name_default": "Provincie Antwerpen",
      "native": "Provincie Antwerpen",
      "type": "city",
      "level": null,
      "parent_id": null,
      "population": null,
      "latitude": "51.16558000",
      "longitude": "4.83402000",
      "timezone": "Europe/Brussels",
      "wikiDataId": "Q1116",
      "country_code": "BE",
      "state_code": "VLG",
      "state_id": 1373,
      "country_id": 22
    },
    {
      "id": 9003,
      "name": "林堡省",
      "name_default": "Provincie Limburg",
      "native": "Provincie Limburg",
      "type": "city",
      "level": null,
      "parent_id": null,
      "population": 63666,
      "latitude": "51.00000000",
      "longitude": "5.50000000",
      "timezone": "Europe/Brussels",
      "wikiDataId": "Q1095",
      "country_code": "BE",
      "state_code": "VLG",
      "state_id": 1373,
      "country_id": 22
    },
    {
      "id": 9004,
      "name": "东弗兰德省",
      "name_default": "Provincie Oost-Vlaanderen",
      "native": "Provincie Oost-Vlaanderen",
      "type": "city",
      "level": null,
      "parent_id": null,
      "population": null,
      "latitude": "51.00000000",
      "longitude": "3.75000000",
      "timezone": "Europe/Brussels",
      "wikiDataId": "Q1114",
      "country_code": "BE",
      "state_code": "VLG",
      "state_id": 1373,
      "country_id": 22
    },
    {
      "id": 9005,
      "name": "弗拉芒-布拉班特省",
      "name_default": "Provincie Vlaams-Brabant",
      "native": "Provincie Vlaams-Brabant",
      "type": "city",
      "level": null,
      "parent_id": null,
      "population": null,
      "latitude": "50.91667000",
      "longitude": "4.58333000",
      "timezone": "Europe/Brussels",
      "wikiDataId": "Q1118",
      "country_code": "BE",
      "state_code": "VLG",
      "state_id": 1373,
      "country_id": 22
    },
    {
      "id": 9006,
      "name": "西佛兰德省",
      "name_default": "Provincie West-Vlaanderen",
      "native": "Provincie West-Vlaanderen",
      "type": "city",
      "level": null,
      "parent_id": null,
      "population": null,
      "latitude": "51.00000000",
      "longitude": "3.00000000",
      "timezone": "Europe/Brussels",
      "wikiDataId": "Q1113",
      "country_code": "BE",
      "state_code": "VLG",
      "state_id": 1373,
      "country_id": 22
    },
    {
      "id": 9007,
      "name": "普特",
      "name_default": "Putte",
      "native": "Neerzetten",
      "type": "city",
      "level": null,
      "parent_id": null,
      "population": 17584,
      "latitude": "51.05337000",
      "longitude": "4.63263000",
      "timezone": "Europe/Brussels",
      "wikiDataId": "Q21764443",
      "country_code": "BE",
      "state_code": "VLG",
      "state_id": 1373,
      "country_id": 22
    },
    {
      "id": 9008,
      "name": "普尔斯",
      "name_default": "Puurs",
      "native": "Puurs",
      "type": "city",
      "level": null,
      "parent_id": null,
      "population": 15944,
      "latitude": "51.07409000",
      "longitude": "4.28844000",
      "timezone": "Europe/Brussels",
      "wikiDataId": "Q21764446",
      "country_code": "BE",
      "state_code": "VLG",
      "state_id": 1373,
      "country_id": 22
    },
    {
      "id": 9015,
      "name": "兰斯特",
      "name_default": "Ranst",
      "native": "Ranst",
      "type": "city",
      "level": null,
      "parent_id": null,
      "population": 19187,
      "latitude": "51.18983000",
      "longitude": "4.56533000",
      "timezone": "Europe/Brussels",
      "wikiDataId": "Q21764475",
      "country_code": "BE",
      "state_code": "VLG",
      "state_id": 1373,
      "country_id": 22
    },
    {
      "id": 9016,
      "name": "拉威尔斯",
      "name_default": "Ravels",
      "native": "Ravels",
      "type": "city",
      "level": null,
      "parent_id": null,
      "population": 14871,
      "latitude": "51.37274000",
      "longitude": "4.99210000",
      "timezone": "Europe/Brussels",
      "wikiDataId": "Q21764482",
      "country_code": "BE",
      "state_code": "VLG",
      "state_id": 1373,
      "country_id": 22
    },
    {
      "id": 9020,
      "name": "雷蒂",
      "name_default": "Retie",
      "native": "Retie",
      "type": "adm4",
      "level": null,
      "parent_id": null,
      "population": 8000,
      "latitude": "51.26652000",
      "longitude": "5.08242000",
      "timezone": "Europe/Brussels",
      "wikiDataId": "Q21764513",
      "country_code": "BE",
      "state_code": "VLG",
      "state_id": 1373,
      "country_id": 22
    },
    {
      "id": 9021,
      "name": "里姆斯特",
      "name_default": "Riemst",
      "native": "Riemst",
      "type": "city",
      "level": null,
      "parent_id": null,
      "population": 16665,
      "latitude": "50.80995000",
      "longitude": "5.60131000",
      "timezone": "Europe/Brussels",
      "wikiDataId": "Q21764528",
      "country_code": "BE",
      "state_code": "VLG",
      "state_id": 1373,
      "country_id": 22
    },
    {
      "id": 9022,
      "name": "赖克福塞尔",
      "name_default": "Rijkevorsel",
      "native": "Rijkevorsel",
      "type": "city",
      "level": null,
      "parent_id": null,
      "population": 11932,
      "latitude": "51.34795000",
      "longitude": "4.76053000",
      "timezone": "Europe/Brussels",
      "wikiDataId": "Q21764534",
      "country_code": "BE",
      "state_code": "VLG",
      "state_id": 1373,
      "country_id": 22
    },