{
  "locale": "ja",
  "country": {
    "id": 82,
    "code": "DE",
    "iso3": "DEU",
    "numeric_code": "276",
    "name": "ドイツ",
    "name_default": "Germany",
    "native": "Deutschland",
    "capital": "Berlin",
    "phonecode": "49",
    "currency": "EUR",
    "currency_name": "Euro",
    "currency_symbol": "€",
    "tld": ".de",
    "population": 83517030,
    "gdp": 4744804,
    "region": "Europe",
    "region_id": 4,
    "subregion": "Western Europe",
    "subregion_id": 17,
    "nationality": "German",
    "timezones": [
      {
        "zoneName": "Europe/Berlin",
        "gmtOffset": 3600,
        "gmtOffsetName": "UTC+01:00",
        "abbreviation": "CET",
        "tzName": "Central European Time"
      },
      {
        "zoneName": "Europe/Busingen",
        "gmtOffset": 3600,
        "gmtOffsetName": "UTC+01:00",
        "abbreviation": "CET",
        "tzName": "Central European Time"
      }
    ],
    "latitude": "51.00000000",
    "longitude": "9.00000000",
    "emoji": "🇩🇪",
    "emojiU": "U+1F1E9 U+1F1EA"
  },
  "state": {
    "id": 3011,
    "code": "ST",
    "iso2": "ST",
    "iso3166_2": "DE-ST",
    "fips_code": "14",
    "name": "ザクセン＝アンハルト州",
    "name_default": "Saxony-Anhalt",
    "native": "Saxony-Anhalt",
    "type": "land",
    "level": null,
    "parent_id": null,
    "population": 2135597,
    "latitude": "51.92809760",
    "longitude": "11.68122430",
    "timezone": "Europe/Berlin",
    "wikiDataId": "Q1206",
    "country_code": "DE"
  },
  "cities": [
    {
      "id": 23470,
      "name": "アプトスドルフ",
      "name_default": "Abtsdorf",
      "native": "ABTSDORF",
      "type": "city",
      "level": null,
      "parent_id": null,
      "population": 1457,
      "latitude": "51.88984000",
      "longitude": "12.72526000",
      "timezone": "Europe/Berlin",
      "wikiDataId": "Q334596",
      "country_code": "DE",
      "state_code": "ST",
      "state_id": 3011,
      "country_id": 82
    },
    {
      "id": 23506,
      "name": "アールスドルフ",
      "name_default": "Ahlsdorf",
      "native": "Ahlsdorf",
      "type": "adm4",
      "level": null,
      "parent_id": null,
      "population": 1912,
      "latitude": "51.54543000",
      "longitude": "11.46655000",
      "timezone": "Europe/Berlin",
      "wikiDataId": "Q400556",
      "country_code": "DE",
      "state_code": "ST",
      "state_id": 3011,
      "country_id": 82
    },
    {
      "id": 23530,
      "name": "アケン",
      "name_default": "Aken",
      "native": "Aken",
      "type": "city",
      "level": null,
      "parent_id": null,
      "population": 9240,
      "latitude": "51.85274000",
      "longitude": "12.04461000",
      "timezone": "Europe/Berlin",
      "wikiDataId": "Q417336",
      "country_code": "DE",
      "state_code": "ST",
      "state_id": 3011,
      "country_id": 82
    },
    {
      "id": 23563,
      "name": "アルシュテット",
      "name_default": "Allstedt",
      "native": "Allstedt",
      "type": "city",
      "level": null,
      "parent_id": null,
      "population": 3153,
      "latitude": "51.40379000",
      "longitude": "11.38689000",
      "timezone": "Europe/Berlin",
      "wikiDataId": "Q489932",
      "country_code": "DE",
      "state_code": "ST",
      "state_id": 3011,
      "country_id": 82
    },
    {
      "id": 23573,
      "name": "アルスレーベン",
      "name_default": "Alsleben",
      "native": "Alsleben",
      "type": "city",
      "level": null,
      "parent_id": null,
      "population": 2494,
      "latitude": "51.70161000",
      "longitude": "11.67648000",
      "timezone": "Europe/Berlin",
      "wikiDataId": "Q488270",
      "country_code": "DE",
      "state_code": "ST",
      "state_id": 3011,
      "country_id": 82
    },
    {
      "id": 23656,
      "name": "アンガーン",
      "name_default": "Angern",
      "native": "Angern",
      "type": "adm4",
      "level": null,
      "parent_id": null,
      "population": 1380,
      "latitude": "52.35000000",
      "longitude": "11.73333000",
      "timezone": "Europe/Berlin",
      "wikiDataId": "Q530122",
      "country_code": "DE",
      "state_code": "ST",
      "state_id": 3011,
      "country_id": 82
    },
    {
      "id": 23657,
      "name": "アンガースドルフ",
      "name_default": "Angersdorf",
      "native": "Angersdorf",
      "type": "city",
      "level": null,
      "parent_id": null,
      "population": 1237,
      "latitude": "51.46025000",
      "longitude": "11.90705000",
      "timezone": "Europe/Berlin",
      "wikiDataId": "Q538413",
      "country_code": "DE",
      "state_code": "ST",
      "state_id": 3011,
      "country_id": 82
    },
    {
      "id": 23662,
      "name": "アンナバーグ",
      "name_default": "Annaburg",
      "native": "Annaburg",
      "type": "city",
      "level": null,
      "parent_id": null,
      "population": 3512,
      "latitude": "51.73298000",
      "longitude": "13.04729000",
      "timezone": "Europe/Berlin",
      "wikiDataId": "Q490413",
      "country_code": "DE",
      "state_code": "ST",
      "state_id": 3011,
      "country_id": 82
    },
    {
      "id": 23675,
      "name": "アポレンスドルフ",
      "name_default": "Apollensdorf",
      "native": "Apollensdorf",
      "type": "city",
      "level": null,
      "parent_id": null,
      "population": 1386,
      "latitude": "51.87634000",
      "longitude": "12.55012000",
      "timezone": "Europe/Berlin",
      "wikiDataId": "Q618378",
      "country_code": "DE",
      "state_code": "ST",
      "state_id": 3011,
      "country_id": 82
    },
    {
      "id": 23685,
      "name": "アルネブルク",
      "name_default": "Arneburg",
      "native": "Arneburg",
      "type": "city",
      "level": null,
      "parent_id": null,
      "population": 1443,
      "latitude": "52.67565000",
      "longitude": "12.00514000",
      "timezone": "Europe/Berlin",
      "wikiDataId": "Q493437",
      "country_code": "DE",
      "state_code": "ST",
      "state_id": 3011,
      "country_id": 82
    },
    {
      "id": 23707,
      "name": "アッシャースレーベン",
      "name_default": "Aschersleben",
      "native": "Aschersleben",
      "type": "city",
      "level": null,
      "parent_id": null,
      "population": 26416,
      "latitude": "51.75742000",
      "longitude": "11.46084000",
      "timezone": "Europe/Berlin",
      "wikiDataId": "Q486991",
      "country_code": "DE",
      "state_code": "ST",
      "state_id": 3011,
      "country_id": 82
    },
    {
      "id": 23719,
      "name": "アッツェンドルフ",
      "name_default": "Atzendorf",
      "native": "Thezentorf",
      "type": "city",
      "level": null,
      "parent_id": null,
      "population": 1586,
      "latitude": "51.91954000",
      "longitude": "11.59906000",
      "timezone": "Europe/Berlin",
      "wikiDataId": "Q31886561",
      "country_code": "DE",
      "state_code": "ST",
      "state_id": 3011,
      "country_id": 82
    },
    {
      "id": 23742,
      "name": "アウスレーベン",
      "name_default": "Ausleben",
      "native": "Ausleben",
      "type": "adm4",
      "level": null,
      "parent_id": null,
      "population": 1662,
      "latitude": "52.09049000",
      "longitude": "11.11192000",
      "timezone": "Europe/Berlin",
      "wikiDataId": "Q574459",
      "country_code": "DE",
      "state_code": "ST",
      "state_id": 3011,
      "country_id": 82
    },
    {
      "id": 23750,
      "name": "バールベルゲ",
      "name_default": "Baalberge",
      "native": "Baalberge",
      "type": "city",
      "level": null,
      "parent_id": null,
      "population": 1479,
      "latitude": "51.76469000",
      "longitude": "11.79880000",
      "timezone": "Europe/Berlin",
      "wikiDataId": "Q673096",
      "country_code": "DE",
      "state_code": "ST",
      "state_id": 3011,
      "country_id": 82
    },
    {
      "id": 23771,
      "name": "バッド・ビブラ",
      "name_default": "Bad Bibra",
      "native": "Schlechtes Bibra",
      "type": "city",
      "level": null,
      "parent_id": null,
      "population": 2602,
      "latitude": "51.20796000",
      "longitude": "11.58517000",
      "timezone": "Europe/Berlin",
      "wikiDataId": "Q522601",
      "country_code": "DE",
      "state_code": "ST",
      "state_id": 3011,
      "country_id": 82
    },
    {
      "id": 23786,
      "name": "バート・デュレンベルク",
      "name_default": "Bad Dürrenberg",
      "native": "Bad Dürrenberg",
      "type": "city",
      "level": null,
      "parent_id": null,
      "population": 11801,
      "latitude": "51.29545000",
      "longitude": "12.06583000",
      "timezone": "Europe/Berlin",
      "wikiDataId": "Q518392",
      "country_code": "DE",
      "state_code": "ST",
      "state_id": 3011,
      "country_id": 82
    },
    {
      "id": 23820,
      "name": "バート・ケーゼン",
      "name_default": "Bad Kösen",
      "native": "Schlechtes Kösen",
      "type": "city",
      "level": null,
      "parent_id": null,
      "population": 5522,
      "latitude": "51.13431000",
      "longitude": "11.72203000",
      "timezone": "Europe/Berlin",
      "wikiDataId": "Q574451",
      "country_code": "DE",
      "state_code": "ST",
      "state_id": 3011,
      "country_id": 82
    },
    {
      "id": 23825,
      "name": "バート・ラウフシュテット",
      "name_default": "Bad Lauchstädt",
      "native": "Bad Lauchstädt",
      "type": "city",
      "level": null,
      "parent_id": null,
      "population": 5018,
      "latitude": "51.38652000",
      "longitude": "11.86956000",
      "timezone": "Europe/Berlin",
      "wikiDataId": "Q523975",
      "country_code": "DE",
      "state_code": "ST",
      "state_id": 3011,
      "country_id": 82
    },
    {
      "id": 23862,
      "name": "バート・シュミーデベルク",
      "name_default": "Bad Schmiedeberg",
      "native": "Bad Schmiedeberg",
      "type": "city",
      "level": null,
      "parent_id": null,
      "population": 4241,
      "latitude": "51.68516000",
      "longitude": "12.73483000",
      "timezone": "Europe/Berlin",
      "wikiDataId": "Q522557",
      "country_code": "DE",
      "state_code": "ST",
      "state_id": 3011,
      "country_id": 82
    },
    {
      "id": 23872,
      "name": "バート・スデローデ",
      "name_default": "Bad Suderode",
      "native": "Schlechter Suderode",
      "type": "adm4",
      "level": null,
      "parent_id": null,
      "population": 1791,
      "latitude": "51.73333000",
      "longitude": "11.11667000",
      "timezone": "Europe/Berlin",
      "wikiDataId": "Q574468",
      "country_code": "DE",
      "state_code": "ST",
      "state_id": 3011,
      "country_id": 82
    },
    {
      "id": 23912,
      "name": "バレンシュテット",
      "name_default": "Ballenstedt",
      "native": "Ballenstedt",
      "type": "city",
      "level": null,
      "parent_id": null,
      "population": 8682,
      "latitude": "51.71900000",
      "longitude": "11.23265000",
      "timezone": "Europe/Berlin",
      "wikiDataId": "Q50886",
      "country_code": "DE",
      "state_code": "ST",
      "state_id": 3011,
      "country_id": 82
    },
    {
      "id": 23925,
      "name": "バービー",
      "name_default": "Barby",
      "native": "Barby",
      "type": "city",
      "level": null,
      "parent_id": null,
      "population": 4646,
      "latitude": "51.96711000",
      "longitude": "11.88261000",
      "timezone": "Europe/Berlin",
      "wikiDataId": "Q31903450",
      "country_code": "DE",
      "state_code": "ST",
      "state_id": 3011,
      "country_id": 82
    },
    {
      "id": 23935,
      "name": "バーレーベン",
      "name_default": "Barleben",
      "native": "Barleben",
      "type": "adm4",
      "level": null,
      "parent_id": null,
      "population": 5895,
      "latitude": "52.20193000",
      "longitude": "11.61770000",
      "timezone": "Europe/Berlin",
      "wikiDataId": "Q550241",
      "country_code": "DE",
      "state_code": "ST",
      "state_id": 3011,
      "country_id": 82
    },
    {
      "id": 23939,
      "name": "バーンシュテット",
      "name_default": "Barnstädt",
      "native": "Kind sauber",
      "type": "adm4",
      "level": null,
      "parent_id": null,
      "population": 1230,
      "latitude": "51.34401000",
      "longitude": "11.63735000",
      "timezone": "Europe/Berlin",
      "wikiDataId": "Q634992",
      "country_code": "DE",
      "state_code": "ST",
      "state_id": 3011,
      "country_id": 82
    },
    {
      "id": 23985,
      "name": "ビーゼンラウブリンゲン",
      "name_default": "Beesenlaublingen",
      "native": "Beesenlaarblingen",
      "type": "city",
      "level": null,
      "parent_id": null,
      "population": 1586,
      "latitude": "51.71274000",
      "longitude": "11.69729000",
      "timezone": "Europe/Berlin",
      "wikiDataId": "Q2789462",
      "country_code": "DE",
      "state_code": "ST",
      "state_id": 3011,
      "country_id": 82
    },
    {
      "id": 23986,
      "name": "ベーゼンシュテット",
      "name_default": "Beesenstedt",
      "native": "Beesenstedt",
      "type": "city",
      "level": null,
      "parent_id": null,
      "population": 1287,
      "latitude": "51.56828000",
      "longitude": "11.73323000",
      "timezone": "Europe/Berlin",
      "wikiDataId": "Q599776",
      "country_code": "DE",
      "state_code": "ST",
      "state_id": 3011,
      "country_id": 82
    },
    {
      "id": 23989,
      "name": "ベーツェンドルフ",
      "name_default": "Beetzendorf",
      "native": "Beetzendorf",
      "type": "adm4",
      "level": null,
      "parent_id": null,
      "population": 1942,
      "latitude": "52.70226000",
      "longitude": "11.08890000",
      "timezone": "Europe/Berlin",
      "wikiDataId": "Q551981",
      "country_code": "DE",
      "state_code": "ST",
      "state_id": 3011,
      "country_id": 82
    },
    {
      "id": 24001,
      "name": "ベルベン",
      "name_default": "Belleben",
      "native": "Belleben",
      "type": "city",
      "level": null,
      "parent_id": null,
      "population": 1004,
      "latitude": "51.67499000",
      "longitude": "11.63420000",
      "timezone": "Europe/Berlin",
      "wikiDataId": "Q2694018",
      "country_code": "DE",
      "state_code": "ST",
      "state_id": 3011,
      "country_id": 82
    },
    {
      "id": 24010,
      "name": "ベンドルフ",
      "name_default": "Benndorf",
      "native": "Benndorf",
      "type": "adm4",
      "level": null,
      "parent_id": null,
      "population": 2491,
      "latitude": "51.57035000",
      "longitude": "11.49290000",
      "timezone": "Europe/Berlin",
      "wikiDataId": "Q503628",
      "country_code": "DE",
      "state_code": "ST",
      "state_id": 3011,
      "country_id": 82
    },
    {
      "id": 24011,
      "name": "ベネケンシュタイン",
      "name_default": "Benneckenstein",
      "native": "Benneckenstein",
      "type": "city",
      "level": null,
      "parent_id": null,
      "population": 2256,
      "latitude": "51.66823000",
      "longitude": "10.71716000",
      "timezone": "Europe/Berlin",
      "wikiDataId": "Q700388",
      "country_code": "DE",
      "state_code": "ST",
      "state_id": 3011,
      "country_id": 82
    },
    {
      "id": 24015,
      "name": "ベンシュテット",
      "name_default": "Bennstedt",
      "native": "Bennstedt",
      "type": "city",
      "level": null,
      "parent_id": null,
      "population": 1514,
      "latitude": "51.48201000",
      "longitude": "11.82620000",
      "timezone": "Europe/Berlin",
      "wikiDataId": "Q701140",
      "country_code": "DE",
      "state_code": "ST",
      "state_id": 3011,
      "country_id": 82
    },
    {
      "id": 24016,
      "name": "ベンヌンゲン",
      "name_default": "Bennungen",
      "native": "Bennungen",
      "type": "city",
      "level": null,
      "parent_id": null,
      "population": 1004,
      "latitude": "51.46085000",
      "longitude": "11.11816000",
      "timezone": "Europe/Berlin",
      "wikiDataId": "Q695574",
      "country_code": "DE",
      "state_code": "ST",
      "state_id": 3011,
      "country_id": 82
    },
    {
      "id": 24028,
      "name": "ベルガ",
      "name_default": "Berga",
      "native": "Berga",
      "type": "adm4",
      "level": null,
      "parent_id": null,
      "population": 1654,
      "latitude": "51.45561000",
      "longitude": "11.00710000",
      "timezone": "Europe/Berlin",
      "wikiDataId": "Q504700",
      "country_code": "DE",
      "state_code": "ST",
      "state_id": 3011,
      "country_id": 82
    },
    {
      "id": 24049,
      "name": "ベルグヴィッツ",
      "name_default": "Bergwitz",
      "native": "Bergwitz",
      "type": "city",
      "level": null,
      "parent_id": null,
      "population": 1679,
      "latitude": "51.79479000",
      "longitude": "12.58954000",
      "timezone": "Europe/Berlin",
      "wikiDataId": "Q633869",
      "country_code": "DE",
      "state_code": "ST",
      "state_id": 3011,
      "country_id": 82
    },
    {
      "id": 24063,
      "name": "ベルンブルク",
      "name_default": "Bernburg",
      "native": "Bernburg",
      "type": "adm3",
      "level": null,
      "parent_id": null,
      "population": 32106,
      "latitude": "51.79464000",
      "longitude": "11.74010000",
      "timezone": "Europe/Berlin",
      "wikiDataId": "Q14938",
      "country_code": "DE",
      "state_code": "ST",
      "state_id": 3011,
      "country_id": 82
    },
    {
      "id": 24087,
      "name": "ベウナ",
      "name_default": "Beuna",
      "native": "Wiederholt",
      "type": "city",
      "level": null,
      "parent_id": null,
      "population": 1032,
      "latitude": "51.31667000",
      "longitude": "11.95000000",
      "timezone": "Europe/Berlin",
      "wikiDataId": "Q702094",
      "country_code": "DE",
      "state_code": "ST",
      "state_id": 3011,
      "country_id": 82
    },
    {
      "id": 24106,
      "name": "ビーデリッツ",
      "name_default": "Biederitz",
      "native": "Biederitz",
      "type": "adm4",
      "level": null,
      "parent_id": null,
      "population": 4545,
      "latitude": "52.15000000",
      "longitude": "11.71667000",
      "timezone": "Europe/Berlin",
      "wikiDataId": "Q551174",
      "country_code": "DE",
      "state_code": "ST",
      "state_id": 3011,
      "country_id": 82
    },
    {
      "id": 24110,
      "name": "ビエール",
      "name_default": "Biere",
      "native": "Biere",
      "type": "city",
      "level": null,
      "parent_id": null,
      "population": 2442,
      "latitude": "51.97431000",
      "longitude": "11.65443000",
      "timezone": "Europe/Berlin",
      "wikiDataId": "Q699129",
      "country_code": "DE",
      "state_code": "ST",
      "state_id": 3011,
      "country_id": 82
    },
    {
      "id": 24154,
      "name": "ビスマルク",
      "name_default": "Bismark",
      "native": "Bismark",
      "type": "city",
      "level": null,
      "parent_id": null,
      "population": 3313,
      "latitude": "52.66195000",
      "longitude": "11.55638000",
      "timezone": "Europe/Berlin",
      "wikiDataId": "Q31914651",
      "country_code": "DE",
      "state_code": "ST",
      "state_id": 3011,
      "country_id": 82
    },
    {
      "id": 24160,
      "name": "ビッターフェルト＝ヴォルフェン",
      "name_default": "Bitterfeld-Wolfen",
      "native": "Bitterfeld-Wolfen",
      "type": "city",
      "level": null,
      "parent_id": null,
      "population": 15608,
      "latitude": "51.62355000",
      "longitude": "12.32395000",
      "timezone": "Europe/Berlin",
      "wikiDataId": "Q836932",
      "country_code": "DE",
      "state_code": "ST",
      "state_id": 3011,
      "country_id": 82
    },
    {
      "id": 24166,
      "name": "ブランケンブルク",
      "name_default": "Blankenburg",
      "native": "Blankenburg",
      "type": "city",
      "level": null,
      "parent_id": null,
      "population": 15963,
      "latitude": "51.79025000",
      "longitude": "10.95509000",
      "timezone": "Europe/Berlin",
      "wikiDataId": "Q525960",
      "country_code": "DE",
      "state_code": "ST",
      "state_id": 3011,
      "country_id": 82
    },
    {
      "id": 24170,
      "name": "ブランケンハイム",
      "name_default": "Blankenheim",
      "native": "Blankenheim",
      "type": "adm4",
      "level": null,
      "parent_id": null,
      "population": 1436,
      "latitude": "51.50717000",
      "longitude": "11.42878000",
      "timezone": "Europe/Berlin",
      "wikiDataId": "Q539185",
      "country_code": "DE",
      "state_code": "ST",
      "state_id": 3011,
      "country_id": 82
    },
    {
      "id": 24188,
      "name": "ボブバウ",
      "name_default": "Bobbau",
      "native": "Banka",
      "type": "city",
      "level": null,
      "parent_id": null,
      "population": 1697,
      "latitude": "51.68747000",
      "longitude": "12.27253000",
      "timezone": "Europe/Berlin",
      "wikiDataId": "Q687880",
      "country_code": "DE",
      "state_code": "ST",
      "state_id": 3011,
      "country_id": 82
    },
    {
      "id": 24251,
      "name": "ボルネ",
      "name_default": "Borne",
      "native": "Geboren",
      "type": "adm4",
      "level": null,
      "parent_id": null,
      "population": 1415,
      "latitude": "51.94881000",
      "longitude": "11.55865000",
      "timezone": "Europe/Berlin",
      "wikiDataId": "Q623947",
      "country_code": "DE",
      "state_code": "ST",
      "state_id": 3011,
      "country_id": 82
    },
    {
      "id": 24284,
      "name": "ブラシュヴィッツ",
      "name_default": "Braschwitz",
      "native": "BRASHWITZ",
      "type": "city",
      "level": null,
      "parent_id": null,
      "population": 1251,
      "latitude": "51.52284000",
      "longitude": "12.05867000",
      "timezone": "Europe/Berlin",
      "wikiDataId": "Q689924",
      "country_code": "DE",
      "state_code": "ST",
      "state_id": 3011,
      "country_id": 82
    },
    {
      "id": 24290,
      "name": "ブラウンズベドラ",
      "name_default": "Braunsbedra",
      "native": "Braunsbedra",
      "type": "city",
      "level": null,
      "parent_id": null,
      "population": 6599,
      "latitude": "51.28602000",
      "longitude": "11.88987000",
      "timezone": "Europe/Berlin",
      "wikiDataId": "Q519640",
      "country_code": "DE",
      "state_code": "ST",
      "state_id": 3011,
      "country_id": 82
    },
    {
      "id": 24299,
      "name": "ブレナ",
      "name_default": "Brehna",
      "native": "Brehhna",
      "type": "city",
      "level": null,
      "parent_id": null,
      "population": 3014,
      "latitude": "51.55790000",
      "longitude": "12.21276000",
      "timezone": "Europe/Berlin",
      "wikiDataId": "Q119311",
      "country_code": "DE",
      "state_code": "ST",
      "state_id": 3011,
      "country_id": 82
    },
    {
      "id": 24357,
      "name": "ブランビー",
      "name_default": "Brumby",
      "native": "Brumby",
      "type": "city",
      "level": null,
      "parent_id": null,
      "population": 1046,
      "latitude": "51.89635000",
      "longitude": "11.71751000",
      "timezone": "Europe/Berlin",
      "wikiDataId": "Q31923065",
      "country_code": "DE",
      "state_code": "ST",
      "state_id": 3011,
      "country_id": 82
    },
    {
      "id": 24410,
      "name": "マクデブルク城",
      "name_default": "Burg bei Magdeburg",
      "native": "Burg bei Magdeburg",
      "type": "adm3",
      "level": null,
      "parent_id": null,
      "population": 24958,
      "latitude": "52.27152000",
      "longitude": "11.85493000",
      "timezone": "Europe/Berlin",
      "wikiDataId": "Q525632",
      "country_code": "DE",
      "state_code": "ST",
      "state_id": 3011,
      "country_id": 82
    },
    {
      "id": 24437,
      "name": "ブルクヴェルベン",
      "name_default": "Burgwerben",
      "native": "Burgwerben",
      "type": "city",
      "level": null,
      "parent_id": null,
      "population": 1062,
      "latitude": "51.22270000",
      "longitude": "11.98396000",
      "timezone": "Europe/Berlin",
      "wikiDataId": "Q673082",
      "country_code": "DE",
      "state_code": "ST",
      "state_id": 3011,
      "country_id": 82
    },
    {
      "id": 24514,
      "name": "カルベ",
      "name_default": "Calbe",
      "native": "Calbe",
      "type": "city",
      "level": null,
      "parent_id": null,
      "population": 11322,
      "latitude": "51.90668000",
      "longitude": "11.77478000",
      "timezone": "Europe/Berlin",
      "wikiDataId": "Q505176",
      "country_code": "DE",
      "state_code": "ST",
      "state_id": 3011,
      "country_id": 82
    },
    {
      "id": 24518,
      "name": "カルヴォルデ",
      "name_default": "Calvörde",
      "native": "Calvörde",
      "type": "adm4",
      "level": null,
      "parent_id": null,
      "population": 1742,
      "latitude": "52.39551000",
      "longitude": "11.29463000",
      "timezone": "Europe/Berlin",
      "wikiDataId": "Q526417",
      "country_code": "DE",
      "state_code": "ST",
      "state_id": 3011,
      "country_id": 82
    },
    {
      "id": 24546,
      "name": "コッホシュテット",
      "name_default": "Cochstedt",
      "native": "Cochstedt",
      "type": "city",
      "level": null,
      "parent_id": null,
      "population": 1311,
      "latitude": "51.88247000",
      "longitude": "11.41085000",
      "timezone": "Europe/Berlin",
      "wikiDataId": "Q1105177",
      "country_code": "DE",
      "state_code": "ST",
      "state_id": 3011,
      "country_id": 82
    },
    {
      "id": 24548,
      "name": "コルビッツ",
      "name_default": "Colbitz",
      "native": "Colbitz",
      "type": "adm4",
      "level": null,
      "parent_id": null,
      "population": 3260,
      "latitude": "52.31708000",
      "longitude": "11.60534000",
      "timezone": "Europe/Berlin",
      "wikiDataId": "Q554920",
      "country_code": "DE",
      "state_code": "ST",
      "state_id": 3011,
      "country_id": 82
    },
    {
      "id": 24555,
      "name": "コスウィッグ",
      "name_default": "Coswig",
      "native": "Coswig",
      "type": "city",
      "level": null,
      "parent_id": null,
      "population": 8495,
      "latitude": "51.88618000",
      "longitude": "12.45009000",
      "timezone": "Europe/Berlin",
      "wikiDataId": "Q31939660",
      "country_code": "DE",
      "state_code": "ST",
      "state_id": 3011,
      "country_id": 82
    },
    {
      "id": 24581,
      "name": "ダーレンヴァルスレーベン",
      "name_default": "Dahlenwarsleben",
      "native": "DAHLENWARSLEBEN",
      "type": "city",
      "level": null,
      "parent_id": null,
      "population": 1424,
      "latitude": "52.19519000",
      "longitude": "11.53736000",
      "timezone": "Europe/Berlin",
      "wikiDataId": "Q833733",
      "country_code": "DE",
      "state_code": "ST",
      "state_id": 3011,
      "country_id": 82
    },
    {
      "id": 24596,
      "name": "ダーリンゲローデ",
      "name_default": "Darlingerode",
      "native": "Darlingerode",
      "type": "city",
      "level": null,
      "parent_id": null,
      "population": 2321,
      "latitude": "51.84712000",
      "longitude": "10.73097000",
      "timezone": "Europe/Berlin",
      "wikiDataId": "Q504034",
      "country_code": "DE",
      "state_code": "ST",
      "state_id": 3011,
      "country_id": 82
    },
    {
      "id": 24636,
      "name": "デレンバーグ",
      "name_default": "Derenburg",
      "native": "Derenburg",
      "type": "city",
      "level": null,
      "parent_id": null,
      "population": 2716,
      "latitude": "51.87086000",
      "longitude": "10.91029000",
      "timezone": "Europe/Berlin",
      "wikiDataId": "Q431886",
      "country_code": "DE",
      "state_code": "ST",
      "state_id": 3011,
      "country_id": 82
    },
    {
      "id": 24643,
      "name": "デッサウ",
      "name_default": "Dessau",
      "native": "Dessau",
      "type": "city",
      "level": null,
      "parent_id": null,
      "population": 67747,
      "latitude": "51.83864000",
      "longitude": "12.24555000",
      "timezone": "Europe/Berlin",
      "wikiDataId": "Q487070",
      "country_code": "DE",
      "state_code": "ST",
      "state_id": 3011,
      "country_id": 82
    },
    {
      "id": 153640,
      "name": "デッサウ＝ロスラウ",
      "name_default": "Dessau-Roßlau",
      "native": "Dessau-Roßlau",
      "type": "city",
      "level": null,
      "parent_id": null,
      "population": 79686,
      "latitude": "51.86055555",
      "longitude": "12.24694444",
      "timezone": "Europe/Berlin",
      "wikiDataId": "Q3828",
      "country_code": "DE",
      "state_code": "ST",
      "state_id": 3011,
      "country_id": 82
    },
    {
      "id": 24655,
      "name": "デューベン",
      "name_default": "Deuben",
      "native": "Zwei -geführt",
      "type": "city",
      "level": null,
      "parent_id": null,
      "population": 1236,
      "latitude": "51.10968000",
      "longitude": "12.07259000",
      "timezone": "Europe/Berlin",
      "wikiDataId": "Q634495",
      "country_code": "DE",
      "state_code": "ST",
      "state_id": 3011,
      "country_id": 82
    },
    {
      "id": 24674,
      "name": "ディースドルフ",
      "name_default": "Diesdorf",
      "native": "Diedorf",
      "type": "section",
      "level": null,
      "parent_id": null,
      "population": 2051,
      "latitude": "52.13075000",
      "longitude": "11.56483000",
      "timezone": "Europe/Berlin",
      "wikiDataId": "Q15944730",
      "country_code": "DE",
      "state_code": "ST",
      "state_id": 3011,
      "country_id": 82
    },
    {
      "id": 24675,
      "name": "ディースカウ",
      "name_default": "Dieskau",
      "native": "Diekau",
      "type": "city",
      "level": null,
      "parent_id": null,
      "population": 3133,
      "latitude": "51.43553000",
      "longitude": "12.04035000",
      "timezone": "Europe/Berlin",
      "wikiDataId": "Q1221448",
      "country_code": "DE",
      "state_code": "ST",
      "state_id": 3011,
      "country_id": 82
    },
    {
      "id": 24706,
      "name": "ディットフルト",
      "name_default": "Ditfurt",
      "native": "Ditfurt",
      "type": "adm4",
      "level": null,
      "parent_id": null,
      "population": 1846,
      "latitude": "51.83333000",
      "longitude": "11.20000000",
      "timezone": "Europe/Berlin",
      "wikiDataId": "Q551924",
      "country_code": "DE",
      "state_code": "ST",
      "state_id": 3011,
      "country_id": 82
    },
    {
      "id": 24716,
      "name": "ドビエン",
      "name_default": "Dobien",
      "native": "Dobien",
      "type": "city",
      "level": null,
      "parent_id": null,
      "population": 1339,
      "latitude": "51.90519000",
      "longitude": "12.61068000",
      "timezone": "Europe/Berlin",
      "wikiDataId": "Q636598",
      "country_code": "DE",
      "state_code": "ST",
      "state_id": 3011,
      "country_id": 82
    },
    {
      "id": 24795,
      "name": "ドルバウ",
      "name_default": "Dölbau",
      "native": "Dölbau",
      "type": "city",
      "level": null,
      "parent_id": null,
      "population": 1209,
      "latitude": "51.46701000",
      "longitude": "12.05735000",
      "timezone": "Europe/Berlin",
      "wikiDataId": "Q938559",
      "country_code": "DE",
      "state_code": "ST",
      "state_id": 3011,
      "country_id": 82
    },
    {
      "id": 24796,
      "name": "デルニッツ",
      "name_default": "Döllnitz",
      "native": "Döllnitz",
      "type": "city",
      "level": null,
      "parent_id": null,
      "population": 1383,
      "latitude": "51.40777000",
      "longitude": "12.02831000",
      "timezone": "Europe/Berlin",
      "wikiDataId": "Q956694",
      "country_code": "DE",
      "state_code": "ST",
      "state_id": 3011,
      "country_id": 82
    },
    {
      "id": 24725,
      "name": "ドマースレーベン",
      "name_default": "Domersleben",
      "native": "Domersleben",
      "type": "city",
      "level": null,
      "parent_id": null,
      "population": 1192,
      "latitude": "52.09199000",
      "longitude": "11.43757000",
      "timezone": "Europe/Berlin",
      "wikiDataId": "Q679812",
      "country_code": "DE",
      "state_code": "ST",
      "state_id": 3011,
      "country_id": 82
    },
    {
      "id": 24772,
      "name": "ドロイシグ",
      "name_default": "Droyßig",
      "native": "Droyßig",
      "type": "adm4",
      "level": null,
      "parent_id": null,
      "population": 1860,
      "latitude": "51.04247000",
      "longitude": "12.02590000",
      "timezone": "Europe/Berlin",
      "wikiDataId": "Q565919",
      "country_code": "DE",
      "state_code": "ST",
      "state_id": 3011,
      "country_id": 82
    },
    {
      "id": 24773,
      "name": "ドリューベック",
      "name_default": "Drübeck",
      "native": "Drübeck",
      "type": "city",
      "level": null,
      "parent_id": null,
      "population": 1557,
      "latitude": "51.85820000",
      "longitude": "10.71839000",
      "timezone": "Europe/Berlin",
      "wikiDataId": "Q703859",
      "country_code": "DE",
      "state_code": "ST",
      "state_id": 3011,
      "country_id": 82
    },
    {
      "id": 24822,
      "name": "エーベンドルフ",
      "name_default": "Ebendorf",
      "native": "Ebendorf",
      "type": "city",
      "level": null,
      "parent_id": null,
      "population": 2096,
      "latitude": "52.18551000",
      "longitude": "11.57478000",
      "timezone": "Europe/Berlin",
      "wikiDataId": "Q507352",
      "country_code": "DE",
      "state_code": "ST",
      "state_id": 3011,
      "country_id": 82
    },
    {
      "id": 24848,
      "name": "エッカーツベルガ",
      "name_default": "Eckartsberga",
      "native": "Eckartsberga",
      "type": "city",
      "level": null,
      "parent_id": null,
      "population": 2265,
      "latitude": "51.12380000",
      "longitude": "11.56045000",
      "timezone": "Europe/Berlin",
      "wikiDataId": "Q530107",
      "country_code": "DE",
      "state_code": "ST",
      "state_id": 3011,
      "country_id": 82
    },
    {
      "id": 24852,
      "name": "エデリッツ",
      "name_default": "Edderitz",
      "native": "Edderitz",
      "type": "city",
      "level": null,
      "parent_id": null,
      "population": 1250,
      "latitude": "51.69933000",
      "longitude": "11.93712000",
      "timezone": "Europe/Berlin",
      "wikiDataId": "Q688276",
      "country_code": "DE",
      "state_code": "ST",
      "state_id": 3011,
      "country_id": 82
    },
    {
      "id": 24857,
      "name": "エーダースレーベン",
      "name_default": "Edersleben",
      "native": "Edersleben",
      "type": "adm4",
      "level": null,
      "parent_id": null,
      "population": 961,
      "latitude": "51.41667000",
      "longitude": "11.28333000",
      "timezone": "Europe/Berlin",
      "wikiDataId": "Q504113",
      "country_code": "DE",
      "state_code": "ST",
      "state_id": 3011,
      "country_id": 82
    },
    {
      "id": 24865,
      "name": "エーゲルン",
      "name_default": "Egeln",
      "native": "Egeln",
      "type": "adm4",
      "level": null,
      "parent_id": null,
      "population": 4119,
      "latitude": "51.94384000",
      "longitude": "11.43265000",
      "timezone": "Europe/Berlin",
      "wikiDataId": "Q518194",
      "country_code": "DE",
      "state_code": "ST",
      "state_id": 3011,
      "country_id": 82
    },
    {
      "id": 24876,
      "name": "エッガースドルフ",
      "name_default": "Eggersdorf",
      "native": "Eggersdorf",
      "type": "city",
      "level": null,
      "parent_id": null,
      "population": 1224,
      "latitude": "51.97621000",
      "longitude": "11.70971000",
      "timezone": "Europe/Berlin",
      "wikiDataId": "Q704442",
      "country_code": "DE",
      "state_code": "ST",
      "state_id": 3011,
      "country_id": 82
    },
    {
      "id": 24899,
      "name": "アイヒェンバーレーベン",
      "name_default": "Eichenbarleben",
      "native": "Eichenbarleben",
      "type": "city",
      "level": null,
      "parent_id": null,
      "population": 1163,
      "latitude": "52.16688000",
      "longitude": "11.40125000",
      "timezone": "Europe/Berlin",
      "wikiDataId": "Q80032",
      "country_code": "DE",
      "state_code": "ST",
      "state_id": 3011,
      "country_id": 82
    },
    {
      "id": 24908,
      "name": "アイケンドルフ",
      "name_default": "Eickendorf",
      "native": "Eickendorf",
      "type": "city",
      "level": null,
      "parent_id": null,
      "population": 1208,
      "latitude": "51.94765000",
      "longitude": "11.67538000",
      "timezone": "Europe/Berlin",
      "wikiDataId": "Q704419",
      "country_code": "DE",
      "state_code": "ST",
      "state_id": 3011,
      "country_id": 82
    },
    {
      "id": 24914,
      "name": "アイルスレーベン",
      "name_default": "Eilsleben",
      "native": "Eilsleben",
      "type": "adm4",
      "level": null,
      "parent_id": null,
      "population": 2282,
      "latitude": "52.14708000",
      "longitude": "11.21035000",
      "timezone": "Europe/Berlin",
      "wikiDataId": "Q573458",
      "country_code": "DE",
      "state_code": "ST",
      "state_id": 3011,
      "country_id": 82
    },
    {
      "id": 24933,
      "name": "アイスレーベン・ルターシュタット",
      "name_default": "Eisleben Lutherstadt",
      "native": "Eisleben Lutherstadt",
      "type": "city",
      "level": null,
      "parent_id": null,
      "population": 22668,
      "latitude": "51.52754000",
      "longitude": "11.54835000",
      "timezone": "Europe/Berlin",
      "wikiDataId": "Q484870",
      "country_code": "DE",
      "state_code": "ST",
      "state_id": 3011,
      "country_id": 82
    },
    {
      "id": 24940,
      "name": "エルビンゲローデ",
      "name_default": "Elbingerode",
      "native": "Elbingerode",
      "type": "city",
      "level": null,
      "parent_id": null,
      "population": 4112,
      "latitude": "51.77039000",
      "longitude": "10.80557000",
      "timezone": "Europe/Berlin",
      "wikiDataId": "Q504884",
      "country_code": "DE",
      "state_code": "ST",
      "state_id": 3011,
      "country_id": 82
    },
    {
      "id": 24969,
      "name": "エルスター",
      "name_default": "Elster",
      "native": "Elster",
      "type": "city",
      "level": null,
      "parent_id": null,
      "population": 2638,
      "latitude": "51.83011000",
      "longitude": "12.82424000",
      "timezone": "Europe/Berlin",
      "wikiDataId": "Q31994476",
      "country_code": "DE",
      "state_code": "ST",
      "state_id": 3011,
      "country_id": 82
    },
    {
      "id": 25031,
      "name": "エルデボルン",
      "name_default": "Erdeborn",
      "native": "Erdeborn",
      "type": "city",
      "level": null,
      "parent_id": null,
      "population": 1117,
      "latitude": "51.47554000",
      "longitude": "11.63487000",
      "timezone": "Europe/Berlin",
      "wikiDataId": "Q696531",
      "country_code": "DE",
      "state_code": "ST",
      "state_id": 3011,
      "country_id": 82
    },
    {
      "id": 25062,
      "name": "エルムリッツ",
      "name_default": "Ermlitz",
      "native": "Ermlitz",
      "type": "city",
      "level": null,
      "parent_id": null,
      "population": 1468,
      "latitude": "51.39182000",
      "longitude": "12.15946000",
      "timezone": "Europe/Berlin",
      "wikiDataId": "Q1355991",
      "country_code": "DE",
      "state_code": "ST",
      "state_id": 3011,
      "country_id": 82
    },
    {
      "id": 25072,
      "name": "エルクスレーベン",
      "name_default": "Erxleben",
      "native": "Erxleben",
      "type": "adm4",
      "level": null,
      "parent_id": null,
      "population": 1329,
      "latitude": "52.21812000",
      "longitude": "11.24245000",
      "timezone": "Europe/Berlin",
      "wikiDataId": "Q31998810",
      "country_code": "DE",
      "state_code": "ST",
      "state_id": 3011,
      "country_id": 82
    },
    {
      "id": 25144,
      "name": "ファルンシュテット",
      "name_default": "Farnstädt",
      "native": "Geschlagen",
      "type": "adm4",
      "level": null,
      "parent_id": null,
      "population": 1495,
      "latitude": "51.43333000",
      "longitude": "11.56667000",
      "timezone": "Europe/Berlin",
      "wikiDataId": "Q339068",
      "country_code": "DE",
      "state_code": "ST",
      "state_id": 3011,
      "country_id": 82
    },
    {
      "id": 25186,
      "name": "フレヒティンゲン",
      "name_default": "Flechtingen",
      "native": "Fliegen",
      "type": "adm4",
      "level": null,
      "parent_id": null,
      "population": 1766,
      "latitude": "52.33083000",
      "longitude": "11.24176000",
      "timezone": "Europe/Berlin",
      "wikiDataId": "Q568197",
      "country_code": "DE",
      "state_code": "ST",
      "state_id": 3011,
      "country_id": 82
    },
    {
      "id": 25190,
      "name": "フレッサウ",
      "name_default": "Flessau",
      "native": "Flessau",
      "type": "city",
      "level": null,
      "parent_id": null,
      "population": 1048,
      "latitude": "52.75996000",
      "longitude": "11.67093000",
      "timezone": "Europe/Berlin",
      "wikiDataId": "Q836717",
      "country_code": "DE",
      "state_code": "ST",
      "state_id": 3011,
      "country_id": 82
    },
    {
      "id": 25322,
      "name": "フォルダーシュテット",
      "name_default": "Förderstedt",
      "native": "Zucht",
      "type": "city",
      "level": null,
      "parent_id": null,
      "population": 2045,
      "latitude": "51.89717000",
      "longitude": "11.63349000",
      "timezone": "Europe/Berlin",
      "wikiDataId": "Q698748",
      "country_code": "DE",
      "state_code": "ST",
      "state_id": 3011,
      "country_id": 82
    },
    {
      "id": 25223,
      "name": "フランクレーベン",
      "name_default": "Frankleben",
      "native": "Frankleben",
      "type": "city",
      "level": null,
      "parent_id": null,
      "population": 1650,
      "latitude": "51.31144000",
      "longitude": "11.92932000",
      "timezone": "Europe/Berlin",
      "wikiDataId": "Q1445126",
      "country_code": "DE",
      "state_code": "ST",
      "state_id": 3011,
      "country_id": 82
    },
    {
      "id": 25262,
      "name": "フライブルク",
      "name_default": "Freyburg",
      "native": "Freyburg",
      "type": "city",
      "level": null,
      "parent_id": null,
      "population": 4579,
      "latitude": "51.21362000",
      "longitude": "11.76804000",
      "timezone": "Europe/Berlin",
      "wikiDataId": "Q61656",
      "country_code": "DE",
      "state_code": "ST",
      "state_id": 3011,
      "country_id": 82
    },
    {
      "id": 25278,
      "name": "フリーダースドルフ",
      "name_default": "Friedersdorf",
      "native": "Friedersdorf",
      "type": "city",
      "level": null,
      "parent_id": null,
      "population": 2028,
      "latitude": "51.64809000",
      "longitude": "12.36555000",
      "timezone": "Europe/Berlin",
      "wikiDataId": "Q688691",
      "country_code": "DE",
      "state_code": "ST",
      "state_id": 3011,
      "country_id": 82
    },
    {
      "id": 25285,
      "name": "フリードリヒスブルン",
      "name_default": "Friedrichsbrunn",
      "native": "Friedrichsbrunn",
      "type": "city",
      "level": null,
      "parent_id": null,
      "population": 1083,
      "latitude": "51.69028000",
      "longitude": "11.03737000",
      "timezone": "Europe/Berlin",
      "wikiDataId": "Q704165",
      "country_code": "DE",
      "state_code": "ST",
      "state_id": 3011,
      "country_id": 82
    },
    {
      "id": 25292,
      "name": "フリードリヒシュタット",
      "name_default": "Friedrichstadt",
      "native": "Friedrichstadt",
      "type": "section",
      "level": null,
      "parent_id": null,
      "population": 7717,
      "latitude": "51.88751000",
      "longitude": "12.66947000",
      "timezone": "Europe/Berlin",
      "wikiDataId": "Q538124",
      "country_code": "DE",
      "state_code": "ST",
      "state_id": 3011,
      "country_id": 82
    },
    {
      "id": 25309,
      "name": "フローズ",
      "name_default": "Frose",
      "native": "Obst",
      "type": "city",
      "level": null,
      "parent_id": null,
      "population": 1549,
      "latitude": "51.79581000",
      "longitude": "11.37914000",
      "timezone": "Europe/Berlin",
      "wikiDataId": "Q822173",
      "country_code": "DE",
      "state_code": "ST",
      "state_id": 3011,
      "country_id": 82
    },
    {
      "id": 25364,
      "name": "ガルデレーゲン",
      "name_default": "Gardelegen",
      "native": "Gardelegen",
      "type": "city",
      "level": null,
      "parent_id": null,
      "population": 11868,
      "latitude": "52.52520000",
      "longitude": "11.39523000",
      "timezone": "Europe/Berlin",
      "wikiDataId": "Q32024620",
      "country_code": "DE",
      "state_code": "ST",
      "state_id": 3011,
      "country_id": 82
    },
    {
      "id": 25375,
      "name": "ガタースレーベン",
      "name_default": "Gatersleben",
      "native": "Gachersleben",
      "type": "city",
      "level": null,
      "parent_id": null,
      "population": 2589,
      "latitude": "51.82215000",
      "longitude": "11.28661000",
      "timezone": "Europe/Berlin",
      "wikiDataId": "Q686432",
      "country_code": "DE",
      "state_code": "ST",
      "state_id": 3011,
      "country_id": 82
    },
    {
      "id": 25428,
      "name": "ゲンシン",
      "name_default": "Genthin",
      "native": "Genthin",
      "type": "city",
      "level": null,
      "parent_id": null,
      "population": 13646,
      "latitude": "52.40668000",
      "longitude": "12.15920000",
      "timezone": "Europe/Berlin",
      "wikiDataId": "Q284317",
      "country_code": "DE",
      "state_code": "ST",
      "state_id": 3011,
      "country_id": 82
    },
    {
      "id": 25439,
      "name": "ゲルブシュテット",
      "name_default": "Gerbstedt",
      "native": "Gerbstedt",
      "type": "adm4",
      "level": null,
      "parent_id": null,
      "population": 2885,
      "latitude": "51.63281000",
      "longitude": "11.62669000",
      "timezone": "Europe/Berlin",
      "wikiDataId": "Q50891",
      "country_code": "DE",
      "state_code": "ST",
      "state_id": 3011,
      "country_id": 82
    },
    {
      "id": 25447,
      "name": "ゲルンローデ",
      "name_default": "Gernrode",
      "native": "Gernrode",
      "type": "city",
      "level": null,
      "parent_id": null,
      "population": 3947,
      "latitude": "51.72575000",
      "longitude": "11.13876000",
      "timezone": "Europe/Berlin",
      "wikiDataId": "Q22629",
      "country_code": "DE",
      "state_code": "ST",
      "state_id": 3011,
      "country_id": 82
    },
    {
      "id": 25466,
      "name": "ゲルウィッシュ",
      "name_default": "Gerwisch",
      "native": "Gerwisch",
      "type": "city",
      "level": null,
      "parent_id": null,
      "population": 2791,
      "latitude": "52.17662000",
      "longitude": "11.73972000",
      "timezone": "Europe/Berlin",
      "wikiDataId": "Q702804",
      "country_code": "DE",
      "state_code": "ST",
      "state_id": 3011,
      "country_id": 82
    },
    {
      "id": 25477,
      "name": "ゲウサ",
      "name_default": "Geusa",
      "native": "bereits",
      "type": "city",
      "level": null,
      "parent_id": null,
      "population": 1519,
      "latitude": "51.33914000",
      "longitude": "11.94382000",
      "timezone": "Europe/Berlin",
      "wikiDataId": "Q690003",
      "country_code": "DE",
      "state_code": "ST",
      "state_id": 3011,
      "country_id": 82
    },
    {
      "id": 25485,
      "name": "ギアスレーベン",
      "name_default": "Giersleben",
      "native": "Giersleben",
      "type": "adm4",
      "level": null,
      "parent_id": null,
      "population": 1187,
      "latitude": "51.76667000",
      "longitude": "11.56667000",
      "timezone": "Europe/Berlin",
      "wikiDataId": "Q564370",
      "country_code": "DE",
      "state_code": "ST",
      "state_id": 3011,
      "country_id": 82
    },
    {
      "id": 25514,
      "name": "グリンデンベルク",
      "name_default": "Glindenberg",
      "native": "Glindenberg",
      "type": "city",
      "level": null,
      "parent_id": null,
      "population": 1346,
      "latitude": "52.23857000",
      "longitude": "11.68361000",
      "timezone": "Europe/Berlin",
      "wikiDataId": "Q701275",
      "country_code": "DE",
      "state_code": "ST",
      "state_id": 3011,
      "country_id": 82
    },
    {
      "id": 25517,
      "name": "グローテ",
      "name_default": "Glöthe",
      "native": "Glöthe",
      "type": "city",
      "level": null,
      "parent_id": null,
      "population": 1082,
      "latitude": "51.91000000",
      "longitude": "11.67471000",
      "timezone": "Europe/Berlin",
      "wikiDataId": "Q1532713",
      "country_code": "DE",
      "state_code": "ST",
      "state_id": 3011,
      "country_id": 82
    },
    {
      "id": 25530,
      "name": "ゴールドベック",
      "name_default": "Goldbeck",
      "native": "Goldbeck",
      "type": "adm4",
      "level": null,
      "parent_id": null,
      "population": 1406,
      "latitude": "52.71695000",
      "longitude": "11.86060000",
      "timezone": "Europe/Berlin",
      "wikiDataId": "Q32035907",
      "country_code": "DE",
      "state_code": "ST",
      "state_id": 3011,
      "country_id": 82
    },
    {
      "id": 25539,
      "name": "ゴンメルン",
      "name_default": "Gommern",
      "native": "Gommern",
      "type": "city",
      "level": null,
      "parent_id": null,
      "population": 5992,
      "latitude": "52.07391000",
      "longitude": "11.82297000",
      "timezone": "Europe/Berlin",
      "wikiDataId": "Q50880",
      "country_code": "DE",
      "state_code": "ST",
      "state_id": 3011,
      "country_id": 82
    },
    {
      "id": 25785,
      "name": "ゲルツィヒ",
      "name_default": "Görzig",
      "native": "Görzig",
      "type": "city",
      "level": null,
      "parent_id": null,
      "population": 1241,
      "latitude": "51.66381000",
      "longitude": "11.99759000",
      "timezone": "Europe/Berlin",
      "wikiDataId": "Q689757",
      "country_code": "DE",
      "state_code": "ST",
      "state_id": 3011,
      "country_id": 82
    },
    {
      "id": 25545,
      "name": "ゴセック",
      "name_default": "Goseck",
      "native": "Gosseck",
      "type": "adm4",
      "level": null,
      "parent_id": null,
      "population": 998,
      "latitude": "51.20000000",
      "longitude": "11.86667000",
      "timezone": "Europe/Berlin",
      "wikiDataId": "Q649074",
      "country_code": "DE",
      "state_code": "ST",
      "state_id": 3011,
      "country_id": 82
    },
    {
      "id": 25724,
      "name": "グレーフェンハイニヒェン",
      "name_default": "Gräfenhainichen",
      "native": "Gräfenhainichen",
      "type": "city",
      "level": null,
      "parent_id": null,
      "population": 7833,
      "latitude": "51.72892000",
      "longitude": "12.45651000",
      "timezone": "Europe/Berlin",
      "wikiDataId": "Q33441461",
      "country_code": "DE",
      "state_code": "ST",
      "state_id": 3011,
      "country_id": 82
    },
    {
      "id": 25576,
      "name": "グランシュッツ",
      "name_default": "Granschütz",
      "native": "Granschütz",
      "type": "city",
      "level": null,
      "parent_id": null,
      "population": 1229,
      "latitude": "51.18431000",
      "longitude": "12.05149000",
      "timezone": "Europe/Berlin",
      "wikiDataId": "Q673343",
      "country_code": "DE",
      "state_code": "ST",
      "state_id": 3011,
      "country_id": 82
    },
    {
      "id": 25600,
      "name": "グレピン",
      "name_default": "Greppin",
      "native": "Greppin",
      "type": "city",
      "level": null,
      "parent_id": null,
      "population": 2840,
      "latitude": "51.64682000",
      "longitude": "12.30066000",
      "timezone": "Europe/Berlin",
      "wikiDataId": "Q649244",
      "country_code": "DE",
      "state_code": "ST",
      "state_id": 3011,
      "country_id": 82
    },
    {
      "id": 25728,
      "name": "グローバーズ",
      "name_default": "Gröbers",
      "native": "Gröber",
      "type": "city",
      "level": null,
      "parent_id": null,
      "population": 2460,
      "latitude": "51.43050000",
      "longitude": "12.11623000",
      "timezone": "Europe/Berlin",
      "wikiDataId": "Q1551614",
      "country_code": "DE",
      "state_code": "ST",
      "state_id": 3011,
      "country_id": 82
    },
    {
      "id": 25729,
      "name": "グレブツィヒ",
      "name_default": "Gröbzig",
      "native": "Gröbzig",
      "type": "city",
      "level": null,
      "parent_id": null,
      "population": 3034,
      "latitude": "51.68226000",
      "longitude": "11.87453000",
      "timezone": "Europe/Berlin",
      "wikiDataId": "Q705627",
      "country_code": "DE",
      "state_code": "ST",
      "state_id": 3011,
      "country_id": 82
    },
    {
      "id": 25732,
      "name": "フローニンゲン",
      "name_default": "Gröningen",
      "native": "Grögen",
      "type": "adm4",
      "level": null,
      "parent_id": null,
      "population": 3525,
      "latitude": "51.93744000",
      "longitude": "11.21601000",
      "timezone": "Europe/Berlin",
      "wikiDataId": "Q571925",
      "country_code": "DE",
      "state_code": "ST",
      "state_id": 3011,
      "country_id": 82
    },
    {
      "id": 25619,
      "name": "グロース・アメンスレーベン",
      "name_default": "Groß Ammensleben",
      "native": "Groß Ammensleben",
      "type": "city",
      "level": null,
      "parent_id": null,
      "population": 1400,
      "latitude": "52.23279000",
      "longitude": "11.52195000",
      "timezone": "Europe/Berlin",
      "wikiDataId": "Q638070",
      "country_code": "DE",
      "state_code": "ST",
      "state_id": 3011,
      "country_id": 82
    },
    {
      "id": 25620,
      "name": "グロース・ベルネッケ",
      "name_default": "Groß Börnecke",
      "native": "Groß Börnecke",
      "type": "city",
      "level": null,
      "parent_id": null,
      "population": 1763,
      "latitude": "51.88468000",
      "longitude": "11.47032000",
      "timezone": "Europe/Berlin",
      "wikiDataId": "Q1547889",
      "country_code": "DE",
      "state_code": "ST",
      "state_id": 3011,
      "country_id": 82
    },
    {
      "id": 25635,
      "name": "グロース・クエンシュテット",
      "name_default": "Groß Quenstedt",
      "native": "Groß Quenstedt",
      "type": "adm4",
      "level": null,
      "parent_id": null,
      "population": 863,
      "latitude": "51.93333000",
      "longitude": "11.11667000",
      "timezone": "Europe/Berlin",
      "wikiDataId": "Q370074",
      "country_code": "DE",
      "state_code": "ST",
      "state_id": 3011,
      "country_id": 82
    },
    {
      "id": 25637,
      "name": "グロース・ローデンスレーベン",
      "name_default": "Groß Rodensleben",
      "native": "Groß Rodensleben",
      "type": "city",
      "level": null,
      "parent_id": null,
      "population": 1097,
      "latitude": "52.12139000",
      "longitude": "11.38367000",
      "timezone": "Europe/Berlin",
      "wikiDataId": "Q688602",
      "country_code": "DE",
      "state_code": "ST",
      "state_id": 3011,
      "country_id": 82
    },
    {
      "id": 25638,
      "name": "グロース・ローゼンブルク",
      "name_default": "Groß Rosenburg",
      "native": "Groß Rosenburg",
      "type": "city",
      "level": null,
      "parent_id": null,
      "population": 1811,
      "latitude": "51.91696000",
      "longitude": "11.89184000",
      "timezone": "Europe/Berlin",
      "wikiDataId": "Q177585",
      "country_code": "DE",
      "state_code": "ST",
      "state_id": 3011,
      "country_id": 82
    },
    {
      "id": 25639,
      "name": "グロース・ザンタースレーベン",
      "name_default": "Groß Santersleben",
      "native": "Groß Santersleben",
      "type": "city",
      "level": null,
      "parent_id": null,
      "population": 1126,
      "latitude": "52.19143000",
      "longitude": "11.45486000",
      "timezone": "Europe/Berlin",
      "wikiDataId": "Q688685",
      "country_code": "DE",
      "state_code": "ST",
      "state_id": 3011,
      "country_id": 82
    },
    {
      "id": 25683,
      "name": "グロスカヤナ",
      "name_default": "Großkayna",
      "native": "Großyo",
      "type": "city",
      "level": null,
      "parent_id": null,
      "population": 1091,
      "latitude": "51.29068000",
      "longitude": "11.93269000",
      "timezone": "Europe/Berlin",
      "wikiDataId": "Q1549375",
      "country_code": "DE",
      "state_code": "ST",
      "state_id": 3011,
      "country_id": 82
    },
    {
      "id": 25685,
      "name": "グロースコルベタ",
      "name_default": "Großkorbetha",
      "native": "Großkorbetha",
      "type": "city",
      "level": null,
      "parent_id": null,
      "population": 2083,
      "latitude": "51.26002000",
      "longitude": "12.03012000",
      "timezone": "Europe/Berlin",
      "wikiDataId": "Q673108",
      "country_code": "DE",
      "state_code": "ST",
      "state_id": 3011,
      "country_id": 82
    },
    {
      "id": 25687,
      "name": "グロースクーゲル",
      "name_default": "Großkugel",
      "native": "Großkugel",
      "type": "city",
      "level": null,
      "parent_id": null,
      "population": 2272,
      "latitude": "51.41728000",
      "longitude": "12.14641000",
      "timezone": "Europe/Berlin",
      "wikiDataId": "Q2561873",
      "country_code": "DE",
      "state_code": "ST",
      "state_id": 3011,
      "country_id": 82
    },
    {
      "id": 25715,
      "name": "グロースオーナー",
      "name_default": "Großörner",
      "native": "Großörner",
      "type": "city",
      "level": null,
      "parent_id": null,
      "population": 2092,
      "latitude": "51.61527000",
      "longitude": "11.48980000",
      "timezone": "Europe/Berlin",
      "wikiDataId": "Q1549804",
      "country_code": "DE",
      "state_code": "ST",
      "state_id": 3011,
      "country_id": 82
    },
    {
      "id": 25795,
      "name": "ギュンタースドルフ",
      "name_default": "Günthersdorf",
      "native": "Günthersdorf",
      "type": "city",
      "level": null,
      "parent_id": null,
      "population": 1179,
      "latitude": "51.34570000",
      "longitude": "12.17175000",
      "timezone": "Europe/Berlin",
      "wikiDataId": "Q608020",
      "country_code": "DE",
      "state_code": "ST",
      "state_id": 3011,
      "country_id": 82
    },
    {
      "id": 25798,
      "name": "グステン",
      "name_default": "Güsten",
      "native": "Ihre Sicherheit",
      "type": "city",
      "level": null,
      "parent_id": null,
      "population": 3962,
      "latitude": "51.79637000",
      "longitude": "11.61246000",
      "timezone": "Europe/Berlin",
      "wikiDataId": "Q246502",
      "country_code": "DE",
      "state_code": "ST",
      "state_id": 3011,
      "country_id": 82
    },
    {
      "id": 25767,
      "name": "グーテンベルク",
      "name_default": "Gutenberg",
      "native": "Gutenberg",
      "type": "city",
      "level": null,
      "parent_id": null,
      "population": 1246,
      "latitude": "51.54710000",
      "longitude": "11.97181000",
      "timezone": "Europe/Berlin",
      "wikiDataId": "Q32048902",
      "country_code": "DE",
      "state_code": "ST",
      "state_id": 3011,
      "country_id": 82
    },
    {
      "id": 25813,
      "name": "ハドマースレーベン",
      "name_default": "Hadmersleben",
      "native": "Hadmersleben",
      "type": "city",
      "level": null,
      "parent_id": null,
      "population": 1953,
      "latitude": "51.99275000",
      "longitude": "11.30283000",
      "timezone": "Europe/Berlin",
      "wikiDataId": "Q673201",
      "country_code": "DE",
      "state_code": "ST",
      "state_id": 3011,
      "country_id": 82
    },
    {
      "id": 25844,
      "name": "ハルバーシュタット",
      "name_default": "Halberstadt",
      "native": "Halberstadt",
      "type": "adm3",
      "level": null,
      "parent_id": null,
      "population": 40069,
      "latitude": "51.89562000",
      "longitude": "11.05622000",
      "timezone": "Europe/Berlin",
      "wikiDataId": "Q7072",
      "country_code": "DE",
      "state_code": "ST",
      "state_id": 3011,
      "country_id": 82
    },
    {
      "id": 25846,
      "name": "ハルデンスレーベン I",
      "name_default": "Haldensleben I",
      "native": "Haldensleben I",
      "type": "adm3",
      "level": null,
      "parent_id": null,
      "population": 20294,
      "latitude": "52.28906000",
      "longitude": "11.40982000",
      "timezone": "Europe/Berlin",
      "wikiDataId": "Q186557",
      "country_code": "DE",
      "state_code": "ST",
      "state_id": 3011,
      "country_id": 82
    },
    {
      "id": 25853,
      "name": "ハレ（ザーレ）",
      "name_default": "Halle (Saale)",
      "native": "Halle (Saale)",
      "type": "city",
      "level": null,
      "parent_id": null,
      "population": 242172,
      "latitude": "51.48158000",
      "longitude": "11.97947000",
      "timezone": "Europe/Berlin",
      "wikiDataId": "Q2814",
      "country_code": "DE",
      "state_code": "ST",
      "state_id": 3011,
      "country_id": 82
    },
    {
      "id": 25854,
      "name": "ハレ・ノイシュタット",
      "name_default": "Halle Neustadt",
      "native": "Halle Neustadt",
      "type": "section",
      "level": null,
      "parent_id": null,
      "population": 44515,
      "latitude": "51.47924000",
      "longitude": "11.91605000",
      "timezone": "Europe/Berlin",
      "wikiDataId": "Q2814",
      "country_code": "DE",
      "state_code": "ST",
      "state_id": 3011,
      "country_id": 82
    },
    {
      "id": 25896,
      "name": "ハルブケ",
      "name_default": "Harbke",
      "native": "Häfen",
      "type": "adm4",
      "level": null,
      "parent_id": null,
      "population": 1836,
      "latitude": "52.18877000",
      "longitude": "11.04624000",
      "timezone": "Europe/Berlin",
      "wikiDataId": "Q630423",
      "country_code": "DE",
      "state_code": "ST",
      "state_id": 3011,
      "country_id": 82
    },
    {
      "id": 25909,
      "name": "ハルスレーベン",
      "name_default": "Harsleben",
      "native": "Harsleben",
      "type": "adm4",
      "level": null,
      "parent_id": null,
      "population": 2186,
      "latitude": "51.86667000",
      "longitude": "11.10000000",
      "timezone": "Europe/Berlin",
      "wikiDataId": "Q564281",
      "country_code": "DE",
      "state_code": "ST",
      "state_id": 3011,
      "country_id": 82
    },
    {
      "id": 25919,
      "name": "ハルツゲローデ",
      "name_default": "Harzgerode",
      "native": "Harzgerode",
      "type": "city",
      "level": null,
      "parent_id": null,
      "population": 4428,
      "latitude": "51.64189000",
      "longitude": "11.14330000",
      "timezone": "Europe/Berlin",
      "wikiDataId": "Q526353",
      "country_code": "DE",
      "state_code": "ST",
      "state_id": 3011,
      "country_id": 82
    },
    {
      "id": 25932,
      "name": "ハッセルフェルデ",
      "name_default": "Hasselfelde",
      "native": "Hasselfelde",
      "type": "city",
      "level": null,
      "parent_id": null,
      "population": 3159,
      "latitude": "51.69051000",
      "longitude": "10.85373000",
      "timezone": "Europe/Berlin",
      "wikiDataId": "Q50867",
      "country_code": "DE",
      "state_code": "ST",
      "state_id": 3011,
      "country_id": 82
    },
    {
      "id": 25956,
      "name": "ハーフェルベルク",
      "name_default": "Havelberg",
      "native": "Havelberg",
      "type": "city",
      "level": null,
      "parent_id": null,
      "population": 6494,
      "latitude": "52.83088000",
      "longitude": "12.07552000",
      "timezone": "Europe/Berlin",
      "wikiDataId": "Q504040",
      "country_code": "DE",
      "state_code": "ST",
      "state_id": 3011,
      "country_id": 82
    },
    {
      "id": 25970,
      "name": "ヘックリンゲン",
      "name_default": "Hecklingen",
      "native": "Zwischenrufe",
      "type": "city",
      "level": null,
      "parent_id": null,
      "population": 3969,
      "latitude": "51.84705000",
      "longitude": "11.53416000",
      "timezone": "Europe/Berlin",
      "wikiDataId": "Q374159",
      "country_code": "DE",
      "state_code": "ST",
      "state_id": 3011,
      "country_id": 82
    },
    {
      "id": 25972,
      "name": "ヘーダースレーベン",
      "name_default": "Hedersleben",
      "native": "Ehren",
      "type": "city",
      "level": null,
      "parent_id": null,
      "population": 1003,
      "latitude": "51.54891000",
      "longitude": "11.64983000",
      "timezone": "Europe/Berlin",
      "wikiDataId": "Q701866",
      "country_code": "DE",
      "state_code": "ST",
      "state_id": 3011,
      "country_id": 82
    },
    {
      "id": 26020,
      "name": "ヘルブラ",
      "name_default": "Helbra",
      "native": "Helbra",
      "type": "adm4",
      "level": null,
      "parent_id": null,
      "population": 3811,
      "latitude": "51.55000000",
      "longitude": "11.50000000",
      "timezone": "Europe/Berlin",
      "wikiDataId": "Q555270",
      "country_code": "DE",
      "state_code": "ST",
      "state_id": 3011,
      "country_id": 82
    },
    {
      "id": 26070,
      "name": "ヘルギスドルフ",
      "name_default": "Hergisdorf",
      "native": "Hergisdorf",
      "type": "adm4",
      "level": null,
      "parent_id": null,
      "population": 1471,
      "latitude": "51.53333000",
      "longitude": "11.48333000",
      "timezone": "Europe/Berlin",
      "wikiDataId": "Q513198",
      "country_code": "DE",
      "state_code": "ST",
      "state_id": 3011,
      "country_id": 82
    },
    {
      "id": 26080,
      "name": "ヘルムスドルフ",
      "name_default": "Hermsdorf",
      "native": "Hermsdorf",
      "type": "city",
      "level": null,
      "parent_id": null,
      "population": 1638,
      "latitude": "52.18740000",
      "longitude": "11.47556000",
      "timezone": "Europe/Berlin",
      "wikiDataId": "Q696881",
      "country_code": "DE",
      "state_code": "ST",
      "state_id": 3011,
      "country_id": 82
    },
    {
      "id": 26114,
      "name": "ヘットシュテット",
      "name_default": "Hettstedt",
      "native": "Haube",
      "type": "adm4",
      "level": null,
      "parent_id": null,
      "population": 13498,
      "latitude": "51.65030000",
      "longitude": "11.51146000",
      "timezone": "Europe/Berlin",
      "wikiDataId": "Q50883",
      "country_code": "DE",
      "state_code": "ST",
      "state_id": 3011,
      "country_id": 82
    },
    {
      "id": 26121,
      "name": "ヒューデバー",
      "name_default": "Heudeber",
      "native": "Heudeber",
      "type": "city",
      "level": null,
      "parent_id": null,
      "population": 1252,
      "latitude": "51.90245000",
      "longitude": "10.84321000",
      "timezone": "Europe/Berlin",
      "wikiDataId": "Q694947",
      "country_code": "DE",
      "state_code": "ST",
      "state_id": 3011,
      "country_id": 82
    },
    {
      "id": 26202,
      "name": "ホーヘンドデレベン",
      "name_default": "Hohendodeleben",
      "native": "Hohendodeleben",
      "type": "city",
      "level": null,
      "parent_id": null,
      "population": 1834,
      "latitude": "52.10412000",
      "longitude": "11.50473000",
      "timezone": "Europe/Berlin",
      "wikiDataId": "Q695555",
      "country_code": "DE",
      "state_code": "ST",
      "state_id": 3011,
      "country_id": 82
    },
    {
      "id": 26212,
      "name": "ホーエンメルゼン",
      "name_default": "Hohenmölsen",
      "native": "Hohenmölsen",
      "type": "city",
      "level": null,
      "parent_id": null,
      "population": 9395,
      "latitude": "51.15769000",
      "longitude": "12.10000000",
      "timezone": "Europe/Berlin",
      "wikiDataId": "Q522390",
      "country_code": "DE",
      "state_code": "ST",
      "state_id": 3011,
      "country_id": 82
    },
    {
      "id": 26218,
      "name": "ホーエントゥルム",
      "name_default": "Hohenthurm",
      "native": "Hohenthurm",
      "type": "city",
      "level": null,
      "parent_id": null,
      "population": 2285,
      "latitude": "51.51807000",
      "longitude": "12.09749000",
      "timezone": "Europe/Berlin",
      "wikiDataId": "Q673176",
      "country_code": "DE",
      "state_code": "ST",
      "state_id": 3011,
      "country_id": 82
    },
    {
      "id": 26219,
      "name": "ホーエンヴァルスレーベン",
      "name_default": "Hohenwarsleben",
      "native": "Hohenwarsleben",
      "type": "city",
      "level": null,
      "parent_id": null,
      "population": 1550,
      "latitude": "52.17898000",
      "longitude": "11.49994000",
      "timezone": "Europe/Berlin",
      "wikiDataId": "Q689982",
      "country_code": "DE",
      "state_code": "ST",
      "state_id": 3011,
      "country_id": 82
    },
    {
      "id": 26221,
      "name": "ホーエンヴァルテ",
      "name_default": "Hohenwarthe",
      "native": "Hohenwarthe",
      "type": "city",
      "level": null,
      "parent_id": null,
      "population": 1475,
      "latitude": "52.22968000",
      "longitude": "11.71528000",
      "timezone": "Europe/Berlin",
      "wikiDataId": "Q702067",
      "country_code": "DE",
      "state_code": "ST",
      "state_id": 3011,
      "country_id": 82
    },
    {
      "id": 26312,
      "name": "ホーンシュテット",
      "name_default": "Höhnstedt",
      "native": "Höhnstedt",
      "type": "city",
      "level": null,
      "parent_id": null,
      "population": 1645,
      "latitude": "51.50268000",
      "longitude": "11.73844000",
      "timezone": "Europe/Berlin",
      "wikiDataId": "Q689571",
      "country_code": "DE",
      "state_code": "ST",
      "state_id": 3011,
      "country_id": 82
    },
    {
      "id": 26230,
      "name": "ホレベン",
      "name_default": "Holleben",
      "native": "Holleben",
      "type": "city",
      "level": null,
      "parent_id": null,
      "population": 1741,
      "latitude": "51.44047000",
      "longitude": "11.89915000",
      "timezone": "Europe/Berlin",
      "wikiDataId": "Q32060045",
      "country_code": "DE",
      "state_code": "ST",
      "state_id": 3011,
      "country_id": 82
    },
    {
      "id": 26241,
      "name": "ホルツドルフ",
      "name_default": "Holzdorf",
      "native": "Holzdorf",
      "type": "city",
      "level": null,
      "parent_id": null,
      "population": 1324,
      "latitude": "51.77873000",
      "longitude": "13.12756000",
      "timezone": "Europe/Berlin",
      "wikiDataId": "Q186280",
      "country_code": "DE",
      "state_code": "ST",
      "state_id": 3011,
      "country_id": 82
    },
    {
      "id": 26249,
      "name": "ホルツヴァイシグ",
      "name_default": "Holzweißig",
      "native": "Holzweißig",
      "type": "city",
      "level": null,
      "parent_id": null,
      "population": 3250,
      "latitude": "51.59819000",
      "longitude": "12.30842000",
      "timezone": "Europe/Berlin",
      "wikiDataId": "Q836702",
      "country_code": "DE",
      "state_code": "ST",
      "state_id": 3011,
      "country_id": 82
    },
    {
      "id": 26269,
      "name": "ホルンハウゼン",
      "name_default": "Hornhausen",
      "native": "Hornhausen",
      "type": "city",
      "level": null,
      "parent_id": null,
      "population": 1716,
      "latitude": "52.04510000",
      "longitude": "11.17104000",
      "timezone": "Europe/Berlin",
      "wikiDataId": "Q585774",
      "country_code": "DE",
      "state_code": "ST",
      "state_id": 3011,
      "country_id": 82
    },
    {
      "id": 26324,
      "name": "ホーテンスレーベン",
      "name_default": "Hötensleben",
      "native": "Höltenleben",
      "type": "adm4",
      "level": null,
      "parent_id": null,
      "population": 2445,
      "latitude": "52.11974000",
      "longitude": "11.02238000",
      "timezone": "Europe/Berlin",
      "wikiDataId": "Q529831",
      "country_code": "DE",
      "state_code": "ST",
      "state_id": 3011,
      "country_id": 82
    },
    {
      "id": 26278,
      "name": "ホイム",
      "name_default": "Hoym",
      "native": "Haken",
      "type": "city",
      "level": null,
      "parent_id": null,
      "population": 2570,
      "latitude": "51.78292000",
      "longitude": "11.31244000",
      "timezone": "Europe/Berlin",
      "wikiDataId": "Q703487",
      "country_code": "DE",
      "state_code": "ST",
      "state_id": 3011,
      "country_id": 82
    },
    {
      "id": 26343,
      "name": "ヒュッテンローデ",
      "name_default": "Hüttenrode",
      "native": "Hüttenrode",
      "type": "city",
      "level": null,
      "parent_id": null,
      "population": 1204,
      "latitude": "51.76880000",
      "longitude": "10.90384000",
      "timezone": "Europe/Berlin",
      "wikiDataId": "Q698858",
      "country_code": "DE",
      "state_code": "ST",
      "state_id": 3011,
      "country_id": 82
    },
    {
      "id": 26294,
      "name": "ヒューイ・ナインシュテット",
      "name_default": "Huy-Neinstedt",
      "native": "Huy-neinstedt",
      "type": "adm4",
      "level": null,
      "parent_id": null,
      "population": 0,
      "latitude": "51.96585000",
      "longitude": "10.91457000",
      "timezone": "Europe/Berlin",
      "wikiDataId": "Q1387060",
      "country_code": "DE",
      "state_code": "ST",
      "state_id": 3011,
      "country_id": 82
    },
    {
      "id": 26363,
      "name": "イルバーシュテット",
      "name_default": "Ilberstedt",
      "native": "Ilberstedt",
      "type": "adm4",
      "level": null,
      "parent_id": null,
      "population": 997,
      "latitude": "51.80000000",
      "longitude": "11.66667000",
      "timezone": "Europe/Berlin",
      "wikiDataId": "Q32061532",
      "country_code": "DE",
      "state_code": "ST",
      "state_id": 3011,
      "country_id": 82
    },
    {
      "id": 26375,
      "name": "イルゼンブルク",
      "name_default": "Ilsenburg",
      "native": "Ilsenburg",
      "type": "city",
      "level": null,
      "parent_id": null,
      "population": 6326,
      "latitude": "51.86695000",
      "longitude": "10.67817000",
      "timezone": "Europe/Berlin",
      "wikiDataId": "Q529928",
      "country_code": "DE",
      "state_code": "ST",
      "state_id": 3011,
      "country_id": 82
    },
    {
      "id": 26410,
      "name": "イルクスレーベン",
      "name_default": "Irxleben",
      "native": "Irxleben",
      "type": "city",
      "level": null,
      "parent_id": null,
      "population": 2489,
      "latitude": "52.16689000",
      "longitude": "11.48064000",
      "timezone": "Europe/Berlin",
      "wikiDataId": "Q818993",
      "country_code": "DE",
      "state_code": "ST",
      "state_id": 3011,
      "country_id": 82
    },
    {
      "id": 26465,
      "name": "ヤヴェニッツ",
      "name_default": "Jävenitz",
      "native": "Jävenitz",
      "type": "city",
      "level": null,
      "parent_id": null,
      "population": 1194,
      "latitude": "52.52410000",
      "longitude": "11.49909000",
      "timezone": "Europe/Berlin",
      "wikiDataId": "Q675920",
      "country_code": "DE",
      "state_code": "ST",
      "state_id": 3011,
      "country_id": 82
    },
    {
      "id": 26437,
      "name": "ジェリコウ",
      "name_default": "Jerichow",
      "native": "Jerichow",
      "type": "city",
      "level": null,
      "parent_id": null,
      "population": 2289,
      "latitude": "52.50049000",
      "longitude": "12.02383000",
      "timezone": "Europe/Berlin",
      "wikiDataId": "Q530090",
      "country_code": "DE",
      "state_code": "ST",
      "state_id": 3011,
      "country_id": 82
    },
    {
      "id": 26444,
      "name": "ジェッセン",
      "name_default": "Jessen",
      "native": "Jessen",
      "type": "city",
      "level": null,
      "parent_id": null,
      "population": 11065,
      "latitude": "51.79337000",
      "longitude": "12.95762000",
      "timezone": "Europe/Berlin",
      "wikiDataId": "Q32063121",
      "country_code": "DE",
      "state_code": "ST",
      "state_id": 3011,
      "country_id": 82
    },
    {
      "id": 26451,
      "name": "イェスニッツ",
      "name_default": "Jeßnitz",
      "native": "Jeßnnitz",
      "type": "city",
      "level": null,
      "parent_id": null,
      "population": 3681,
      "latitude": "51.68307000",
      "longitude": "12.29992000",
      "timezone": "Europe/Berlin",
      "wikiDataId": "Q701018",
      "country_code": "DE",
      "state_code": "ST",
      "state_id": 3011,
      "country_id": 82
    },
    {
      "id": 26486,
      "name": "カルベ",
      "name_default": "Kalbe",
      "native": "Herz",
      "type": "city",
      "level": null,
      "parent_id": null,
      "population": 2821,
      "latitude": "52.65656000",
      "longitude": "11.38456000",
      "timezone": "Europe/Berlin",
      "wikiDataId": "Q32063702",
      "country_code": "DE",
      "state_code": "ST",
      "state_id": 3011,
      "country_id": 82
    },
    {
      "id": 26525,
      "name": "カルスドルフ",
      "name_default": "Karsdorf",
      "native": "Karsdorf",
      "type": "adm4",
      "level": null,
      "parent_id": null,
      "population": 2063,
      "latitude": "51.27134000",
      "longitude": "11.65775000",
      "timezone": "Europe/Berlin",
      "wikiDataId": "Q555245",
      "country_code": "DE",
      "state_code": "ST",
      "state_id": 3011,
      "country_id": 82
    },
    {
      "id": 26549,
      "name": "カイナ",
      "name_default": "Kayna",
      "native": "Quelle",
      "type": "city",
      "level": null,
      "parent_id": null,
      "population": 1532,
      "latitude": "50.99414000",
      "longitude": "12.23710000",
      "timezone": "Europe/Berlin",
      "wikiDataId": "Q704407",
      "country_code": "DE",
      "state_code": "ST",
      "state_id": 3011,
      "country_id": 82
    },
    {
      "id": 26555,
      "name": "ケルブラ",
      "name_default": "Kelbra",
      "native": "Kelbra",
      "type": "city",
      "level": null,
      "parent_id": null,
      "population": 3199,
      "latitude": "51.43528000",
      "longitude": "11.04143000",
      "timezone": "Europe/Berlin",
      "wikiDataId": "Q539059",
      "country_code": "DE",
      "state_code": "ST",
      "state_id": 3011,
      "country_id": 82
    },
    {
      "id": 26563,
      "name": "ケンバーグ",
      "name_default": "Kemberg",
      "native": "Kemberg",
      "type": "city",
      "level": null,
      "parent_id": null,
      "population": 2616,
      "latitude": "51.77189000",
      "longitude": "12.63227000",
      "timezone": "Europe/Berlin",
      "wikiDataId": "Q534792",
      "country_code": "DE",
      "state_code": "ST",
      "state_id": 3011,
      "country_id": 82
    },
    {
      "id": 26666,
      "name": "クライン・ヴァンツレーベン",
      "name_default": "Klein Wanzleben",
      "native": "Klein Wanzleben",
      "type": "city",
      "level": null,
      "parent_id": null,
      "population": 2541,
      "latitude": "52.07005000",
      "longitude": "11.36594000",
      "timezone": "Europe/Berlin",
      "wikiDataId": "Q688074",
      "country_code": "DE",
      "state_code": "ST",
      "state_id": 3011,
      "country_id": 82
    },
    {
      "id": 26684,
      "name": "クリケン",
      "name_default": "Klieken",
      "native": "Haften",
      "type": "city",
      "level": null,
      "parent_id": null,
      "population": 1111,
      "latitude": "51.88806000",
      "longitude": "12.37070000",
      "timezone": "Europe/Berlin",
      "wikiDataId": "Q697622",
      "country_code": "DE",
      "state_code": "ST",
      "state_id": 3011,
      "country_id": 82
    },
    {
      "id": 26685,
      "name": "クリエッツ",
      "name_default": "Klietz",
      "native": "Klietz",
      "type": "adm4",
      "level": null,
      "parent_id": null,
      "population": 1772,
      "latitude": "52.66835000",
      "longitude": "12.06812000",
      "timezone": "Europe/Berlin",
      "wikiDataId": "Q634706",
      "country_code": "DE",
      "state_code": "ST",
      "state_id": 3011,
      "country_id": 82
    },
    {
      "id": 26695,
      "name": "クロスターマンスフェルト",
      "name_default": "Klostermansfeld",
      "native": "Klostermansfeld",
      "type": "adm4",
      "level": null,
      "parent_id": null,
      "population": 2824,
      "latitude": "51.58333000",
      "longitude": "11.50000000",
      "timezone": "Europe/Berlin",
      "wikiDataId": "Q634966",
      "country_code": "DE",
      "state_code": "ST",
      "state_id": 3011,
      "country_id": 82
    },
    {
      "id": 26698,
      "name": "クロッツェ",
      "name_default": "Klötze",
      "native": "Klötze",
      "type": "city",
      "level": null,
      "parent_id": null,
      "population": 5398,
      "latitude": "52.62725000",
      "longitude": "11.16424000",
      "timezone": "Europe/Berlin",
      "wikiDataId": "Q33452384",
      "country_code": "DE",
      "state_code": "ST",
      "state_id": 3011,
      "country_id": 82
    },
    {
      "id": 26841,
      "name": "コーナー",
      "name_default": "Könnern",
      "native": "Könnern",
      "type": "city",
      "level": null,
      "parent_id": null,
      "population": 5339,
      "latitude": "51.67120000",
      "longitude": "11.77068000",
      "timezone": "Europe/Berlin",
      "wikiDataId": "Q518419",
      "country_code": "DE",
      "state_code": "ST",
      "state_id": 3011,
      "country_id": 82
    },
    {
      "id": 26846,
      "name": "ケーテン",
      "name_default": "Köthen",
      "native": "Köthen",
      "type": "adm3",
      "level": null,
      "parent_id": null,
      "population": 24974,
      "latitude": "51.75185000",
      "longitude": "11.97093000",
      "timezone": "Europe/Berlin",
      "wikiDataId": "Q1796771",
      "country_code": "DE",
      "state_code": "ST",
      "state_id": 3011,
      "country_id": 82
    },
    {
      "id": 26847,
      "name": "ケッツシャウ",
      "name_default": "Kötzschau",
      "native": "Kötzschau",
      "type": "city",
      "level": null,
      "parent_id": null,
      "population": 2057,
      "latitude": "51.31244000",
      "longitude": "12.13044000",
      "timezone": "Europe/Berlin",
      "wikiDataId": "Q703831",
      "country_code": "DE",
      "state_code": "ST",
      "state_id": 3011,
      "country_id": 82
    },
    {
      "id": 26753,
      "name": "クレッツシャウ",
      "name_default": "Kretzschau",
      "native": "Kretzschau",
      "type": "adm4",
      "level": null,
      "parent_id": null,
      "population": 1335,
      "latitude": "51.05000000",
      "longitude": "12.06667000",
      "timezone": "Europe/Berlin",
      "wikiDataId": "Q635076",
      "country_code": "DE",
      "state_code": "ST",
      "state_id": 3011,
      "country_id": 82
    },
    {
      "id": 26774,
      "name": "クロッペンシュテット",
      "name_default": "Kroppenstedt",
      "native": "Körper",
      "type": "city",
      "level": null,
      "parent_id": null,
      "population": 1377,
      "latitude": "51.94211000",
      "longitude": "11.30841000",
      "timezone": "Europe/Berlin",
      "wikiDataId": "Q573449",
      "country_code": "DE",
      "state_code": "ST",
      "state_id": 3011,
      "country_id": 82
    },
    {
      "id": 26775,
      "name": "クロプシュテット",
      "name_default": "Kropstädt",
      "native": "Quetschen",
      "type": "city",
      "level": null,
      "parent_id": null,
      "population": 1364,
      "latitude": "51.96307000",
      "longitude": "12.74550000",
      "timezone": "Europe/Berlin",
      "wikiDataId": "Q696842",
      "country_code": "DE",
      "state_code": "ST",
      "state_id": 3011,
      "country_id": 82
    },
    {
      "id": 26781,
      "name": "クルンパ",
      "name_default": "Krumpa",
      "native": "Crump",
      "type": "city",
      "level": null,
      "parent_id": null,
      "population": 1139,
      "latitude": "51.29724000",
      "longitude": "11.84412000",
      "timezone": "Europe/Berlin",
      "wikiDataId": "Q1790204",
      "country_code": "DE",
      "state_code": "ST",
      "state_id": 3011,
      "country_id": 82
    },
    {
      "id": 26806,
      "name": "クセイ",
      "name_default": "Kusey",
      "native": "KUSEY",
      "type": "city",
      "level": null,
      "parent_id": null,
      "population": 1123,
      "latitude": "52.57987000",
      "longitude": "11.09056000",
      "timezone": "Europe/Berlin",
      "wikiDataId": "Q702853",
      "country_code": "DE",
      "state_code": "ST",
      "state_id": 3011,
      "country_id": 82
    },
    {
      "id": 26893,
      "name": "ランツベルク",
      "name_default": "Landsberg",
      "native": "Landsberg",
      "type": "city",
      "level": null,
      "parent_id": null,
      "population": 4563,
      "latitude": "51.52698000",
      "longitude": "12.16076000",
      "timezone": "Europe/Berlin",
      "wikiDataId": "Q32085232",
      "country_code": "DE",
      "state_code": "ST",
      "state_id": 3011,
      "country_id": 82
    },
    {
      "id": 26900,
      "name": "ランゲルン",
      "name_default": "Langeln",
      "native": "Langeln",
      "type": "city",
      "level": null,
      "parent_id": null,
      "population": 1116,
      "latitude": "51.91188000",
      "longitude": "10.79436000",
      "timezone": "Europe/Berlin",
      "wikiDataId": "Q282704",
      "country_code": "DE",
      "state_code": "ST",
      "state_id": 3011,
      "country_id": 82
    },
    {
      "id": 26911,
      "name": "ランゲンボーゲン",
      "name_default": "Langenbogen",
      "native": "Langenbogen",
      "type": "city",
      "level": null,
      "parent_id": null,
      "population": 1918,
      "latitude": "51.48300000",
      "longitude": "11.77786000",
      "timezone": "Europe/Berlin",
      "wikiDataId": "Q694943",
      "country_code": "DE",
      "state_code": "ST",
      "state_id": 3011,
      "country_id": 82
    },
    {
      "id": 26914,
      "name": "ランゲンドルフ",
      "name_default": "Langendorf",
      "native": "Langendorf",
      "type": "city",
      "level": null,
      "parent_id": null,
      "population": 2568,
      "latitude": "51.17972000",
      "longitude": "11.96140000",
      "timezone": "Europe/Berlin",
      "wikiDataId": "Q696566",
      "country_code": "DE",
      "state_code": "ST",
      "state_id": 3011,
      "country_id": 82
    },
    {
      "id": 26915,
      "name": "ランゲニヒシュテット",
      "name_default": "Langeneichstädt",
      "native": "Langeneichstädt",
      "type": "city",
      "level": null,
      "parent_id": null,
      "population": 1520,
      "latitude": "51.34537000",
      "longitude": "11.74330000",
      "timezone": "Europe/Berlin",
      "wikiDataId": "Q685657",
      "country_code": "DE",
      "state_code": "ST",
      "state_id": 3011,
      "country_id": 82
    },
    {
      "id": 26930,
      "name": "ランゲンシュタイン",
      "name_default": "Langenstein",
      "native": "Langenstein",
      "type": "city",
      "level": null,
      "parent_id": null,
      "population": 1996,
      "latitude": "51.85551000",
      "longitude": "10.98822000",
      "timezone": "Europe/Berlin",
      "wikiDataId": "Q704109",
      "country_code": "DE",
      "state_code": "ST",
      "state_id": 3011,
      "country_id": 82
    },
    {
      "id": 26958,
      "name": "ラウチャ",
      "name_default": "Laucha",
      "native": "Laucha",
      "type": "city",
      "level": null,
      "parent_id": null,
      "population": 2517,
      "latitude": "51.22422000",
      "longitude": "11.67988000",
      "timezone": "Europe/Berlin",
      "wikiDataId": "Q124803",
      "country_code": "DE",
      "state_code": "ST",
      "state_id": 3011,
      "country_id": 82
    },
    {
      "id": 27032,
      "name": "リースリング",
      "name_default": "Leißling",
      "native": "Leißling",
      "type": "city",
      "level": null,
      "parent_id": null,
      "population": 1541,
      "latitude": "51.18260000",
      "longitude": "11.90954000",
      "timezone": "Europe/Berlin",
      "wikiDataId": "Q688622",
      "country_code": "DE",
      "state_code": "ST",
      "state_id": 3011,
      "country_id": 82
    },
    {
      "id": 27030,
      "name": "ライツカウ",
      "name_default": "Leitzkau",
      "native": "Leitzkau",
      "type": "city",
      "level": null,
      "parent_id": null,
      "population": 1130,
      "latitude": "52.05818000",
      "longitude": "11.95203000",
      "timezone": "Europe/Berlin",
      "wikiDataId": "Q874314",
      "country_code": "DE",
      "state_code": "ST",
      "state_id": 3011,
      "country_id": 82
    },
    {
      "id": 27056,
      "name": "レッツリンゲン",
      "name_default": "Letzlingen",
      "native": "Letzlingen",
      "type": "city",
      "level": null,
      "parent_id": null,
      "population": 1622,
      "latitude": "52.44615000",
      "longitude": "11.48518000",
      "timezone": "Europe/Berlin",
      "wikiDataId": "Q668985",
      "country_code": "DE",
      "state_code": "ST",
      "state_id": 3011,
      "country_id": 82
    },
    {
      "id": 27062,
      "name": "ロイナ",
      "name_default": "Leuna",
      "native": "Glatt",
      "type": "city",
      "level": null,
      "parent_id": null,
      "population": 6929,
      "latitude": "51.31783000",
      "longitude": "12.01589000",
      "timezone": "Europe/Berlin",
      "wikiDataId": "Q505191",
      "country_code": "DE",
      "state_code": "ST",
      "state_id": 3011,
      "country_id": 82
    },
    {
      "id": 27095,
      "name": "リースカウ",
      "name_default": "Lieskau",
      "native": "Lieskau",
      "type": "city",
      "level": null,
      "parent_id": null,
      "population": 2711,
      "latitude": "51.50395000",
      "longitude": "11.86208000",
      "timezone": "Europe/Berlin",
      "wikiDataId": "Q702572",
      "country_code": "DE",
      "state_code": "ST",
      "state_id": 3011,
      "country_id": 82
    },
    {
      "id": 27103,
      "name": "リンダウ",
      "name_default": "Lindau",
      "native": "Lindau",
      "type": "city",
      "level": null,
      "parent_id": null,
      "population": 1207,
      "latitude": "52.03751000",
      "longitude": "12.10788000",
      "timezone": "Europe/Berlin",
      "wikiDataId": "Q697959",
      "country_code": "DE",
      "state_code": "ST",
      "state_id": 3011,
      "country_id": 82
    },
    {
      "id": 27186,
      "name": "ロベユン",
      "name_default": "Löbejün",
      "native": "Löbejün",
      "type": "city",
      "level": null,
      "parent_id": null,
      "population": 2247,
      "latitude": "51.63533000",
      "longitude": "11.90106000",
      "timezone": "Europe/Berlin",
      "wikiDataId": "Q708720",
      "country_code": "DE",
      "state_code": "ST",
      "state_id": 3011,
      "country_id": 82
    },
    {
      "id": 27187,
      "name": "レーベリッツ",
      "name_default": "Löberitz",
      "native": "Löberitz",
      "type": "city",
      "level": null,
      "parent_id": null,
      "population": 1096,
      "latitude": "51.65393000",
      "longitude": "12.14655000",
      "timezone": "Europe/Berlin",
      "wikiDataId": "Q1879603",
      "country_code": "DE",
      "state_code": "ST",
      "state_id": 3011,
      "country_id": 82
    },
    {
      "id": 27126,
      "name": "ローバーグ",
      "name_default": "Loburg",
      "native": "Loburg",
      "type": "city",
      "level": null,
      "parent_id": null,
      "population": 2467,
      "latitude": "52.11509000",
      "longitude": "12.07840000",
      "timezone": "Europe/Berlin",
      "wikiDataId": "Q703877",
      "country_code": "DE",
      "state_code": "ST",
      "state_id": 3011,
      "country_id": 82
    },
    {
      "id": 27127,
      "name": "ロッハウ",
      "name_default": "Lochau",
      "native": "Lochau",
      "type": "city",
      "level": null,
      "parent_id": null,
      "population": 1124,
      "latitude": "51.39738000",
      "longitude": "12.05303000",
      "timezone": "Europe/Berlin",
      "wikiDataId": "Q703877",
      "country_code": "DE",
      "state_code": "ST",
      "state_id": 3011,
      "country_id": 82
    },
    {
      "id": 27152,
      "name": "ロスタウ",
      "name_default": "Lostau",
      "native": "Lostau",
      "type": "city",
      "level": null,
      "parent_id": null,
      "population": 2014,
      "latitude": "52.20871000",
      "longitude": "11.73795000",
      "timezone": "Europe/Berlin",
      "wikiDataId": "Q701356",
      "country_code": "DE",
      "state_code": "ST",
      "state_id": 3011,
      "country_id": 82
    },
    {
      "id": 27213,
      "name": "リューデリッツ",
      "name_default": "Lüderitz",
      "native": "Lüderitz",
      "type": "city",
      "level": null,
      "parent_id": null,
      "population": 1194,
      "latitude": "52.50912000",
      "longitude": "11.74301000",
      "timezone": "Europe/Berlin",
      "wikiDataId": "Q205800",
      "country_code": "DE",
      "state_code": "ST",
      "state_id": 3011,
      "country_id": 82
    },
    {
      "id": 27168,
      "name": "アーレンゼー空港",
      "name_default": "Luftkurort Arendsee",
      "native": "Luftkurort Arendsee",
      "type": "city",
      "level": null,
      "parent_id": null,
      "population": 2962,
      "latitude": "52.88073000",
      "longitude": "11.48621000",
      "timezone": "Europe/Berlin",
      "wikiDataId": "Q490960",
      "country_code": "DE",
      "state_code": "ST",
      "state_id": 3011,
      "country_id": 82
    },
    {
      "id": 27225,
      "name": "リュッツェン",
      "name_default": "Lützen",
      "native": "Lützen",
      "type": "city",
      "level": null,
      "parent_id": null,
      "population": 3664,
      "latitude": "51.25671000",
      "longitude": "12.14164000",
      "timezone": "Europe/Berlin",
      "wikiDataId": "Q517174",
      "country_code": "DE",
      "state_code": "ST",
      "state_id": 3011,
      "country_id": 82
    },
    {
      "id": 27230,
      "name": "マクデブルク",
      "name_default": "Magdeburg",
      "native": "Magdeburg",
      "type": "adm1",
      "level": null,
      "parent_id": null,
      "population": 244329,
      "latitude": "52.12773000",
      "longitude": "11.62916000",
      "timezone": "Europe/Berlin",
      "wikiDataId": "Q567199",
      "country_code": "DE",
      "state_code": "ST",
      "state_id": 3011,
      "country_id": 82
    },
    {
      "id": 27267,
      "name": "マンスフェルド",
      "name_default": "Mansfeld",
      "native": "Mansfeld",
      "type": "city",
      "level": null,
      "parent_id": null,
      "population": 3501,
      "latitude": "51.59234000",
      "longitude": "11.45223000",
      "timezone": "Europe/Berlin",
      "wikiDataId": "Q502926",
      "country_code": "DE",
      "state_code": "ST",
      "state_id": 3011,
      "country_id": 82
    },
    {
      "id": 27378,
      "name": "メーリンゲン",
      "name_default": "Mehringen",
      "native": "Mesen",
      "type": "city",
      "level": null,
      "parent_id": null,
      "population": 1194,
      "latitude": "51.72663000",
      "longitude": "11.51264000",
      "timezone": "Europe/Berlin",
      "wikiDataId": "Q187043",
      "country_code": "DE",
      "state_code": "ST",
      "state_id": 3011,
      "country_id": 82
    },
    {
      "id": 27387,
      "name": "マイツェンドルフ",
      "name_default": "Meitzendorf",
      "native": "Meitzendorf",
      "type": "city",
      "level": null,
      "parent_id": null,
      "population": 1113,
      "latitude": "52.21308000",
      "longitude": "11.56174000",
      "timezone": "Europe/Berlin",
      "wikiDataId": "Q1918809",
      "country_code": "DE",
      "state_code": "ST",
      "state_id": 3011,
      "country_id": 82
    },
    {
      "id": 27422,
      "name": "メルゼブルク",
      "name_default": "Merseburg",
      "native": "Merseburg",
      "type": "adm3",
      "level": null,
      "parent_id": null,
      "population": 34721,
      "latitude": "51.35478000",
      "longitude": "11.98923000",
      "timezone": "Europe/Berlin",
      "wikiDataId": "Q14945",
      "country_code": "DE",
      "state_code": "ST",
      "state_id": 3011,
      "country_id": 82
    },
    {
      "id": 27462,
      "name": "ミエステ",
      "name_default": "Mieste",
      "native": "Der Ort des Ortes",
      "type": "city",
      "level": null,
      "parent_id": null,
      "population": 2335,
      "latitude": "52.48226000",
      "longitude": "11.20640000",
      "timezone": "Europe/Berlin",
      "wikiDataId": "Q696352",
      "country_code": "DE",
      "state_code": "ST",
      "state_id": 3011,
      "country_id": 82
    },
    {
      "id": 27555,
      "name": "メッケルン",
      "name_default": "Möckern",
      "native": "Möckern",
      "type": "city",
      "level": null,
      "parent_id": null,
      "population": 6154,
      "latitude": "52.14099000",
      "longitude": "11.95203000",
      "timezone": "Europe/Berlin",
      "wikiDataId": "Q50872",
      "country_code": "DE",
      "state_code": "ST",
      "state_id": 3011,
      "country_id": 82
    },
    {
      "id": 27560,
      "name": "モーラウ",
      "name_default": "Möhlau",
      "native": "Meins",
      "type": "city",
      "level": null,
      "parent_id": null,
      "population": 2225,
      "latitude": "51.73126000",
      "longitude": "12.35282000",
      "timezone": "Europe/Berlin",
      "wikiDataId": "Q649091",
      "country_code": "DE",
      "state_code": "ST",
      "state_id": 3011,
      "country_id": 82
    },
    {
      "id": 27578,
      "name": "メーザー",
      "name_default": "Möser",
      "native": "Möser",
      "type": "adm4",
      "level": null,
      "parent_id": null,
      "population": 2637,
      "latitude": "52.21397000",
      "longitude": "11.79279000",
      "timezone": "Europe/Berlin",
      "wikiDataId": "Q565929",
      "country_code": "DE",
      "state_code": "ST",
      "state_id": 3011,
      "country_id": 82
    },
    {
      "id": 27583,
      "name": "ミュンヘン",
      "name_default": "Mücheln",
      "native": "Mücheln",
      "type": "city",
      "level": null,
      "parent_id": null,
      "population": 6389,
      "latitude": "51.29688000",
      "longitude": "11.80759000",
      "timezone": "Europe/Berlin",
      "wikiDataId": "Q530212",
      "country_code": "DE",
      "state_code": "ST",
      "state_id": 3011,
      "country_id": 82
    },
    {
      "id": 27590,
      "name": "ミューランガー",
      "name_default": "Mühlanger",
      "native": "Mühlanger",
      "type": "adm4",
      "level": null,
      "parent_id": null,
      "population": 1467,
      "latitude": "51.85000000",
      "longitude": "12.75000000",
      "timezone": "Europe/Berlin",
      "wikiDataId": "Q634731",
      "country_code": "DE",
      "state_code": "ST",
      "state_id": 3011,
      "country_id": 82
    },
    {
      "id": 27536,
      "name": "マルデンシュタイン",
      "name_default": "Muldenstein",
      "native": "Muldenstein",
      "type": "city",
      "level": null,
      "parent_id": null,
      "population": 2197,
      "latitude": "51.67192000",
      "longitude": "12.34548000",
      "timezone": "Europe/Berlin",
      "wikiDataId": "Q695583",
      "country_code": "DE",
      "state_code": "ST",
      "state_id": 3011,
      "country_id": 82
    },
    {
      "id": 27548,
      "name": "ムシュヴィッツ",
      "name_default": "Muschwitz",
      "native": "Muschwitz",
      "type": "city",
      "level": null,
      "parent_id": null,
      "population": 1176,
      "latitude": "51.19296000",
      "longitude": "12.12065000",
      "timezone": "Europe/Berlin",
      "wikiDataId": "Q696239",
      "country_code": "DE",
      "state_code": "ST",
      "state_id": 3011,
      "country_id": 82
    },