{
  "locale": "br",
  "country": {
    "id": 97,
    "code": "HN",
    "iso3": "HND",
    "numeric_code": "340",
    "name": "Honduras",
    "name_default": "Honduras",
    "native": "Honduras",
    "capital": "Tegucigalpa",
    "phonecode": "504",
    "currency": "HNL",
    "currency_name": "Honduran lempira",
    "currency_symbol": "L",
    "tld": ".hn",
    "population": 9892632,
    "gdp": 38172,
    "region": "Americas",
    "region_id": 2,
    "subregion": "Central America",
    "subregion_id": 9,
    "nationality": "Honduran",
    "timezones": [
      {
        "zoneName": "America/Tegucigalpa",
        "gmtOffset": -21600,
        "gmtOffsetName": "UTC-06:00",
        "abbreviation": "CST",
        "tzName": "Central Standard Time (North America"
      }
    ],
    "latitude": "15.00000000",
    "longitude": "-86.50000000",
    "emoji": "🇭🇳",
    "emojiU": "U+1F1ED U+1F1F3"
  },
  "state": {
    "id": 4047,
    "code": "AT",
    "iso2": "AT",
    "iso3166_2": "HN-AT",
    "fips_code": "01",
    "name": "Atlantida",
    "name_default": "Atlántida",
    "native": "Atlántida",
    "type": "department",
    "level": null,
    "parent_id": null,
    "population": null,
    "latitude": "15.81724920",
    "longitude": "-87.11469350",
    "timezone": "America/Tegucigalpa",
    "wikiDataId": "Q622619",
    "country_code": "HN"
  },
  "cities": [
    {
      "id": 53857,
      "name": "Arizona",
      "name_default": "Arizona",
      "native": "Arizona",
      "type": "city",
      "level": null,
      "parent_id": null,
      "population": 4444,
      "latitude": "15.63333000",
      "longitude": "-87.31667000",
      "timezone": "America/Tegucigalpa",
      "wikiDataId": "Q2254748",
      "country_code": "HN",
      "state_code": "AT",
      "state_id": 4047,
      "country_id": 97
    },
    {
      "id": 53860,
      "name": "Atenas de San Cristóbal",
      "name_default": "Atenas de San Cristóbal",
      "native": "Atenas de San Cristóbal",
      "type": "city",
      "level": null,
      "parent_id": null,
      "population": 1646,
      "latitude": "15.68333000",
      "longitude": "-87.31667000",
      "timezone": "America/Tegucigalpa",
      "wikiDataId": "Q2254748",
      "country_code": "HN",
      "state_code": "AT",
      "state_id": 4047,
      "country_id": 97
    },
    {
      "id": 53921,
      "name": "Corozal",
      "name_default": "Corozal",
      "native": "Corozal",
      "type": "city",
      "level": null,
      "parent_id": null,
      "population": 2489,
      "latitude": "15.80000000",
      "longitude": "-86.71667000",
      "timezone": "America/Tegucigalpa",
      "wikiDataId": "Q2393688",
      "country_code": "HN",
      "state_code": "AT",
      "state_id": 4047,
      "country_id": 97
    },
    {
      "id": 53974,
      "name": "El Pino",
      "name_default": "El Pino",
      "native": "El Pino",
      "type": "city",
      "level": null,
      "parent_id": null,
      "population": 3004,
      "latitude": "15.70000000",
      "longitude": "-86.93333000",
      "timezone": "America/Tegucigalpa",
      "wikiDataId": "Q2302837",
      "country_code": "HN",
      "state_code": "AT",
      "state_id": 4047,
      "country_id": 97
    },
    {
      "id": 53976,
      "name": "El Porvenir",
      "name_default": "El Porvenir",
      "native": "El Porvenir",
      "type": "city",
      "level": null,
      "parent_id": null,
      "population": 2269,
      "latitude": "15.75000000",
      "longitude": "-86.93333000",
      "timezone": "America/Tegucigalpa",
      "wikiDataId": "Q1643252",
      "country_code": "HN",
      "state_code": "AT",
      "state_id": 4047,
      "country_id": 97
    },
    {
      "id": 53995,
      "name": "Trec'h ar C'hroaz",
      "name_default": "El Triunfo de la Cruz",
      "native": "El Triunfo de la Cruz",
      "type": "city",
      "level": null,
      "parent_id": null,
      "population": 2509,
      "latitude": "15.76667000",
      "longitude": "-87.43333000",
      "timezone": "America/Tegucigalpa",
      "wikiDataId": "Q1643252",
      "country_code": "HN",
      "state_code": "AT",
      "state_id": 4047,
      "country_id": 97
    },
    {
      "id": 54001,
      "name": "Esparta",
      "name_default": "Esparta",
      "native": "Esparta",
      "type": "city",
      "level": null,
      "parent_id": null,
      "population": 18447,
      "latitude": "15.66291000",
      "longitude": "-87.25622000",
      "timezone": "America/Tegucigalpa",
      "wikiDataId": "Q387445",
      "country_code": "HN",
      "state_code": "AT",
      "state_id": 4047,
      "country_id": 97
    },
    {
      "id": 54041,
      "name": "Jutiapa",
      "name_default": "Jutiapa",
      "native": "Jutiapa",
      "type": "city",
      "level": null,
      "parent_id": null,
      "population": 34224,
      "latitude": "15.69586000",
      "longitude": "-86.50414000",
      "timezone": "America/Tegucigalpa",
      "wikiDataId": "Q2308179",
      "country_code": "HN",
      "state_code": "AT",
      "state_id": 4047,
      "country_id": 97
    },
    {
      "id": 54048,
      "name": "La Ceiba",
      "name_default": "La Ceiba",
      "native": "La Ceiba",
      "type": "adm1",
      "level": null,
      "parent_id": null,
      "population": 232696,
      "latitude": "15.75971000",
      "longitude": "-86.78221000",
      "timezone": "America/Tegucigalpa",
      "wikiDataId": "Q2394955",
      "country_code": "HN",
      "state_code": "AT",
      "state_id": 4047,
      "country_id": 97
    },
    {
      "id": 54071,
      "name": "La Masica",
      "name_default": "La Masica",
      "native": "La Masica",
      "type": "city",
      "level": null,
      "parent_id": null,
      "population": 29427,
      "latitude": "15.59865000",
      "longitude": "-87.13500000",
      "timezone": "America/Tegucigalpa",
      "wikiDataId": "Q2279521",
      "country_code": "HN",
      "state_code": "AT",
      "state_id": 4047,
      "country_id": 97
    },
    {
      "id": 54080,
      "name": "Unaniezh",
      "name_default": "La Unión",
      "native": "La Unión",
      "type": "city",
      "level": null,
      "parent_id": null,
      "population": 2382,
      "latitude": "15.71667000",
      "longitude": "-87.00000000",
      "timezone": "America/Tegucigalpa",
      "wikiDataId": "Q1643280",
      "country_code": "HN",
      "state_code": "AT",
      "state_id": 4047,
      "country_id": 97
    },
    {
      "id": 54127,
      "name": "Mezapa",
      "name_default": "Mezapa",
      "native": "Mezapa",
      "type": "city",
      "level": null,
      "parent_id": null,
      "population": 6324,
      "latitude": "15.58333000",
      "longitude": "-87.65000000",
      "timezone": "America/Tegucigalpa",
      "wikiDataId": "Q547593",
      "country_code": "HN",
      "state_code": "AT",
      "state_id": 4047,
      "country_id": 97
    },
    {
      "id": 54145,
      "name": "Armenia nevez",
      "name_default": "Nueva Armenia",
      "native": "Nueva Armenia",
      "type": "city",
      "level": null,
      "parent_id": null,
      "population": 1392,
      "latitude": "15.79556000",
      "longitude": "-86.49845000",
      "timezone": "America/Tegucigalpa",
      "wikiDataId": "Q2394850",
      "country_code": "HN",
      "state_code": "AT",
      "state_id": 4047,
      "country_id": 97
    },
    {
      "id": 54208,
      "name": "Sambo Creek",
      "name_default": "Sambo Creek",
      "native": "Sambo Creek",
      "type": "city",
      "level": null,
      "parent_id": null,
      "population": 2532,
      "latitude": "15.81667000",
      "longitude": "-86.68333000",
      "timezone": "America/Tegucigalpa",
      "wikiDataId": "Q7409064",
      "country_code": "HN",
      "state_code": "AT",
      "state_id": 4047,
      "country_id": 97
    },
    {
      "id": 54212,
      "name": "San Antonio",
      "name_default": "San Antonio",
      "native": "San Antonio",
      "type": "city",
      "level": null,
      "parent_id": null,
      "population": 1151,
      "latitude": "15.60000000",
      "longitude": "-87.15000000",
      "timezone": "America/Tegucigalpa",
      "wikiDataId": "Q7409064",
      "country_code": "HN",
      "state_code": "AT",
      "state_id": 4047,
      "country_id": 97
    },
    {
      "id": 54226,
      "name": "San Francisco",
      "name_default": "San Francisco",
      "native": "San Francisco",
      "type": "city",
      "level": null,
      "parent_id": null,
      "population": 14559,
      "latitude": "15.65246000",
      "longitude": "-87.01736000",
      "timezone": "America/Tegucigalpa",
      "wikiDataId": "Q2361014",
      "country_code": "HN",
      "state_code": "AT",
      "state_id": 4047,
      "country_id": 97
    },
    {
      "id": 54259,
      "name": "San Juan Pueblo",
      "name_default": "San Juan Pueblo",
      "native": "San Juan Pueblo",
      "type": "city",
      "level": null,
      "parent_id": null,
      "population": 5735,
      "latitude": "15.58333000",
      "longitude": "-87.23333000",
      "timezone": "America/Tegucigalpa",
      "wikiDataId": "Q979141",
      "country_code": "HN",
      "state_code": "AT",
      "state_id": 4047,
      "country_id": 97
    },
    {
      "id": 54290,
      "name": "Santa Ana",
      "name_default": "Santa Ana",
      "native": "Santa Ana",
      "type": "city",
      "level": null,
      "parent_id": null,
      "population": 3579,
      "latitude": "15.65000000",
      "longitude": "-87.06667000",
      "timezone": "America/Tegucigalpa",
      "wikiDataId": "Q2179819",
      "country_code": "HN",
      "state_code": "AT",
      "state_id": 4047,
      "country_id": 97
    },
    {
      "id": 54334,
      "name": "Tela",
      "name_default": "Tela",
      "native": "El cuerpo del cuerpo",
      "type": "city",
      "level": null,
      "parent_id": null,
      "population": 29325,
      "latitude": "15.77425000",
      "longitude": "-87.46731000",
      "timezone": "America/Tegucigalpa",
      "wikiDataId": "Q1027018",
      "country_code": "HN",
      "state_code": "AT",
      "state_id": 4047,
      "country_id": 97
    },
    {
      "id": 54341,
      "name": "Tornabé",
      "name_default": "Tornabé",
      "native": "Tornabé",
      "type": "city",
      "level": null,
      "parent_id": null,
      "population": 1599,
      "latitude": "15.75000000",
      "longitude": "-87.55000000",
      "timezone": "America/Tegucigalpa",
      "wikiDataId": "Q2226585",
      "country_code": "HN",
      "state_code": "AT",
      "state_id": 4047,
      "country_id": 97
    }
  ]
}
