{
  "locale": "ko",
  "country": {
    "id": 21,
    "code": "BY",
    "iso3": "BLR",
    "numeric_code": "112",
    "name": "벨라루스",
    "name_default": "Belarus",
    "native": "Белару́сь",
    "capital": "Minsk",
    "phonecode": "375",
    "currency": "BYN",
    "currency_name": "Belarusian ruble",
    "currency_symbol": "Br",
    "tld": ".by",
    "population": 9109280,
    "gdp": 71561,
    "region": "Europe",
    "region_id": 4,
    "subregion": "Eastern Europe",
    "subregion_id": 15,
    "nationality": "Belarusian",
    "timezones": [
      {
        "zoneName": "Europe/Minsk",
        "gmtOffset": 10800,
        "gmtOffsetName": "UTC+03:00",
        "abbreviation": "MSK",
        "tzName": "Moscow Time"
      }
    ],
    "latitude": "53.00000000",
    "longitude": "28.00000000",
    "emoji": "🇧🇾",
    "emojiU": "U+1F1E7 U+1F1FE"
  },
  "state": {
    "id": 2957,
    "code": "MI",
    "iso2": "MI",
    "iso3166_2": "BY-MI",
    "fips_code": "05",
    "name": "민스크",
    "name_default": "Minsk",
    "native": "Мінск",
    "type": "oblast",
    "level": null,
    "parent_id": null,
    "population": 1996730,
    "latitude": "53.90247160",
    "longitude": "27.56182250",
    "timezone": "Europe/Minsk",
    "wikiDataId": "Q192959",
    "country_code": "BY"
  },
  "cities": [
    {
      "id": 15811,
      "name": "아스트라시트스키 하라독",
      "name_default": "Astrashytski Haradok",
      "native": "Астрашыцкі Гарадок",
      "type": "city",
      "level": null,
      "parent_id": null,
      "population": 2390,
      "latitude": "54.06510000",
      "longitude": "27.69500000",
      "timezone": "Europe/Minsk",
      "wikiDataId": "Q13028169",
      "country_code": "BY",
      "state_code": "MI",
      "state_id": 2957,
      "country_id": 21
    },
    {
      "id": 15814,
      "name": "아톨리나",
      "name_default": "Atolina",
      "native": "Атоліна",
      "type": "city",
      "level": null,
      "parent_id": null,
      "population": 1517,
      "latitude": "53.78170000",
      "longitude": "27.43460000",
      "timezone": "Europe/Minsk",
      "wikiDataId": "Q21579168",
      "country_code": "BY",
      "state_code": "MI",
      "state_id": 2957,
      "country_id": 21
    },
    {
      "id": 15815,
      "name": "아지아르초",
      "name_default": "Azyartso",
      "native": "Азярцо",
      "type": "city",
      "level": null,
      "parent_id": null,
      "population": 1247,
      "latitude": "53.83970000",
      "longitude": "27.39170000",
      "timezone": "Europe/Minsk",
      "wikiDataId": "Q4332155",
      "country_code": "BY",
      "state_code": "MI",
      "state_id": 2957,
      "country_id": 21
    },
    {
      "id": 15819,
      "name": "발샤빅",
      "name_default": "Bal’shavik",
      "native": "Бальшавік",
      "type": "city",
      "level": null,
      "parent_id": null,
      "population": 3470,
      "latitude": "54.00360000",
      "longitude": "27.56690000",
      "timezone": "Europe/Minsk",
      "wikiDataId": "Q6466856",
      "country_code": "BY",
      "state_code": "MI",
      "state_id": 2957,
      "country_id": 21
    },
    {
      "id": 15824,
      "name": "바리사우",
      "name_default": "Barysaw",
      "native": "Барысаў",
      "type": "adm2",
      "level": null,
      "parent_id": null,
      "population": 134732,
      "latitude": "54.22790000",
      "longitude": "28.50500000",
      "timezone": "Europe/Minsk",
      "wikiDataId": "Q19313",
      "country_code": "BY",
      "state_code": "MI",
      "state_id": 2957,
      "country_id": 21
    },
    {
      "id": 15825,
      "name": "바리사프스키 레이온",
      "name_default": "Barysawski Rayon",
      "native": "Барысаўскі раён",
      "type": "city",
      "level": null,
      "parent_id": null,
      "population": null,
      "latitude": "54.33333000",
      "longitude": "28.58333000",
      "timezone": "Europe/Minsk",
      "wikiDataId": "Q2092836",
      "country_code": "BY",
      "state_code": "MI",
      "state_id": 2957,
      "country_id": 21
    },
    {
      "id": 15826,
      "name": "블론",
      "name_default": "Blon’",
      "native": "Блон",
      "type": "city",
      "level": null,
      "parent_id": null,
      "population": 1780,
      "latitude": "53.52690000",
      "longitude": "28.17320000",
      "timezone": "Europe/Minsk",
      "wikiDataId": "Q4088315",
      "country_code": "BY",
      "state_code": "MI",
      "state_id": 2957,
      "country_id": 21
    },
    {
      "id": 15827,
      "name": "보브르",
      "name_default": "Bobr",
      "native": "Бобр",
      "type": "city",
      "level": null,
      "parent_id": null,
      "population": 1100,
      "latitude": "54.34200000",
      "longitude": "29.27360000",
      "timezone": "Europe/Minsk",
      "wikiDataId": "Q2659074",
      "country_code": "BY",
      "state_code": "MI",
      "state_id": 2957,
      "country_id": 21
    },
    {
      "id": 15828,
      "name": "보로블리아니",
      "name_default": "Borovlyany",
      "native": "Бараўляны",
      "type": "city",
      "level": null,
      "parent_id": null,
      "population": 5000,
      "latitude": "54.00220000",
      "longitude": "27.67540000",
      "timezone": "Europe/Minsk",
      "wikiDataId": "Q3919943",
      "country_code": "BY",
      "state_code": "MI",
      "state_id": 2957,
      "country_id": 21
    },
    {
      "id": 15840,
      "name": "비아레진스키 레이온",
      "name_default": "Byarezinski Rayon",
      "native": "Бярэзінскі раён",
      "type": "city",
      "level": null,
      "parent_id": null,
      "population": null,
      "latitude": "53.83333000",
      "longitude": "29.00000000",
      "timezone": "Europe/Minsk",
      "wikiDataId": "Q2091552",
      "country_code": "BY",
      "state_code": "MI",
      "state_id": 2957,
      "country_id": 21
    },
    {
      "id": 15845,
      "name": "비에라지노",
      "name_default": "Byerazino",
      "native": "Беразіно",
      "type": "city",
      "level": null,
      "parent_id": null,
      "population": 11250,
      "latitude": "53.83910000",
      "longitude": "28.98790000",
      "timezone": "Europe/Minsk",
      "wikiDataId": "Q200833",
      "country_code": "BY",
      "state_code": "MI",
      "state_id": 2957,
      "country_id": 21
    },
    {
      "id": 15855,
      "name": "체르비엔’",
      "name_default": "Chervyen’",
      "native": "Чэрвень",
      "type": "city",
      "level": null,
      "parent_id": null,
      "population": 10545,
      "latitude": "53.70590000",
      "longitude": "28.43130000",
      "timezone": "Europe/Minsk",
      "wikiDataId": "Q201458",
      "country_code": "BY",
      "state_code": "MI",
      "state_id": 2957,
      "country_id": 21
    },
    {
      "id": 15856,
      "name": "체르비엔스키 레이온",
      "name_default": "Chervyen’ski Rayon",
      "native": "Чэрвеньскі раён",
      "type": "city",
      "level": null,
      "parent_id": null,
      "population": null,
      "latitude": "53.75000000",
      "longitude": "28.50000000",
      "timezone": "Europe/Minsk",
      "wikiDataId": "Q2091744",
      "country_code": "BY",
      "state_code": "MI",
      "state_id": 2957,
      "country_id": 21
    },
    {
      "id": 15859,
      "name": "치르보나야 슬라바다",
      "name_default": "Chyrvonaya Slabada",
      "native": "Чырвоная Слабада",
      "type": "city",
      "level": null,
      "parent_id": null,
      "population": 4700,
      "latitude": "52.85220000",
      "longitude": "27.16980000",
      "timezone": "Europe/Minsk",
      "wikiDataId": "Q2617132",
      "country_code": "BY",
      "state_code": "MI",
      "state_id": 2957,
      "country_id": 21
    },
    {
      "id": 15860,
      "name": "체이스트",
      "name_default": "Chyst’",
      "native": "Чысць",
      "type": "city",
      "level": null,
      "parent_id": null,
      "population": 5300,
      "latitude": "54.26980000",
      "longitude": "27.10670000",
      "timezone": "Europe/Minsk",
      "wikiDataId": "Q13134307",
      "country_code": "BY",
      "state_code": "MI",
      "state_id": 2957,
      "country_id": 21
    },
    {
      "id": 15871,
      "name": "드루즈니",
      "name_default": "Druzhny",
      "native": "Дружны",
      "type": "city",
      "level": null,
      "parent_id": null,
      "population": 8978,
      "latitude": "53.62380000",
      "longitude": "27.89770000",
      "timezone": "Europe/Minsk",
      "wikiDataId": "Q4168898",
      "country_code": "BY",
      "state_code": "MI",
      "state_id": 2957,
      "country_id": 21
    },
    {
      "id": 15875,
      "name": "두코라",
      "name_default": "Dukora",
      "native": "Дукора",
      "type": "city",
      "level": null,
      "parent_id": null,
      "population": 1287,
      "latitude": "53.67860000",
      "longitude": "27.94000000",
      "timezone": "Europe/Minsk",
      "wikiDataId": "Q143040",
      "country_code": "BY",
      "state_code": "MI",
      "state_id": 2957,
      "country_id": 21
    },
    {
      "id": 15878,
      "name": "자르진스크",
      "name_default": "Dzyarzhynsk",
      "native": "Дзяржынск",
      "type": "adm2",
      "level": null,
      "parent_id": null,
      "population": 29630,
      "latitude": "53.68320000",
      "longitude": "27.13800000",
      "timezone": "Europe/Minsk",
      "wikiDataId": "Q200891",
      "country_code": "BY",
      "state_code": "MI",
      "state_id": 2957,
      "country_id": 21
    },
    {
      "id": 15879,
      "name": "에니어헤티카우",
      "name_default": "Enyerhyetykaw",
      "native": "Энерхіетыкаў",
      "type": "city",
      "level": null,
      "parent_id": null,
      "population": 2445,
      "latitude": "53.58710000",
      "longitude": "27.05350000",
      "timezone": "Europe/Minsk",
      "wikiDataId": "Q6549170",
      "country_code": "BY",
      "state_code": "MI",
      "state_id": 2957,
      "country_id": 21
    },
    {
      "id": 15880,
      "name": "파니폴",
      "name_default": "Fanipol",
      "native": "Фаніпаль",
      "type": "city",
      "level": null,
      "parent_id": null,
      "population": 18252,
      "latitude": "53.74998000",
      "longitude": "27.33338000",
      "timezone": "Europe/Minsk",
      "wikiDataId": "Q201439",
      "country_code": "BY",
      "state_code": "MI",
      "state_id": 2957,
      "country_id": 21
    },
    {
      "id": 15889,
      "name": "하라지에야",
      "name_default": "Haradzyeya",
      "native": "Гарадзея",
      "type": "city",
      "level": null,
      "parent_id": null,
      "population": 3601,
      "latitude": "53.31210000",
      "longitude": "26.53800000",
      "timezone": "Europe/Minsk",
      "wikiDataId": "Q2987244",
      "country_code": "BY",
      "state_code": "MI",
      "state_id": 2957,
      "country_id": 21
    },
    {
      "id": 15890,
      "name": "하타바",
      "name_default": "Hatava",
      "native": "Хатава",
      "type": "city",
      "level": null,
      "parent_id": null,
      "population": 8000,
      "latitude": "53.78290000",
      "longitude": "27.64070000",
      "timezone": "Europe/Minsk",
      "wikiDataId": "Q3917600",
      "country_code": "BY",
      "state_code": "MI",
      "state_id": 2957,
      "country_id": 21
    },
    {
      "id": 15900,
      "name": "호라드 스말리아비치",
      "name_default": "Horad Smalyavichy",
      "native": "Горад Смалявічы",
      "type": "adm2",
      "level": null,
      "parent_id": null,
      "population": 22679,
      "latitude": "54.02490000",
      "longitude": "28.08940000",
      "timezone": "Europe/Minsk",
      "wikiDataId": "Q201265",
      "country_code": "BY",
      "state_code": "MI",
      "state_id": 2957,
      "country_id": 21
    },
    {
      "id": 15901,
      "name": "호라드 조지나",
      "name_default": "Horad Zhodzina",
      "native": "Горад Жодзіна",
      "type": "adm2",
      "level": null,
      "parent_id": null,
      "population": 63744,
      "latitude": "54.09850000",
      "longitude": "28.33310000",
      "timezone": "Europe/Minsk",
      "wikiDataId": "Q200905",
      "country_code": "BY",
      "state_code": "MI",
      "state_id": 2957,
      "country_id": 21
    },
    {
      "id": 15904,
      "name": "호츠크",
      "name_default": "Hotsk",
      "native": "Гоцк",
      "type": "city",
      "level": null,
      "parent_id": null,
      "population": 1100,
      "latitude": "52.52150000",
      "longitude": "27.13850000",
      "timezone": "Europe/Minsk",
      "wikiDataId": "Q18752080",
      "country_code": "BY",
      "state_code": "MI",
      "state_id": 2957,
      "country_id": 21
    },
    {
      "id": 15907,
      "name": "일리아",
      "name_default": "Il’ya",
      "native": "Ілья",
      "type": "city",
      "level": null,
      "parent_id": null,
      "population": 1800,
      "latitude": "54.41670000",
      "longitude": "27.29580000",
      "timezone": "Europe/Minsk",
      "wikiDataId": "Q5213666",
      "country_code": "BY",
      "state_code": "MI",
      "state_id": 2957,
      "country_id": 21
    },
    {
      "id": 15912,
      "name": "아이비아니에츠",
      "name_default": "Ivyanyets",
      "native": "Івянец",
      "type": "city",
      "level": null,
      "parent_id": null,
      "population": 4206,
      "latitude": "53.88640000",
      "longitude": "26.74320000",
      "timezone": "Europe/Minsk",
      "wikiDataId": "Q2995144",
      "country_code": "BY",
      "state_code": "MI",
      "state_id": 2957,
      "country_id": 21
    },
    {
      "id": 15916,
      "name": "칼로지쉬치",
      "name_default": "Kalodzishchy",
      "native": "Калодзішчы",
      "type": "city",
      "level": null,
      "parent_id": null,
      "population": 17000,
      "latitude": "53.94400000",
      "longitude": "27.78230000",
      "timezone": "Europe/Minsk",
      "wikiDataId": "Q4228181",
      "country_code": "BY",
      "state_code": "MI",
      "state_id": 2957,
      "country_id": 21
    },
    {
      "id": 15921,
      "name": "카필’",
      "name_default": "Kapyl’",
      "native": "Капыль",
      "type": "adm2",
      "level": null,
      "parent_id": null,
      "population": 9985,
      "latitude": "53.15160000",
      "longitude": "27.09130000",
      "timezone": "Europe/Minsk",
      "wikiDataId": "Q200950",
      "country_code": "BY",
      "state_code": "MI",
      "state_id": 2957,
      "country_id": 21
    },
    {
      "id": 15922,
      "name": "카필스키 레이온",
      "name_default": "Kapyl’ski Rayon",
      "native": "Капыльскі раён",
      "type": "city",
      "level": null,
      "parent_id": null,
      "population": null,
      "latitude": "53.16667000",
      "longitude": "27.08333000",
      "timezone": "Europe/Minsk",
      "wikiDataId": "Q518815",
      "country_code": "BY",
      "state_code": "MI",
      "state_id": 2957,
      "country_id": 21
    },
    {
      "id": 15931,
      "name": "하츠에지나",
      "name_default": "Khatsyezhyna",
      "native": "Хацежына",
      "type": "city",
      "level": null,
      "parent_id": null,
      "population": 1145,
      "latitude": "53.90940000",
      "longitude": "27.30690000",
      "timezone": "Europe/Minsk",
      "wikiDataId": "Q21579587",
      "country_code": "BY",
      "state_code": "MI",
      "state_id": 2957,
      "country_id": 21
    },
    {
      "id": 15933,
      "name": "콜로페니치",
      "name_default": "Kholopenichi",
      "native": "Халопенічы",
      "type": "city",
      "level": null,
      "parent_id": null,
      "population": 1385,
      "latitude": "54.51746000",
      "longitude": "28.95645000",
      "timezone": "Europe/Minsk",
      "wikiDataId": "Q636403",
      "country_code": "BY",
      "state_code": "MI",
      "state_id": 2957,
      "country_id": 21
    },
    {
      "id": 15940,
      "name": "클리에츠크",
      "name_default": "Klyetsk",
      "native": "Клецк",
      "type": "adm2",
      "level": null,
      "parent_id": null,
      "population": 11169,
      "latitude": "53.06350000",
      "longitude": "26.63210000",
      "timezone": "Europe/Minsk",
      "wikiDataId": "Q200937",
      "country_code": "BY",
      "state_code": "MI",
      "state_id": 2957,
      "country_id": 21
    },
    {
      "id": 15941,
      "name": "클리에츠키 레이온",
      "name_default": "Klyetski Rayon",
      "native": "Клецкі раён",
      "type": "adm2",
      "level": null,
      "parent_id": null,
      "population": null,
      "latitude": "53.00000000",
      "longitude": "26.66667000",
      "timezone": "Europe/Minsk",
      "wikiDataId": "Q2091557",
      "country_code": "BY",
      "state_code": "MI",
      "state_id": 2957,
      "country_id": 21
    },
    {
      "id": 15945,
      "name": "코롤레프 스탄",
      "name_default": "Korolëv Stan",
      "native": "Каралёў Стан",
      "type": "city",
      "level": null,
      "parent_id": null,
      "population": 1033,
      "latitude": "53.98650000",
      "longitude": "27.79820000",
      "timezone": "Europe/Minsk",
      "wikiDataId": "Q6498328",
      "country_code": "BY",
      "state_code": "MI",
      "state_id": 2957,
      "country_id": 21
    },
    {
      "id": 15949,
      "name": "크라스나예",
      "name_default": "Krasnaye",
      "native": "Краснае",
      "type": "city",
      "level": null,
      "parent_id": null,
      "population": 2900,
      "latitude": "54.24380000",
      "longitude": "27.07580000",
      "timezone": "Europe/Minsk",
      "wikiDataId": "Q3917896",
      "country_code": "BY",
      "state_code": "MI",
      "state_id": 2957,
      "country_id": 21
    },
    {
      "id": 15954,
      "name": "크루프키",
      "name_default": "Krupki",
      "native": "Крупкі",
      "type": "adm2",
      "level": null,
      "parent_id": null,
      "population": 8393,
      "latitude": "54.31780000",
      "longitude": "29.13740000",
      "timezone": "Europe/Minsk",
      "wikiDataId": "Q200960",
      "country_code": "BY",
      "state_code": "MI",
      "state_id": 2957,
      "country_id": 21
    },
    {
      "id": 15956,
      "name": "크리비치",
      "name_default": "Kryvichy",
      "native": "Крывічы",
      "type": "city",
      "level": null,
      "parent_id": null,
      "population": 1298,
      "latitude": "54.71320000",
      "longitude": "27.28860000",
      "timezone": "Europe/Minsk",
      "wikiDataId": "Q2659553",
      "country_code": "BY",
      "state_code": "MI",
      "state_id": 2957,
      "country_id": 21
    },
    {
      "id": 15958,
      "name": "라호이스크",
      "name_default": "Lahoysk",
      "native": "Лагойск",
      "type": "adm2",
      "level": null,
      "parent_id": null,
      "population": 15565,
      "latitude": "54.20640000",
      "longitude": "27.85120000",
      "timezone": "Europe/Minsk",
      "wikiDataId": "Q200968",
      "country_code": "BY",
      "state_code": "MI",
      "state_id": 2957,
      "country_id": 21
    },
    {
      "id": 15961,
      "name": "로쉬니차",
      "name_default": "Loshnitsa",
      "native": "Лошніца",
      "type": "city",
      "level": null,
      "parent_id": null,
      "population": 6524,
      "latitude": "54.27960000",
      "longitude": "28.76490000",
      "timezone": "Europe/Minsk",
      "wikiDataId": "Q13029805",
      "country_code": "BY",
      "state_code": "MI",
      "state_id": 2957,
      "country_id": 21
    },
    {
      "id": 15963,
      "name": "루하바야 슬라바다",
      "name_default": "Luhavaya Slabada",
      "native": "Лугавая слабада",
      "type": "city",
      "level": null,
      "parent_id": null,
      "population": 1306,
      "latitude": "53.78230000",
      "longitude": "27.84340000",
      "timezone": "Europe/Minsk",
      "wikiDataId": "Q6507101",
      "country_code": "BY",
      "state_code": "MI",
      "state_id": 2957,
      "country_id": 21
    },
    {
      "id": 15966,
      "name": "리아스니",
      "name_default": "Lyasny",
      "native": "Лясны",
      "type": "city",
      "level": null,
      "parent_id": null,
      "population": 15000,
      "latitude": "54.00720000",
      "longitude": "27.69630000",
      "timezone": "Europe/Minsk",
      "wikiDataId": "Q3919901",
      "country_code": "BY",
      "state_code": "MI",
      "state_id": 2957,
      "country_id": 21
    },
    {
      "id": 15972,
      "name": "리에스카우카",
      "name_default": "Lyeskawka",
      "native": "Лёскаўка",
      "type": "city",
      "level": null,
      "parent_id": null,
      "population": 1400,
      "latitude": "54.00240000",
      "longitude": "27.71080000",
      "timezone": "Europe/Minsk",
      "wikiDataId": "Q4259426",
      "country_code": "BY",
      "state_code": "MI",
      "state_id": 2957,
      "country_id": 21
    },
    {
      "id": 15976,
      "name": "류반",
      "name_default": "Lyuban’",
      "native": "Любань",
      "type": "adm2",
      "level": null,
      "parent_id": null,
      "population": 11339,
      "latitude": "52.79850000",
      "longitude": "28.00480000",
      "timezone": "Europe/Minsk",
      "wikiDataId": "Q200991",
      "country_code": "BY",
      "state_code": "MI",
      "state_id": 2957,
      "country_id": 21
    },
    {
      "id": 15978,
      "name": "마훌리쉬치",
      "name_default": "Machulishchy",
      "native": "Мачулішчы",
      "type": "city",
      "level": null,
      "parent_id": null,
      "population": 10583,
      "latitude": "53.77880000",
      "longitude": "27.59480000",
      "timezone": "Europe/Minsk",
      "wikiDataId": "Q599374",
      "country_code": "BY",
      "state_code": "MI",
      "state_id": 2957,
      "country_id": 21
    },
    {
      "id": 15981,
      "name": "말라제크나",
      "name_default": "Maladzyechna",
      "native": "Маладзечна",
      "type": "adm2",
      "level": null,
      "parent_id": null,
      "population": 88290,
      "latitude": "54.31670000",
      "longitude": "26.85400000",
      "timezone": "Europe/Minsk",
      "wikiDataId": "Q201203",
      "country_code": "BY",
      "state_code": "MI",
      "state_id": 2957,
      "country_id": 21
    },
    {
      "id": 15983,
      "name": "마리나 호르카",
      "name_default": "Mar’’ina Horka",
      "native": "Мар'іна Горка",
      "type": "adm2",
      "level": null,
      "parent_id": null,
      "population": 20096,
      "latitude": "53.50900000",
      "longitude": "28.14700000",
      "timezone": "Europe/Minsk",
      "wikiDataId": "Q201173",
      "country_code": "BY",
      "state_code": "MI",
      "state_id": 2957,
      "country_id": 21
    },
    {
      "id": 15987,
      "name": "미차노비치",
      "name_default": "Michanovichi",
      "native": "Міханавічы",
      "type": "city",
      "level": null,
      "parent_id": null,
      "population": 4800,
      "latitude": "53.73937000",
      "longitude": "27.69276000",
      "timezone": "Europe/Minsk",
      "wikiDataId": "Q6518335",
      "country_code": "BY",
      "state_code": "MI",
      "state_id": 2957,
      "country_id": 21
    },
    {
      "id": 15995,
      "name": "마이아질",
      "name_default": "Myadzyel",
      "native": "Мядзел",
      "type": "adm2",
      "level": null,
      "parent_id": null,
      "population": 6949,
      "latitude": "54.87890000",
      "longitude": "26.93710000",
      "timezone": "Europe/Minsk",
      "wikiDataId": "Q201218",
      "country_code": "BY",
      "state_code": "MI",
      "state_id": 2957,
      "country_id": 21
    },
    {
      "id": 15996,
      "name": "마이아질스키 레이온",
      "name_default": "Myadzyel’ski Rayon",
      "native": "Мядзельскі раён",
      "type": "city",
      "level": null,
      "parent_id": null,
      "population": null,
      "latitude": "54.83333000",
      "longitude": "27.00000000",
      "timezone": "Europe/Minsk",
      "wikiDataId": "Q1637855",
      "country_code": "BY",
      "state_code": "MI",
      "state_id": 2957,
      "country_id": 21
    },
    {
      "id": 16001,
      "name": "나라흐",
      "name_default": "Narach",
      "native": "Нарач",
      "type": "city",
      "level": null,
      "parent_id": null,
      "population": 3400,
      "latitude": "54.91020000",
      "longitude": "26.70800000",
      "timezone": "Europe/Minsk",
      "wikiDataId": "Q2471155",
      "country_code": "BY",
      "state_code": "MI",
      "state_id": 2957,
      "country_id": 21
    },
    {
      "id": 16003,
      "name": "나실라바",
      "name_default": "Nasilava",
      "native": "Насілава",
      "type": "city",
      "level": null,
      "parent_id": null,
      "population": 1242,
      "latitude": "54.30441000",
      "longitude": "26.78209000",
      "timezone": "Europe/Minsk",
      "wikiDataId": "Q15634568",
      "country_code": "BY",
      "state_code": "MI",
      "state_id": 2957,
      "country_id": 21
    },
    {
      "id": 16008,
      "name": "노보셀리",
      "name_default": "Novosel’ye",
      "native": "Навасельле",
      "type": "city",
      "level": null,
      "parent_id": null,
      "population": 1269,
      "latitude": "53.91620000",
      "longitude": "27.20090000",
      "timezone": "Europe/Minsk",
      "wikiDataId": "Q13029879",
      "country_code": "BY",
      "state_code": "MI",
      "state_id": 2957,
      "country_id": 21
    },
    {
      "id": 16009,
      "name": "노비 스비에르잔",
      "name_default": "Novy Svyerzhan’",
      "native": "Новы Свержань",
      "type": "city",
      "level": null,
      "parent_id": null,
      "population": 2200,
      "latitude": "53.45420000",
      "longitude": "26.73010000",
      "timezone": "Europe/Minsk",
      "wikiDataId": "Q3920126",
      "country_code": "BY",
      "state_code": "MI",
      "state_id": 2957,
      "country_id": 21
    },
    {
      "id": 16011,
      "name": "냐스비즈",
      "name_default": "Nyasvizh",
      "native": "Нясвіж",
      "type": "adm2",
      "level": null,
      "parent_id": null,
      "population": 15968,
      "latitude": "53.21890000",
      "longitude": "26.67790000",
      "timezone": "Europe/Minsk",
      "wikiDataId": "Q201230",
      "country_code": "BY",
      "state_code": "MI",
      "state_id": 2957,
      "country_id": 21
    },
    {
      "id": 16012,
      "name": "냐스비즈스키 레이온",
      "name_default": "Nyasvizhski Rayon",
      "native": "Нясвіжскі раён",
      "type": "city",
      "level": null,
      "parent_id": null,
      "population": null,
      "latitude": "53.25000000",
      "longitude": "26.66667000",
      "timezone": "Europe/Minsk",
      "wikiDataId": "Q2091651",
      "country_code": "BY",
      "state_code": "MI",
      "state_id": 2957,
      "country_id": 21
    },
    {
      "id": 16022,
      "name": "플리에샤니치",
      "name_default": "Plyeshchanitsy",
      "native": "Плешчаніцы",
      "type": "city",
      "level": null,
      "parent_id": null,
      "population": 7800,
      "latitude": "54.42350000",
      "longitude": "27.83010000",
      "timezone": "Europe/Minsk",
      "wikiDataId": "Q2659496",
      "country_code": "BY",
      "state_code": "MI",
      "state_id": 2957,
      "country_id": 21
    },
    {
      "id": 16026,
      "name": "프라우진스키",
      "name_default": "Prawdzinski",
      "native": "Праўдзінскі",
      "type": "city",
      "level": null,
      "parent_id": null,
      "population": 2900,
      "latitude": "53.52480000",
      "longitude": "27.83030000",
      "timezone": "Europe/Minsk",
      "wikiDataId": "Q2478344",
      "country_code": "BY",
      "state_code": "MI",
      "state_id": 2957,
      "country_id": 21
    },
    {
      "id": 16029,
      "name": "프라이볼니",
      "name_default": "Pryvol’ny",
      "native": "Прывольны",
      "type": "city",
      "level": null,
      "parent_id": null,
      "population": 2000,
      "latitude": "53.79690000",
      "longitude": "27.79670000",
      "timezone": "Europe/Minsk",
      "wikiDataId": "Q4377991",
      "country_code": "BY",
      "state_code": "MI",
      "state_id": 2957,
      "country_id": 21
    },
    {
      "id": 16030,
      "name": "푸카비치",
      "name_default": "Pukhavichy",
      "native": "Пухавічы",
      "type": "city",
      "level": null,
      "parent_id": null,
      "population": 2800,
      "latitude": "53.52970000",
      "longitude": "28.24670000",
      "timezone": "Europe/Minsk",
      "wikiDataId": "Q3917194",
      "country_code": "BY",
      "state_code": "MI",
      "state_id": 2957,
      "country_id": 21
    },
    {
      "id": 16031,
      "name": "푸카비치 라이온",
      "name_default": "Pukhavichy Raion",
      "native": "Пухавіцкі раён",
      "type": "district",
      "level": null,
      "parent_id": null,
      "population": null,
      "latitude": "53.50000000",
      "longitude": "28.00000000",
      "timezone": "Europe/Minsk",
      "wikiDataId": "Q2091726",
      "country_code": "BY",
      "state_code": "MI",
      "state_id": 2957,
      "country_id": 21
    },
    {
      "id": 16032,
      "name": "퍄트리시키",
      "name_default": "Pyatryshki",
      "native": "Пятрышкі",
      "type": "city",
      "level": null,
      "parent_id": null,
      "population": 1946,
      "latitude": "54.06860000",
      "longitude": "27.21790000",
      "timezone": "Europe/Minsk",
      "wikiDataId": "Q13133943",
      "country_code": "BY",
      "state_code": "MI",
      "state_id": 2957,
      "country_id": 21
    },
    {
      "id": 16034,
      "name": "라다슈코비치",
      "name_default": "Radashkovichy",
      "native": "Радашковічы",
      "type": "city",
      "level": null,
      "parent_id": null,
      "population": 6214,
      "latitude": "54.15540000",
      "longitude": "27.24120000",
      "timezone": "Europe/Minsk",
      "wikiDataId": "Q2993986",
      "country_code": "BY",
      "state_code": "MI",
      "state_id": 2957,
      "country_id": 21
    },
    {
      "id": 16037,
      "name": "라카우",
      "name_default": "Rakaw",
      "native": "Ракаў",
      "type": "city",
      "level": null,
      "parent_id": null,
      "population": 6300,
      "latitude": "53.96740000",
      "longitude": "27.05620000",
      "timezone": "Europe/Minsk",
      "wikiDataId": "Q2500789",
      "country_code": "BY",
      "state_code": "MI",
      "state_id": 2957,
      "country_id": 21
    },
    {
      "id": 16043,
      "name": "루젠스크",
      "name_default": "Rudzyensk",
      "native": "Рудзенск",
      "type": "city",
      "level": null,
      "parent_id": null,
      "population": 2900,
      "latitude": "53.59830000",
      "longitude": "27.86210000",
      "timezone": "Europe/Minsk",
      "wikiDataId": "Q2659499",
      "country_code": "BY",
      "state_code": "MI",
      "state_id": 2957,
      "country_id": 21
    },
    {
      "id": 16045,
      "name": "살리호르스크",
      "name_default": "Salihorsk",
      "native": "Салігорск",
      "type": "adm2",
      "level": null,
      "parent_id": null,
      "population": 96993,
      "latitude": "52.78760000",
      "longitude": "27.54150000",
      "timezone": "Europe/Minsk",
      "wikiDataId": "Q201393",
      "country_code": "BY",
      "state_code": "MI",
      "state_id": 2957,
      "country_id": 21
    },
    {
      "id": 16046,
      "name": "사마흐발라비치",
      "name_default": "Samakhvalavichy",
      "native": "Самахвалавічы",
      "type": "city",
      "level": null,
      "parent_id": null,
      "population": 2500,
      "latitude": "53.73960000",
      "longitude": "27.50370000",
      "timezone": "Europe/Minsk",
      "wikiDataId": "Q3917241",
      "country_code": "BY",
      "state_code": "MI",
      "state_id": 2957,
      "country_id": 21
    },
    {
      "id": 16048,
      "name": "사라키",
      "name_default": "Sarachy",
      "native": "Сарачы",
      "type": "city",
      "level": null,
      "parent_id": null,
      "population": 1350,
      "latitude": "52.78670000",
      "longitude": "28.01860000",
      "timezone": "Europe/Minsk",
      "wikiDataId": "Q21579797",
      "country_code": "BY",
      "state_code": "MI",
      "state_id": 2957,
      "country_id": 21
    },
    {
      "id": 16051,
      "name": "쇼미슬리차",
      "name_default": "Schomyslitsa",
      "native": "Шчомысліца",
      "type": "city",
      "level": null,
      "parent_id": null,
      "population": 1822,
      "latitude": "53.82110000",
      "longitude": "27.45220000",
      "timezone": "Europe/Minsk",
      "wikiDataId": "Q6548589",
      "country_code": "BY",
      "state_code": "MI",
      "state_id": 2957,
      "country_id": 21
    },
    {
      "id": 16060,
      "name": "슬라바다",
      "name_default": "Slabada",
      "native": "Слабада",
      "type": "city",
      "level": null,
      "parent_id": null,
      "population": 1819,
      "latitude": "54.00870000",
      "longitude": "27.88660000",
      "timezone": "Europe/Minsk",
      "wikiDataId": "Q16716755",
      "country_code": "BY",
      "state_code": "MI",
      "state_id": 2957,
      "country_id": 21
    },
    {
      "id": 16063,
      "name": "슬루츠크",
      "name_default": "Slutsk",
      "native": "Слуцк",
      "type": "city",
      "level": null,
      "parent_id": null,
      "population": 59450,
      "latitude": "53.02740000",
      "longitude": "27.55970000",
      "timezone": "Europe/Minsk",
      "wikiDataId": "Q201243",
      "country_code": "BY",
      "state_code": "MI",
      "state_id": 2957,
      "country_id": 21
    },
    {
      "id": 16064,
      "name": "슬루츠키 레이온",
      "name_default": "Slutski Rayon",
      "native": "Слуцкі раён",
      "type": "city",
      "level": null,
      "parent_id": null,
      "population": null,
      "latitude": "53.00000000",
      "longitude": "27.66667000",
      "timezone": "Europe/Minsk",
      "wikiDataId": "Q2091666",
      "country_code": "BY",
      "state_code": "MI",
      "state_id": 2957,
      "country_id": 21
    },
    {
      "id": 16065,
      "name": "스말리아비츠키 레이온",
      "name_default": "Smalyavitski Rayon",
      "native": "Смалявіцкі раён",
      "type": "city",
      "level": null,
      "parent_id": null,
      "population": null,
      "latitude": "54.00000000",
      "longitude": "28.16667000",
      "timezone": "Europe/Minsk",
      "wikiDataId": "Q675294",
      "country_code": "BY",
      "state_code": "MI",
      "state_id": 2957,
      "country_id": 21
    },
    {
      "id": 16067,
      "name": "스밀라비치",
      "name_default": "Smilavichy",
      "native": "Смілавічы",
      "type": "city",
      "level": null,
      "parent_id": null,
      "population": 5200,
      "latitude": "53.74960000",
      "longitude": "28.01150000",
      "timezone": "Europe/Minsk",
      "wikiDataId": "Q278100",
      "country_code": "BY",
      "state_code": "MI",
      "state_id": 2957,
      "country_id": 21
    },
    {
      "id": 16068,
      "name": "눈",
      "name_default": "Snow",
      "native": "Снег",
      "type": "city",
      "level": null,
      "parent_id": null,
      "population": 2600,
      "latitude": "53.22010000",
      "longitude": "26.40100000",
      "timezone": "Europe/Minsk",
      "wikiDataId": "Q3917192",
      "country_code": "BY",
      "state_code": "MI",
      "state_id": 2957,
      "country_id": 21
    },
    {
      "id": 16070,
      "name": "스탄카바",
      "name_default": "Stan’kava",
      "native": "Станькава",
      "type": "city",
      "level": null,
      "parent_id": null,
      "population": 1850,
      "latitude": "53.62920000",
      "longitude": "27.22900000",
      "timezone": "Europe/Minsk",
      "wikiDataId": "Q1011316",
      "country_code": "BY",
      "state_code": "MI",
      "state_id": 2957,
      "country_id": 21
    },
    {
      "id": 16071,
      "name": "스타라다로즈스키 레이온",
      "name_default": "Staradarozhski Rayon",
      "native": "Старадарожскі раён",
      "type": "city",
      "level": null,
      "parent_id": null,
      "population": null,
      "latitude": "53.00000000",
      "longitude": "28.16667000",
      "timezone": "Europe/Minsk",
      "wikiDataId": "Q977019",
      "country_code": "BY",
      "state_code": "MI",
      "state_id": 2957,
      "country_id": 21
    },
    {
      "id": 16072,
      "name": "스타로빈",
      "name_default": "Starobin",
      "native": "Старобін",
      "type": "city",
      "level": null,
      "parent_id": null,
      "population": 6417,
      "latitude": "52.72670000",
      "longitude": "27.46060000",
      "timezone": "Europe/Minsk",
      "wikiDataId": "Q2471143",
      "country_code": "BY",
      "state_code": "MI",
      "state_id": 2957,
      "country_id": 21
    },
    {
      "id": 16073,
      "name": "스타리아 다로히",
      "name_default": "Staryya Darohi",
      "native": "Старыя Дарогі",
      "type": "adm2",
      "level": null,
      "parent_id": null,
      "population": 10898,
      "latitude": "53.04020000",
      "longitude": "28.26700000",
      "timezone": "Europe/Minsk",
      "wikiDataId": "Q201403",
      "country_code": "BY",
      "state_code": "MI",
      "state_id": 2957,
      "country_id": 21
    },
    {
      "id": 16074,
      "name": "슈타브초프스키 레이온",
      "name_default": "Stawbtsowski Rayon",
      "native": "Стаўбцоўскі раён",
      "type": "city",
      "level": null,
      "parent_id": null,
      "population": null,
      "latitude": "53.58333000",
      "longitude": "26.66667000",
      "timezone": "Europe/Minsk",
      "wikiDataId": "Q2061349",
      "country_code": "BY",
      "state_code": "MI",
      "state_id": 2957,
      "country_id": 21
    },
    {
      "id": 16077,
      "name": "스토브치",
      "name_default": "Stowbtsy",
      "native": "Стоўбцы",
      "type": "adm2",
      "level": null,
      "parent_id": null,
      "population": 17701,
      "latitude": "53.47850000",
      "longitude": "26.74340000",
      "timezone": "Europe/Minsk",
      "wikiDataId": "Q201421",
      "country_code": "BY",
      "state_code": "MI",
      "state_id": 2957,
      "country_id": 21
    },
    {
      "id": 16078,
      "name": "스비르",
      "name_default": "Svir",
      "native": "Свір",
      "type": "city",
      "level": null,
      "parent_id": null,
      "population": 1300,
      "latitude": "54.85170000",
      "longitude": "26.39500000",
      "timezone": "Europe/Minsk",
      "wikiDataId": "Q2659511",
      "country_code": "BY",
      "state_code": "MI",
      "state_id": 2957,
      "country_id": 21
    },
    {
      "id": 16080,
      "name": "스비슬라흐",
      "name_default": "Svislach",
      "native": "Свіслач",
      "type": "city",
      "level": null,
      "parent_id": null,
      "population": 4200,
      "latitude": "53.64040000",
      "longitude": "27.91990000",
      "timezone": "Europe/Minsk",
      "wikiDataId": "Q1410290",
      "country_code": "BY",
      "state_code": "MI",
      "state_id": 2957,
      "country_id": 21
    },
    {
      "id": 16083,
      "name": "시에니차",
      "name_default": "Syenitsa",
      "native": "Сіеніца",
      "type": "city",
      "level": null,
      "parent_id": null,
      "population": 5000,
      "latitude": "53.83130000",
      "longitude": "27.53430000",
      "timezone": "Europe/Minsk",
      "wikiDataId": "Q3917859",
      "country_code": "BY",
      "state_code": "MI",
      "state_id": 2957,
      "country_id": 21
    },
    {
      "id": 16085,
      "name": "쇤카바",
      "name_default": "Syomkava",
      "native": "Сёмкава",
      "type": "city",
      "level": null,
      "parent_id": null,
      "population": 1522,
      "latitude": "54.01010000",
      "longitude": "27.44100000",
      "timezone": "Europe/Minsk",
      "wikiDataId": "Q13028184",
      "country_code": "BY",
      "state_code": "MI",
      "state_id": 2957,
      "country_id": 21
    },
    {
      "id": 16088,
      "name": "침카비치",
      "name_default": "Tsimkavichy",
      "native": "Цімкавічы",
      "type": "city",
      "level": null,
      "parent_id": null,
      "population": 1299,
      "latitude": "53.06720000",
      "longitude": "26.99020000",
      "timezone": "Europe/Minsk",
      "wikiDataId": "Q1384308",
      "country_code": "BY",
      "state_code": "MI",
      "state_id": 2957,
      "country_id": 21
    },
    {
      "id": 16091,
      "name": "투레츠-바야리",
      "name_default": "Turets-Bayary",
      "native": "Турэц-Баяры",
      "type": "city",
      "level": null,
      "parent_id": null,
      "population": 1602,
      "latitude": "54.37850000",
      "longitude": "26.65810000",
      "timezone": "Europe/Minsk",
      "wikiDataId": "Q16720536",
      "country_code": "BY",
      "state_code": "MI",
      "state_id": 2957,
      "country_id": 21
    },
    {
      "id": 16092,
      "name": "우레차",
      "name_default": "Urechcha",
      "native": "Урэчча",
      "type": "city",
      "level": null,
      "parent_id": null,
      "population": 3300,
      "latitude": "52.94790000",
      "longitude": "27.89300000",
      "timezone": "Europe/Minsk",
      "wikiDataId": "Q1169315",
      "country_code": "BY",
      "state_code": "MI",
      "state_id": 2957,
      "country_id": 21
    },
    {
      "id": 16094,
      "name": "우시아즈",
      "name_default": "Usiazh",
      "native": "Усяж",
      "type": "city",
      "level": null,
      "parent_id": null,
      "population": 1500,
      "latitude": "54.07598000",
      "longitude": "28.00698000",
      "timezone": "Europe/Minsk",
      "wikiDataId": "Q16721198",
      "country_code": "BY",
      "state_code": "MI",
      "state_id": 2957,
      "country_id": 21
    },
    {
      "id": 16095,
      "name": "우즈다",
      "name_default": "Uzda",
      "native": "Узда",
      "type": "adm2",
      "level": null,
      "parent_id": null,
      "population": 10545,
      "latitude": "53.46270000",
      "longitude": "27.21370000",
      "timezone": "Europe/Minsk",
      "wikiDataId": "Q201429",
      "country_code": "BY",
      "state_code": "MI",
      "state_id": 2957,
      "country_id": 21
    },
    {
      "id": 16096,
      "name": "우즈젠스키 레이온",
      "name_default": "Uzdzyenski Rayon",
      "native": "Уздзенскі раён",
      "type": "city",
      "level": null,
      "parent_id": null,
      "population": null,
      "latitude": "53.41667000",
      "longitude": "27.33333000",
      "timezone": "Europe/Minsk",
      "wikiDataId": "Q2092398",
      "country_code": "BY",
      "state_code": "MI",
      "state_id": 2957,
      "country_id": 21
    },
    {
      "id": 16097,
      "name": "발로진",
      "name_default": "Valozhyn",
      "native": "Валожын",
      "type": "adm2",
      "level": null,
      "parent_id": null,
      "population": 9923,
      "latitude": "54.08920000",
      "longitude": "26.52660000",
      "timezone": "Europe/Minsk",
      "wikiDataId": "Q200876",
      "country_code": "BY",
      "state_code": "MI",
      "state_id": 2957,
      "country_id": 21
    },
    {
      "id": 16101,
      "name": "빌리에이카",
      "name_default": "Vilyeyka",
      "native": "Вілейка",
      "type": "adm2",
      "level": null,
      "parent_id": null,
      "population": 26625,
      "latitude": "54.49140000",
      "longitude": "26.91110000",
      "timezone": "Europe/Minsk",
      "wikiDataId": "Q181632",
      "country_code": "BY",
      "state_code": "MI",
      "state_id": 2957,
      "country_id": 21
    },
    {
      "id": 16102,
      "name": "빌리에이스키 레이온",
      "name_default": "Vilyeyski Rayon",
      "native": "Вілейскі раён",
      "type": "city",
      "level": null,
      "parent_id": null,
      "population": null,
      "latitude": "54.50000000",
      "longitude": "27.08333000",
      "timezone": "Europe/Minsk",
      "wikiDataId": "Q2061377",
      "country_code": "BY",
      "state_code": "MI",
      "state_id": 2957,
      "country_id": 21
    },
    {
      "id": 16109,
      "name": "비알리키 트라스티샤네츠",
      "name_default": "Vyaliki Trastsyanets",
      "native": "Вялікі Трасцянец",
      "type": "city",
      "level": null,
      "parent_id": null,
      "population": 2100,
      "latitude": "53.85100000",
      "longitude": "27.71390000",
      "timezone": "Europe/Minsk",
      "wikiDataId": "Q21579836",
      "country_code": "BY",
      "state_code": "MI",
      "state_id": 2957,
      "country_id": 21
    },
    {
      "id": 16117,
      "name": "유빌리에이니",
      "name_default": "Yubilyeyny",
      "native": "Юбілейны",
      "type": "city",
      "level": null,
      "parent_id": null,
      "population": 3000,
      "latitude": "53.81910000",
      "longitude": "27.52150000",
      "timezone": "Europe/Minsk",
      "wikiDataId": "Q21579839",
      "country_code": "BY",
      "state_code": "MI",
      "state_id": 2957,
      "country_id": 21
    },
    {
      "id": 16118,
      "name": "자모스토치에",
      "name_default": "Zamostochye",
      "native": "Замасточча",
      "type": "city",
      "level": null,
      "parent_id": null,
      "population": 2500,
      "latitude": "53.81980000",
      "longitude": "27.86850000",
      "timezone": "Europe/Minsk",
      "wikiDataId": "Q6492521",
      "country_code": "BY",
      "state_code": "MI",
      "state_id": 2957,
      "country_id": 21
    },
    {
      "id": 16119,
      "name": "자슬라예",
      "name_default": "Zaslawye",
      "native": "Заслаўе",
      "type": "city",
      "level": null,
      "parent_id": null,
      "population": 17404,
      "latitude": "54.01140000",
      "longitude": "27.26950000",
      "timezone": "Europe/Minsk",
      "wikiDataId": "Q200917",
      "country_code": "BY",
      "state_code": "MI",
      "state_id": 2957,
      "country_id": 21
    },
    {
      "id": 16125,
      "name": "즈다노비치",
      "name_default": "Zhdanovichy",
      "native": "Ждановічы",
      "type": "city",
      "level": null,
      "parent_id": null,
      "population": 5000,
      "latitude": "53.94320000",
      "longitude": "27.42500000",
      "timezone": "Europe/Minsk",
      "wikiDataId": "Q2584556",
      "country_code": "BY",
      "state_code": "MI",
      "state_id": 2957,
      "country_id": 21
    },
    {
      "id": 16131,
      "name": "지엠빈",
      "name_default": "Zyembin",
      "native": "Зембін",
      "type": "city",
      "level": null,
      "parent_id": null,
      "population": 713,
      "latitude": "54.35790000",
      "longitude": "28.22070000",
      "timezone": "Europe/Minsk",
      "wikiDataId": "Q2061031",
      "country_code": "BY",
      "state_code": "MI",
      "state_id": 2957,
      "country_id": 21
    },
    {
      "id": 16132,
      "name": "10월",
      "name_default": "Октябрьский",
      "native": "Кастрычніцкі",
      "type": "city",
      "level": null,
      "parent_id": null,
      "population": 2300,
      "latitude": "54.04059000",
      "longitude": "28.19813000",
      "timezone": "Europe/Minsk",
      "wikiDataId": "Q16709879",
      "country_code": "BY",
      "state_code": "MI",
      "state_id": 2957,
      "country_id": 21
    }
  ]
}
