{
  "locale": "br",
  "country": {
    "id": 219,
    "code": "TH",
    "iso3": "THA",
    "numeric_code": "764",
    "name": "Thailand",
    "name_default": "Thailand",
    "native": "ประเทศไทย",
    "capital": "Bangkok",
    "phonecode": "66",
    "currency": "THB",
    "currency_name": "Thai baht",
    "currency_symbol": "฿",
    "tld": ".th",
    "population": 65859640,
    "gdp": 546224,
    "region": "Asia",
    "region_id": 3,
    "subregion": "South-Eastern Asia",
    "subregion_id": 13,
    "nationality": "Thai",
    "timezones": [
      {
        "zoneName": "Asia/Bangkok",
        "gmtOffset": 25200,
        "gmtOffsetName": "UTC+07:00",
        "abbreviation": "ICT",
        "tzName": "Indochina Time"
      }
    ],
    "latitude": "15.00000000",
    "longitude": "100.00000000",
    "emoji": "🇹🇭",
    "emojiU": "U+1F1F9 U+1F1ED"
  },
  "state": {
    "id": 3513,
    "code": "20",
    "iso2": "20",
    "iso3166_2": "TH-20",
    "fips_code": "46",
    "name": "Chon Buri",
    "name_default": "Chon Buri",
    "native": "ชลบุรี",
    "type": "province",
    "level": null,
    "parent_id": null,
    "population": null,
    "latitude": "13.18571170",
    "longitude": "101.12107770",
    "timezone": "Asia/Bangkok",
    "wikiDataId": "Q207068",
    "country_code": "TH"
  },
  "cities": [
    {
      "id": 105186,
      "name": "Amphoe Ban Bueng",
      "name_default": "Amphoe Ban Bueng",
      "native": "อำเภอบ้านบึง",
      "type": "district",
      "level": null,
      "parent_id": null,
      "population": null,
      "latitude": "13.25280000",
      "longitude": "101.18151000",
      "timezone": "Asia/Bangkok",
      "wikiDataId": "Q475087",
      "country_code": "TH",
      "state_code": "20",
      "state_id": 3513,
      "country_id": 219
    },
    {
      "id": 105445,
      "name": "Amphoe Ko Si Chang",
      "name_default": "Amphoe Ko Si Chang",
      "native": "อำเภอเกาะสีชัง",
      "type": "district",
      "level": null,
      "parent_id": null,
      "population": 0,
      "latitude": "13.15286000",
      "longitude": "100.81156000",
      "timezone": "Asia/Bangkok",
      "wikiDataId": "Q475806",
      "country_code": "TH",
      "state_code": "20",
      "state_id": 3513,
      "country_id": 219
    },
    {
      "id": 105721,
      "name": "Amphoe Phan Thong",
      "name_default": "Amphoe Phan Thong",
      "native": "อำเภอพานทอง",
      "type": "district",
      "level": null,
      "parent_id": null,
      "population": 18708,
      "latitude": "13.46300000",
      "longitude": "101.09131000",
      "timezone": "Asia/Bangkok",
      "wikiDataId": "Q476365",
      "country_code": "TH",
      "state_code": "20",
      "state_id": 3513,
      "country_id": 219
    },
    {
      "id": 105723,
      "name": "Amphoe Phanat Nikhom",
      "name_default": "Amphoe Phanat Nikhom",
      "native": "อำเภอพนัสนิคม",
      "type": "district",
      "level": null,
      "parent_id": null,
      "population": null,
      "latitude": "13.46434000",
      "longitude": "101.21428000",
      "timezone": "Asia/Bangkok",
      "wikiDataId": "Q476369",
      "country_code": "TH",
      "state_code": "20",
      "state_id": 3513,
      "country_id": 219
    },
    {
      "id": 106197,
      "name": "Amphoe Sattahip",
      "name_default": "Amphoe Sattahip",
      "native": "อำเภอสัตหีบ",
      "type": "district",
      "level": null,
      "parent_id": null,
      "population": null,
      "latitude": "12.71743000",
      "longitude": "100.92754000",
      "timezone": "Asia/Bangkok",
      "wikiDataId": "Q476658",
      "country_code": "TH",
      "state_code": "20",
      "state_id": 3513,
      "country_id": 219
    },
    {
      "id": 106220,
      "name": "Amphoe Si Racha",
      "name_default": "Amphoe Si Racha",
      "native": "อำเภอศรีราชา",
      "type": "district",
      "level": null,
      "parent_id": null,
      "population": null,
      "latitude": "13.12976000",
      "longitude": "101.04008000",
      "timezone": "Asia/Bangkok",
      "wikiDataId": "Q913445",
      "country_code": "TH",
      "state_code": "20",
      "state_id": 3513,
      "country_id": 219
    },
    {
      "id": 106385,
      "name": "Ban Bueng",
      "name_default": "Ban Bueng",
      "native": "บ้านบึง",
      "type": "adm2",
      "level": null,
      "parent_id": null,
      "population": 19346,
      "latitude": "13.31100000",
      "longitude": "101.11214000",
      "timezone": "Asia/Bangkok",
      "wikiDataId": "Q13025368",
      "country_code": "TH",
      "state_code": "20",
      "state_id": 3513,
      "country_id": 219
    },
    {
      "id": 106396,
      "name": "Ban Ko Lan",
      "name_default": "Ban Ko Lan",
      "native": "บ้านเกาะล้าน",
      "type": "city",
      "level": null,
      "parent_id": null,
      "population": 2000,
      "latitude": "12.92419000",
      "longitude": "100.78794000",
      "timezone": "Asia/Bangkok",
      "wikiDataId": "Q340034",
      "country_code": "TH",
      "state_code": "20",
      "state_id": 3513,
      "country_id": 219
    },
    {
      "id": 106416,
      "name": "Ban Talat Bueng",
      "name_default": "Ban Talat Bueng",
      "native": "บ้านตลาดบึง",
      "type": "city",
      "level": null,
      "parent_id": null,
      "population": 26113,
      "latitude": "13.07147000",
      "longitude": "101.00314000",
      "timezone": "Asia/Bangkok",
      "wikiDataId": "Q340034",
      "country_code": "TH",
      "state_code": "20",
      "state_id": 3513,
      "country_id": 219
    },
    {
      "id": 106432,
      "name": "Bang Lamung",
      "name_default": "Bang Lamung",
      "native": "บางละมุง",
      "type": "adm2",
      "level": null,
      "parent_id": null,
      "population": 39620,
      "latitude": "13.04704000",
      "longitude": "100.92891000",
      "timezone": "Asia/Bangkok",
      "wikiDataId": "Q1390973",
      "country_code": "TH",
      "state_code": "20",
      "state_id": 3513,
      "country_id": 219
    },
    {
      "id": 106433,
      "name": "Distrig Bang Lamung",
      "name_default": "Bang Lamung District",
      "native": "เขตบางละมุง",
      "type": "district",
      "level": null,
      "parent_id": null,
      "population": 0,
      "latitude": "12.92579000",
      "longitude": "100.89243000",
      "timezone": "Asia/Bangkok",
      "wikiDataId": "Q475218",
      "country_code": "TH",
      "state_code": "20",
      "state_id": 3513,
      "country_id": 219
    },
    {
      "id": 105254,
      "name": "Amphoe Bo Thong",
      "name_default": "Bo Thong",
      "native": "อำเภอบ่อทอง",
      "type": "district",
      "level": null,
      "parent_id": null,
      "population": null,
      "latitude": "13.24227000",
      "longitude": "101.50864000",
      "timezone": "Asia/Bangkok",
      "wikiDataId": "Q475282",
      "country_code": "TH",
      "state_code": "20",
      "state_id": 3513,
      "country_id": 219
    },
    {
      "id": 106481,
      "name": "Chon Buri",
      "name_default": "Chon Buri",
      "native": "ชลบุรี",
      "type": "adm1",
      "level": null,
      "parent_id": null,
      "population": 219164,
      "latitude": "13.36220000",
      "longitude": "100.98345000",
      "timezone": "Asia/Bangkok",
      "wikiDataId": "Q138589",
      "country_code": "TH",
      "state_code": "20",
      "state_id": 3513,
      "country_id": 219
    },
    {
      "id": 105438,
      "name": "Amphoe Ko Chan",
      "name_default": "Ko Chan",
      "native": "อำเภอเกาะจันทร์",
      "type": "district",
      "level": null,
      "parent_id": null,
      "population": null,
      "latitude": "13.40253000",
      "longitude": "101.38800000",
      "timezone": "Asia/Bangkok",
      "wikiDataId": "Q475778",
      "country_code": "TH",
      "state_code": "20",
      "state_id": 3513,
      "country_id": 219
    },
    {
      "id": 106537,
      "name": "Ko Si Chang",
      "name_default": "Ko Si Chang",
      "native": "เกาะสีชัง",
      "type": "adm2",
      "level": null,
      "parent_id": null,
      "population": 0,
      "latitude": "13.16389000",
      "longitude": "100.80547000",
      "timezone": "Asia/Bangkok",
      "wikiDataId": "Q13025301",
      "country_code": "TH",
      "state_code": "20",
      "state_id": 3513,
      "country_id": 219
    },
    {
      "id": 106572,
      "name": "Distrig Mueang Chonburi",
      "name_default": "Mueang Chonburi",
      "native": "อำเภอเมืองชลบุรี",
      "type": "district",
      "level": null,
      "parent_id": null,
      "population": null,
      "latitude": "13.34271000",
      "longitude": "101.00111000",
      "timezone": "Asia/Bangkok",
      "wikiDataId": "Q476013",
      "country_code": "TH",
      "state_code": "20",
      "state_id": 3513,
      "country_id": 219
    },
    {
      "id": 105686,
      "name": "Amphoe Nong Yai",
      "name_default": "Nong Yai",
      "native": "อำเภอหนองใหญ่",
      "type": "district",
      "level": null,
      "parent_id": null,
      "population": 0,
      "latitude": "13.11772000",
      "longitude": "101.37471000",
      "timezone": "Asia/Bangkok",
      "wikiDataId": "Q476292",
      "country_code": "TH",
      "state_code": "20",
      "state_id": 3513,
      "country_id": 219
    },
    {
      "id": 106617,
      "name": "Pattaya",
      "name_default": "Pattaya",
      "native": "พัทยา",
      "type": "city",
      "level": null,
      "parent_id": null,
      "population": 119532,
      "latitude": "12.93333000",
      "longitude": "100.88333000",
      "timezone": "Asia/Bangkok",
      "wikiDataId": "Q170919",
      "country_code": "TH",
      "state_code": "20",
      "state_id": 3513,
      "country_id": 219
    },
    {
      "id": 106620,
      "name": "Phan Thong",
      "name_default": "Phan Thong",
      "native": "พานทอง",
      "type": "adm2",
      "level": null,
      "parent_id": null,
      "population": 18708,
      "latitude": "13.46804000",
      "longitude": "101.09532000",
      "timezone": "Asia/Bangkok",
      "wikiDataId": "Q28736016",
      "country_code": "TH",
      "state_code": "20",
      "state_id": 3513,
      "country_id": 219
    },
    {
      "id": 106621,
      "name": "Phanat Nikhom",
      "name_default": "Phanat Nikhom",
      "native": "พนัสนิคม",
      "type": "adm2",
      "level": null,
      "parent_id": null,
      "population": 21924,
      "latitude": "13.44581000",
      "longitude": "101.18445000",
      "timezone": "Asia/Bangkok",
      "wikiDataId": "Q13025381",
      "country_code": "TH",
      "state_code": "20",
      "state_id": 3513,
      "country_id": 219
    },
    {
      "id": 106690,
      "name": "Sattahip",
      "name_default": "Sattahip",
      "native": "สัตหีบ",
      "type": "adm2",
      "level": null,
      "parent_id": null,
      "population": 65444,
      "latitude": "12.66644000",
      "longitude": "100.90073000",
      "timezone": "Asia/Bangkok",
      "wikiDataId": "Q13025387",
      "country_code": "TH",
      "state_code": "20",
      "state_id": 3513,
      "country_id": 219
    },
    {
      "id": 106699,
      "name": "Si Racha",
      "name_default": "Si Racha",
      "native": "ศรีราชา",
      "type": "adm2",
      "level": null,
      "parent_id": null,
      "population": 178916,
      "latitude": "13.17372000",
      "longitude": "100.93111000",
      "timezone": "Asia/Bangkok",
      "wikiDataId": "Q13409879",
      "country_code": "TH",
      "state_code": "20",
      "state_id": 3513,
      "country_id": 219
    }
  ]
}
