{
  "locale": "ko",
  "country": {
    "id": 99,
    "code": "HU",
    "iso3": "HUN",
    "numeric_code": "348",
    "name": "헝가리",
    "name_default": "Hungary",
    "native": "Magyarország",
    "capital": "Budapest",
    "phonecode": "36",
    "currency": "HUF",
    "currency_name": "Hungarian forint",
    "currency_symbol": "Ft",
    "tld": ".hu",
    "population": 9539502,
    "gdp": 237070,
    "region": "Europe",
    "region_id": 4,
    "subregion": "Eastern Europe",
    "subregion_id": 15,
    "nationality": "Hungarian, Magyar",
    "timezones": [
      {
        "zoneName": "Europe/Budapest",
        "gmtOffset": 3600,
        "gmtOffsetName": "UTC+01:00",
        "abbreviation": "CET",
        "tzName": "Central European Time"
      }
    ],
    "latitude": "47.00000000",
    "longitude": "20.00000000",
    "emoji": "🇭🇺",
    "emojiU": "U+1F1ED U+1F1FA"
  },
  "state": {
    "id": 1043,
    "code": "JN",
    "iso2": "JN",
    "iso3166_2": "HU-JN",
    "fips_code": "20",
    "name": "야스-나기쿤-솔노크 주",
    "name_default": "Jász-Nagykun-Szolnok County",
    "native": "Jász-Nagykun-Szolnok County",
    "type": "county",
    "level": null,
    "parent_id": null,
    "population": 371271,
    "latitude": "47.25555790",
    "longitude": "20.52324560",
    "timezone": "Europe/Budapest",
    "wikiDataId": "Q189655",
    "country_code": "HU"
  },
  "cities": [
    {
      "id": 55173,
      "name": "아바드잘록",
      "name_default": "Abádszalók",
      "native": "Abádszalók",
      "type": "city",
      "level": null,
      "parent_id": null,
      "population": 3727,
      "latitude": "47.46667000",
      "longitude": "20.60000000",
      "timezone": "Europe/Budapest",
      "wikiDataId": "Q336820",
      "country_code": "HU",
      "state_code": "JN",
      "state_id": 1043,
      "country_id": 99
    },
    {
      "id": 55182,
      "name": "알라티안",
      "name_default": "Alattyán",
      "native": "Alattyán",
      "type": "city",
      "level": null,
      "parent_id": null,
      "population": 2060,
      "latitude": "47.42705000",
      "longitude": "20.04219000",
      "timezone": "Europe/Budapest",
      "wikiDataId": "Q576157",
      "country_code": "HU",
      "state_code": "JN",
      "state_id": 1043,
      "country_id": 99
    },
    {
      "id": 55243,
      "name": "베세니조그",
      "name_default": "Besenyszög",
      "native": "Besenyszög",
      "type": "city",
      "level": null,
      "parent_id": null,
      "population": 3095,
      "latitude": "47.30000000",
      "longitude": "20.26667000",
      "timezone": "Europe/Budapest",
      "wikiDataId": "Q793988",
      "country_code": "HU",
      "state_code": "JN",
      "state_id": 1043,
      "country_id": 99
    },
    {
      "id": 55320,
      "name": "치바카자",
      "name_default": "Cibakháza",
      "native": "Cibakháza",
      "type": "city",
      "level": null,
      "parent_id": null,
      "population": 4565,
      "latitude": "46.95976000",
      "longitude": "20.19753000",
      "timezone": "Europe/Budapest",
      "wikiDataId": "Q867175",
      "country_code": "HU",
      "state_code": "JN",
      "state_id": 1043,
      "country_id": 99
    },
    {
      "id": 55333,
      "name": "체르케슈뢰",
      "name_default": "Cserkeszőlő",
      "native": "Cserkeszőlő",
      "type": "city",
      "level": null,
      "parent_id": null,
      "population": 2098,
      "latitude": "46.86320000",
      "longitude": "20.18701000",
      "timezone": "Europe/Budapest",
      "wikiDataId": "Q872113",
      "country_code": "HU",
      "state_code": "JN",
      "state_id": 1043,
      "country_id": 99
    },
    {
      "id": 55419,
      "name": "페기베르넥",
      "name_default": "Fegyvernek",
      "native": "Fegyvernek",
      "type": "city",
      "level": null,
      "parent_id": null,
      "population": 6000,
      "latitude": "47.26667000",
      "longitude": "20.53333000",
      "timezone": "Europe/Budapest",
      "wikiDataId": "Q997079",
      "country_code": "HU",
      "state_code": "JN",
      "state_id": 1043,
      "country_id": 99
    },
    {
      "id": 55537,
      "name": "자노시다",
      "name_default": "Jánoshida",
      "native": "Jánoshida",
      "type": "city",
      "level": null,
      "parent_id": null,
      "population": 2392,
      "latitude": "47.38333000",
      "longitude": "20.06667000",
      "timezone": "Europe/Budapest",
      "wikiDataId": "Q585316",
      "country_code": "HU",
      "state_code": "JN",
      "state_id": 1043,
      "country_id": 99
    },
    {
      "id": 55541,
      "name": "야스잘소센트교르기",
      "name_default": "Jászalsószentgyörgy",
      "native": "Jászalsószentgyörgy",
      "type": "city",
      "level": null,
      "parent_id": null,
      "population": 3127,
      "latitude": "47.36667000",
      "longitude": "20.10000000",
      "timezone": "Europe/Budapest",
      "wikiDataId": "Q1102526",
      "country_code": "HU",
      "state_code": "JN",
      "state_id": 1043,
      "country_id": 99
    },
    {
      "id": 55542,
      "name": "야스자파티",
      "name_default": "Jászapáti",
      "native": "Jászapáti",
      "type": "city",
      "level": null,
      "parent_id": null,
      "population": 8107,
      "latitude": "47.51667000",
      "longitude": "20.15000000",
      "timezone": "Europe/Budapest",
      "wikiDataId": "Q240026",
      "country_code": "HU",
      "state_code": "JN",
      "state_id": 1043,
      "country_id": 99
    },
    {
      "id": 55543,
      "name": "야스자파티 자라스",
      "name_default": "Jászapáti Járás",
      "native": "Jászapáti Járás",
      "type": "city",
      "level": null,
      "parent_id": null,
      "population": null,
      "latitude": "47.46126000",
      "longitude": "20.06567000",
      "timezone": "Europe/Budapest",
      "wikiDataId": "Q1102512",
      "country_code": "HU",
      "state_code": "JN",
      "state_id": 1043,
      "country_id": 99
    },
    {
      "id": 55553,
      "name": "야샤로크스잘라스",
      "name_default": "Jászárokszállás",
      "native": "Jászárokszállás",
      "type": "city",
      "level": null,
      "parent_id": null,
      "population": 7429,
      "latitude": "47.64238000",
      "longitude": "19.98038000",
      "timezone": "Europe/Budapest",
      "wikiDataId": "Q933597",
      "country_code": "HU",
      "state_code": "JN",
      "state_id": 1043,
      "country_id": 99
    },
    {
      "id": 55544,
      "name": "야스베레니",
      "name_default": "Jászberény",
      "native": "Jászberény",
      "type": "adm2",
      "level": null,
      "parent_id": null,
      "population": 25323,
      "latitude": "47.50000000",
      "longitude": "19.91667000",
      "timezone": "Europe/Budapest",
      "wikiDataId": "Q281371",
      "country_code": "HU",
      "state_code": "JN",
      "state_id": 1043,
      "country_id": 99
    },
    {
      "id": 55545,
      "name": "야스베레니 자라스",
      "name_default": "Jászberényi Járás",
      "native": "Jászberényi Járás",
      "type": "city",
      "level": null,
      "parent_id": null,
      "population": null,
      "latitude": "47.56500000",
      "longitude": "19.86887000",
      "timezone": "Europe/Budapest",
      "wikiDataId": "Q854302",
      "country_code": "HU",
      "state_code": "JN",
      "state_id": 1043,
      "country_id": 99
    },
    {
      "id": 55546,
      "name": "야스도자",
      "name_default": "Jászdózsa",
      "native": "Jászdózsa",
      "type": "city",
      "level": null,
      "parent_id": null,
      "population": 2020,
      "latitude": "47.56610000",
      "longitude": "20.01534000",
      "timezone": "Europe/Budapest",
      "wikiDataId": "Q1102540",
      "country_code": "HU",
      "state_code": "JN",
      "state_id": 1043,
      "country_id": 99
    },
    {
      "id": 55547,
      "name": "야샤코할마",
      "name_default": "Jászjákóhalma",
      "native": "Jászjákóhalma",
      "type": "city",
      "level": null,
      "parent_id": null,
      "population": 2733,
      "latitude": "47.52038000",
      "longitude": "19.99086000",
      "timezone": "Europe/Budapest",
      "wikiDataId": "Q509856",
      "country_code": "HU",
      "state_code": "JN",
      "state_id": 1043,
      "country_id": 99
    },
    {
      "id": 55549,
      "name": "야스키세르",
      "name_default": "Jászkisér",
      "native": "Jászkisér",
      "type": "city",
      "level": null,
      "parent_id": null,
      "population": 4753,
      "latitude": "47.45000000",
      "longitude": "20.21667000",
      "timezone": "Europe/Budapest",
      "wikiDataId": "Q1096156",
      "country_code": "HU",
      "state_code": "JN",
      "state_id": 1043,
      "country_id": 99
    },
    {
      "id": 55550,
      "name": "야즐라다니",
      "name_default": "Jászladány",
      "native": "Jászladány",
      "type": "city",
      "level": null,
      "parent_id": null,
      "population": 5492,
      "latitude": "47.36667000",
      "longitude": "20.16667000",
      "timezone": "Europe/Budapest",
      "wikiDataId": "Q1102564",
      "country_code": "HU",
      "state_code": "JN",
      "state_id": 1043,
      "country_id": 99
    },
    {
      "id": 55551,
      "name": "야스젠탄드라스",
      "name_default": "Jászszentandrás",
      "native": "Jászszentandrás",
      "type": "city",
      "level": null,
      "parent_id": null,
      "population": 2560,
      "latitude": "47.58333000",
      "longitude": "20.18333000",
      "timezone": "Europe/Budapest",
      "wikiDataId": "Q527857",
      "country_code": "HU",
      "state_code": "JN",
      "state_id": 1043,
      "country_id": 99
    },
    {
      "id": 55567,
      "name": "카르차그",
      "name_default": "Karcag",
      "native": "Karcag",
      "type": "adm2",
      "level": null,
      "parent_id": null,
      "population": 18022,
      "latitude": "47.31667000",
      "longitude": "20.93333000",
      "timezone": "Europe/Budapest",
      "wikiDataId": "Q756273",
      "country_code": "HU",
      "state_code": "JN",
      "state_id": 1043,
      "country_id": 99
    },
    {
      "id": 55568,
      "name": "카르카기 자라스",
      "name_default": "Karcagi Járás",
      "native": "Karcagi Járás",
      "type": "city",
      "level": null,
      "parent_id": null,
      "population": null,
      "latitude": "47.28583000",
      "longitude": "20.84218000",
      "timezone": "Europe/Budapest",
      "wikiDataId": "Q853885",
      "country_code": "HU",
      "state_code": "JN",
      "state_id": 1043,
      "country_id": 99
    },
    {
      "id": 55584,
      "name": "켄데레스",
      "name_default": "Kenderes",
      "native": "Kenderes",
      "type": "city",
      "level": null,
      "parent_id": null,
      "population": 5243,
      "latitude": "47.25000000",
      "longitude": "20.68333000",
      "timezone": "Europe/Budapest",
      "wikiDataId": "Q655417",
      "country_code": "HU",
      "state_code": "JN",
      "state_id": 1043,
      "country_id": 99
    },
    {
      "id": 55585,
      "name": "켄겔",
      "name_default": "Kengyel",
      "native": "Kengyel",
      "type": "city",
      "level": null,
      "parent_id": null,
      "population": 4299,
      "latitude": "47.08333000",
      "longitude": "20.33333000",
      "timezone": "Europe/Budapest",
      "wikiDataId": "Q1106960",
      "country_code": "HU",
      "state_code": "JN",
      "state_id": 1043,
      "country_id": 99
    },
    {
      "id": 55615,
      "name": "키스우즈잘라스",
      "name_default": "Kisújszállás",
      "native": "Kisújszállás",
      "type": "city",
      "level": null,
      "parent_id": null,
      "population": 12661,
      "latitude": "47.21667000",
      "longitude": "20.76667000",
      "timezone": "Europe/Budapest",
      "wikiDataId": "Q911634",
      "country_code": "HU",
      "state_code": "JN",
      "state_id": 1043,
      "country_id": 99
    },
    {
      "id": 55627,
      "name": "쿤헤계스",
      "name_default": "Kunhegyes",
      "native": "Kunhegyes",
      "type": "adm2",
      "level": null,
      "parent_id": null,
      "population": 6823,
      "latitude": "47.36667000",
      "longitude": "20.63333000",
      "timezone": "Europe/Budapest",
      "wikiDataId": "Q933645",
      "country_code": "HU",
      "state_code": "JN",
      "state_id": 1043,
      "country_id": 99
    },
    {
      "id": 55628,
      "name": "Kunhegyesi Járás",
      "name_default": "Kunhegyesi Járás",
      "native": "Kunhegyesi Járás",
      "type": "city",
      "level": null,
      "parent_id": null,
      "population": null,
      "latitude": "47.40329000",
      "longitude": "20.59199000",
      "timezone": "Europe/Budapest",
      "wikiDataId": "Q1121931",
      "country_code": "HU",
      "state_code": "JN",
      "state_id": 1043,
      "country_id": 99
    },
    {
      "id": 55629,
      "name": "쿤마다라스",
      "name_default": "Kunmadaras",
      "native": "Kunmadaras",
      "type": "city",
      "level": null,
      "parent_id": null,
      "population": 4851,
      "latitude": "47.43333000",
      "longitude": "20.80000000",
      "timezone": "Europe/Budapest",
      "wikiDataId": "Q1021844",
      "country_code": "HU",
      "state_code": "JN",
      "state_id": 1043,
      "country_id": 99
    },
    {
      "id": 55632,
      "name": "Kunszentmárton",
      "name_default": "Kunszentmárton",
      "native": "Kunszentmárton",
      "type": "adm2",
      "level": null,
      "parent_id": null,
      "population": 9606,
      "latitude": "46.83916000",
      "longitude": "20.28879000",
      "timezone": "Europe/Budapest",
      "wikiDataId": "Q379160",
      "country_code": "HU",
      "state_code": "JN",
      "state_id": 1043,
      "country_id": 99
    },
    {
      "id": 55633,
      "name": "Kunszentmártoni Járás",
      "name_default": "Kunszentmártoni Járás",
      "native": "Kunszentmártoni Járás",
      "type": "adm2",
      "level": null,
      "parent_id": null,
      "population": null,
      "latitude": "46.87698000",
      "longitude": "20.25179000",
      "timezone": "Europe/Budapest",
      "wikiDataId": "Q853199",
      "country_code": "HU",
      "state_code": "JN",
      "state_id": 1043,
      "country_id": 99
    },
    {
      "id": 55699,
      "name": "메조투르",
      "name_default": "Mezőtúr",
      "native": "Mezőtúr",
      "type": "adm2",
      "level": null,
      "parent_id": null,
      "population": 19168,
      "latitude": "47.00000000",
      "longitude": "20.63333000",
      "timezone": "Europe/Budapest",
      "wikiDataId": "Q855052",
      "country_code": "HU",
      "state_code": "JN",
      "state_id": 1043,
      "country_id": 99
    },
    {
      "id": 55700,
      "name": "메조투리 자라스",
      "name_default": "Mezőtúri Járás",
      "native": "Mezőtúri Járás",
      "type": "city",
      "level": null,
      "parent_id": null,
      "population": null,
      "latitude": "47.02495000",
      "longitude": "20.59046000",
      "timezone": "Europe/Budapest",
      "wikiDataId": "Q831151",
      "country_code": "HU",
      "state_code": "JN",
      "state_id": 1043,
      "country_id": 99
    },
    {
      "id": 56156,
      "name": "Öcsöd",
      "name_default": "Öcsöd",
      "native": "Öcsöd",
      "type": "city",
      "level": null,
      "parent_id": null,
      "population": 3019,
      "latitude": "46.90000000",
      "longitude": "20.40000000",
      "timezone": "Europe/Budapest",
      "wikiDataId": "Q427680",
      "country_code": "HU",
      "state_code": "JN",
      "state_id": 1043,
      "country_id": 99
    },
    {
      "id": 55874,
      "name": "라코치팔바",
      "name_default": "Rákóczifalva",
      "native": "Rákóczifalva",
      "type": "city",
      "level": null,
      "parent_id": null,
      "population": 4952,
      "latitude": "47.08333000",
      "longitude": "20.23333000",
      "timezone": "Europe/Budapest",
      "wikiDataId": "Q945191",
      "country_code": "HU",
      "state_code": "JN",
      "state_id": 1043,
      "country_id": 99
    },
    {
      "id": 55875,
      "name": "라코치우이팔루",
      "name_default": "Rákócziújfalu",
      "native": "Rákócziújfalu",
      "type": "city",
      "level": null,
      "parent_id": null,
      "population": 1779,
      "latitude": "47.06667000",
      "longitude": "20.26667000",
      "timezone": "Europe/Budapest",
      "wikiDataId": "Q1185313",
      "country_code": "HU",
      "state_code": "JN",
      "state_id": 1043,
      "country_id": 99
    },
    {
      "id": 55915,
      "name": "샤졸",
      "name_default": "Szajol",
      "native": "Szajol",
      "type": "city",
      "level": null,
      "parent_id": null,
      "population": 3679,
      "latitude": "47.18333000",
      "longitude": "20.30000000",
      "timezone": "Europe/Budapest",
      "wikiDataId": "Q1185433",
      "country_code": "HU",
      "state_code": "JN",
      "state_id": 1043,
      "country_id": 99
    },
    {
      "id": 55932,
      "name": "셀레베니",
      "name_default": "Szelevény",
      "native": "Szelevény",
      "type": "city",
      "level": null,
      "parent_id": null,
      "population": 1137,
      "latitude": "46.80259000",
      "longitude": "20.20283000",
      "timezone": "Europe/Budapest",
      "wikiDataId": "Q668323",
      "country_code": "HU",
      "state_code": "JN",
      "state_id": 1043,
      "country_id": 99
    },
    {
      "id": 55964,
      "name": "솔노크",
      "name_default": "Szolnok",
      "native": "Szolnok",
      "type": "adm1",
      "level": null,
      "parent_id": null,
      "population": 71285,
      "latitude": "47.18333000",
      "longitude": "20.20000000",
      "timezone": "Europe/Budapest",
      "wikiDataId": "Q181276",
      "country_code": "HU",
      "state_code": "JN",
      "state_id": 1043,
      "country_id": 99
    },
    {
      "id": 55965,
      "name": "솔노키 자라스",
      "name_default": "Szolnoki Járás",
      "native": "Szolnoki Járás",
      "type": "city",
      "level": null,
      "parent_id": null,
      "population": null,
      "latitude": "47.22480000",
      "longitude": "20.19839000",
      "timezone": "Europe/Budapest",
      "wikiDataId": "Q831079",
      "country_code": "HU",
      "state_code": "JN",
      "state_id": 1043,
      "country_id": 99
    },
    {
      "id": 56025,
      "name": "티서뵈",
      "name_default": "Tiszabő",
      "native": "Tiszabő",
      "type": "city",
      "level": null,
      "parent_id": null,
      "population": 2239,
      "latitude": "47.30000000",
      "longitude": "20.48333000",
      "timezone": "Europe/Budapest",
      "wikiDataId": "Q634388",
      "country_code": "HU",
      "state_code": "JN",
      "state_id": 1043,
      "country_id": 99
    },
    {
      "id": 56024,
      "name": "티사부라",
      "name_default": "Tiszabura",
      "native": "Tiszabura",
      "type": "city",
      "level": null,
      "parent_id": null,
      "population": 3078,
      "latitude": "47.45000000",
      "longitude": "20.46667000",
      "timezone": "Europe/Budapest",
      "wikiDataId": "Q1185499",
      "country_code": "HU",
      "state_code": "JN",
      "state_id": 1043,
      "country_id": 99
    },
    {
      "id": 56030,
      "name": "티사폴드바르",
      "name_default": "Tiszaföldvár",
      "native": "Tiszaföldvár",
      "type": "city",
      "level": null,
      "parent_id": null,
      "population": 9778,
      "latitude": "46.98333000",
      "longitude": "20.25000000",
      "timezone": "Europe/Budapest",
      "wikiDataId": "Q541550",
      "country_code": "HU",
      "state_code": "JN",
      "state_id": 1043,
      "country_id": 99
    },
    {
      "id": 56031,
      "name": "티사퓌레드",
      "name_default": "Tiszafüred",
      "native": "Tiszafüred",
      "type": "adm2",
      "level": null,
      "parent_id": null,
      "population": 10628,
      "latitude": "47.61667000",
      "longitude": "20.76667000",
      "timezone": "Europe/Budapest",
      "wikiDataId": "Q903177",
      "country_code": "HU",
      "state_code": "JN",
      "state_id": 1043,
      "country_id": 99
    },
    {
      "id": 56032,
      "name": "티사퓌레디 자라스",
      "name_default": "Tiszafüredi Járás",
      "native": "Tiszafüredi Járás",
      "type": "city",
      "level": null,
      "parent_id": null,
      "population": null,
      "latitude": "47.53907000",
      "longitude": "20.78879000",
      "timezone": "Europe/Budapest",
      "wikiDataId": "Q628690",
      "country_code": "HU",
      "state_code": "JN",
      "state_id": 1043,
      "country_id": 99
    },
    {
      "id": 56041,
      "name": "티사퓌스포키",
      "name_default": "Tiszapüspöki",
      "native": "Tiszapüspöki",
      "type": "city",
      "level": null,
      "parent_id": null,
      "population": 1988,
      "latitude": "47.21667000",
      "longitude": "20.31667000",
      "timezone": "Europe/Budapest",
      "wikiDataId": "Q379221",
      "country_code": "HU",
      "state_code": "JN",
      "state_id": 1043,
      "country_id": 99
    },
    {
      "id": 56042,
      "name": "티사로프",
      "name_default": "Tiszaroff",
      "native": "Tiszaroff",
      "type": "city",
      "level": null,
      "parent_id": null,
      "population": 1522,
      "latitude": "47.40000000",
      "longitude": "20.45000000",
      "timezone": "Europe/Budapest",
      "wikiDataId": "Q1185187",
      "country_code": "HU",
      "state_code": "JN",
      "state_id": 1043,
      "country_id": 99
    },
    {
      "id": 56045,
      "name": "티자슐리",
      "name_default": "Tiszasüly",
      "native": "Tiszasüly",
      "type": "city",
      "level": null,
      "parent_id": null,
      "population": 1737,
      "latitude": "47.38333000",
      "longitude": "20.40000000",
      "timezone": "Europe/Budapest",
      "wikiDataId": "Q1047658",
      "country_code": "HU",
      "state_code": "JN",
      "state_id": 1043,
      "country_id": 99
    },
    {
      "id": 56043,
      "name": "티사젠팀레",
      "name_default": "Tiszaszentimre",
      "native": "Tiszaszentimre",
      "type": "city",
      "level": null,
      "parent_id": null,
      "population": 2340,
      "latitude": "47.48333000",
      "longitude": "20.73333000",
      "timezone": "Europe/Budapest",
      "wikiDataId": "Q937701",
      "country_code": "HU",
      "state_code": "JN",
      "state_id": 1043,
      "country_id": 99
    },
    {
      "id": 56044,
      "name": "티사졸로시",
      "name_default": "Tiszaszőlős",
      "native": "Tiszaszőlős",
      "type": "city",
      "level": null,
      "parent_id": null,
      "population": 1946,
      "latitude": "47.55707000",
      "longitude": "20.71949000",
      "timezone": "Europe/Budapest",
      "wikiDataId": "Q937701",
      "country_code": "HU",
      "state_code": "JN",
      "state_id": 1043,
      "country_id": 99
    },
    {
      "id": 56084,
      "name": "토뢰크젠트미클로스",
      "name_default": "Törökszentmiklós",
      "native": "Törökszentmiklós",
      "type": "adm2",
      "level": null,
      "parent_id": null,
      "population": 18963,
      "latitude": "47.18333000",
      "longitude": "20.41667000",
      "timezone": "Europe/Budapest",
      "wikiDataId": "Q840986",
      "country_code": "HU",
      "state_code": "JN",
      "state_id": 1043,
      "country_id": 99
    },
    {
      "id": 56085,
      "name": "Törökszentmiklósi Járás",
      "name_default": "Törökszentmiklósi Járás",
      "native": "Törökszentmiklósi Járás",
      "type": "city",
      "level": null,
      "parent_id": null,
      "population": null,
      "latitude": "47.18209000",
      "longitude": "20.44859000",
      "timezone": "Europe/Budapest",
      "wikiDataId": "Q16629364",
      "country_code": "HU",
      "state_code": "JN",
      "state_id": 1043,
      "country_id": 99
    },
    {
      "id": 56077,
      "name": "토세그",
      "name_default": "Tószeg",
      "native": "Tószeg",
      "type": "city",
      "level": null,
      "parent_id": null,
      "population": 4218,
      "latitude": "47.10000000",
      "longitude": "20.15000000",
      "timezone": "Europe/Budapest",
      "wikiDataId": "Q527690",
      "country_code": "HU",
      "state_code": "JN",
      "state_id": 1043,
      "country_id": 99
    },
    {
      "id": 56086,
      "name": "터키어",
      "name_default": "Túrkeve",
      "native": "Túrkeve",
      "type": "city",
      "level": null,
      "parent_id": null,
      "population": 10016,
      "latitude": "47.10000000",
      "longitude": "20.75000000",
      "timezone": "Europe/Budapest",
      "wikiDataId": "Q645014",
      "country_code": "HU",
      "state_code": "JN",
      "state_id": 1043,
      "country_id": 99
    },
    {
      "id": 56164,
      "name": "우즈사스",
      "name_default": "Újszász",
      "native": "Újszász",
      "type": "city",
      "level": null,
      "parent_id": null,
      "population": 5858,
      "latitude": "47.30000000",
      "longitude": "20.08333000",
      "timezone": "Europe/Budapest",
      "wikiDataId": "Q603565",
      "country_code": "HU",
      "state_code": "JN",
      "state_id": 1043,
      "country_id": 99
    },
    {
      "id": 56118,
      "name": "자기바레카스",
      "name_default": "Zagyvarékas",
      "native": "Zagyvarékas",
      "type": "city",
      "level": null,
      "parent_id": null,
      "population": 3554,
      "latitude": "47.26667000",
      "longitude": "20.13333000",
      "timezone": "Europe/Budapest",
      "wikiDataId": "Q631531",
      "country_code": "HU",
      "state_code": "JN",
      "state_id": 1043,
      "country_id": 99
    }
  ]
}
