{
  "locale": "hi",
  "country": {
    "id": 31,
    "code": "BR",
    "iso3": "BRA",
    "numeric_code": "076",
    "name": "ब्राज़िल",
    "name_default": "Brazil",
    "native": "Brasil",
    "capital": "Brasilia",
    "phonecode": "55",
    "currency": "BRL",
    "currency_name": "Brazilian real",
    "currency_symbol": "R$",
    "tld": ".br",
    "population": 213421037,
    "gdp": 2125958,
    "region": "Americas",
    "region_id": 2,
    "subregion": "South America",
    "subregion_id": 8,
    "nationality": "Brazilian",
    "timezones": [
      {
        "zoneName": "America/Araguaina",
        "gmtOffset": -10800,
        "gmtOffsetName": "UTC-03:00",
        "abbreviation": "BRT",
        "tzName": "Brasília Time"
      },
      {
        "zoneName": "America/Bahia",
        "gmtOffset": -10800,
        "gmtOffsetName": "UTC-03:00",
        "abbreviation": "BRT",
        "tzName": "Brasília Time"
      },
      {
        "zoneName": "America/Belem",
        "gmtOffset": -10800,
        "gmtOffsetName": "UTC-03:00",
        "abbreviation": "BRT",
        "tzName": "Brasília Time"
      },
      {
        "zoneName": "America/Boa_Vista",
        "gmtOffset": -14400,
        "gmtOffsetName": "UTC-04:00",
        "abbreviation": "AMT",
        "tzName": "Amazon Time (Brazil)[3"
      },
      {
        "zoneName": "America/Campo_Grande",
        "gmtOffset": -14400,
        "gmtOffsetName": "UTC-04:00",
        "abbreviation": "AMT",
        "tzName": "Amazon Time (Brazil)[3"
      },
      {
        "zoneName": "America/Cuiaba",
        "gmtOffset": -14400,
        "gmtOffsetName": "UTC-04:00",
        "abbreviation": "BRT",
        "tzName": "Brasilia Time"
      },
      {
        "zoneName": "America/Eirunepe",
        "gmtOffset": -18000,
        "gmtOffsetName": "UTC-05:00",
        "abbreviation": "ACT",
        "tzName": "Acre Time"
      },
      {
        "zoneName": "America/Fortaleza",
        "gmtOffset": -10800,
        "gmtOffsetName": "UTC-03:00",
        "abbreviation": "BRT",
        "tzName": "Brasília Time"
      },
      {
        "zoneName": "America/Maceio",
        "gmtOffset": -10800,
        "gmtOffsetName": "UTC-03:00",
        "abbreviation": "BRT",
        "tzName": "Brasília Time"
      },
      {
        "zoneName": "America/Manaus",
        "gmtOffset": -14400,
        "gmtOffsetName": "UTC-04:00",
        "abbreviation": "AMT",
        "tzName": "Amazon Time (Brazil)"
      },
      {
        "zoneName": "America/Noronha",
        "gmtOffset": -7200,
        "gmtOffsetName": "UTC-02:00",
        "abbreviation": "FNT",
        "tzName": "Fernando de Noronha Time"
      },
      {
        "zoneName": "America/Porto_Velho",
        "gmtOffset": -14400,
        "gmtOffsetName": "UTC-04:00",
        "abbreviation": "AMT",
        "tzName": "Amazon Time (Brazil)[3"
      },
      {
        "zoneName": "America/Recife",
        "gmtOffset": -10800,
        "gmtOffsetName": "UTC-03:00",
        "abbreviation": "BRT",
        "tzName": "Brasília Time"
      },
      {
        "zoneName": "America/Rio_Branco",
        "gmtOffset": -18000,
        "gmtOffsetName": "UTC-05:00",
        "abbreviation": "ACT",
        "tzName": "Acre Time"
      },
      {
        "zoneName": "America/Santarem",
        "gmtOffset": -10800,
        "gmtOffsetName": "UTC-03:00",
        "abbreviation": "BRT",
        "tzName": "Brasília Time"
      },
      {
        "zoneName": "America/Sao_Paulo",
        "gmtOffset": -10800,
        "gmtOffsetName": "UTC-03:00",
        "abbreviation": "BRT",
        "tzName": "Brasília Time"
      }
    ],
    "latitude": "-10.00000000",
    "longitude": "-55.00000000",
    "emoji": "🇧🇷",
    "emojiU": "U+1F1E7 U+1F1F7"
  },
  "state": {
    "id": 2015,
    "code": "MA",
    "iso2": "MA",
    "iso3166_2": "BR-MA",
    "fips_code": "13",
    "name": "मरनहाओ",
    "name_default": "Maranhão",
    "native": "Maranhão",
    "type": "state",
    "level": "1",
    "parent_id": null,
    "population": 6776699,
    "latitude": "-5.20855030",
    "longitude": "-45.39302620",
    "timezone": "America/Fortaleza",
    "wikiDataId": "Q42362",
    "country_code": "BR"
  },
  "cities": [
    {
      "id": 10463,
      "name": "अकेलैंडिया",
      "name_default": "Açailândia",
      "native": "Açailândia",
      "type": "city",
      "level": null,
      "parent_id": null,
      "population": 110611,
      "latitude": "-4.69214000",
      "longitude": "-47.34302000",
      "timezone": "America/Sao_Paulo",
      "wikiDataId": "Q1763534",
      "country_code": "BR",
      "state_code": "MA",
      "state_id": 2015,
      "country_id": 31
    },
    {
      "id": 10088,
      "name": "अफोंसो कुन्हा",
      "name_default": "Afonso Cunha",
      "native": "Afonso Cunha",
      "type": "city",
      "level": null,
      "parent_id": null,
      "population": 6303,
      "latitude": "-4.21479000",
      "longitude": "-43.29743000",
      "timezone": "America/Sao_Paulo",
      "wikiDataId": "Q1793672",
      "country_code": "BR",
      "state_code": "MA",
      "state_id": 2015,
      "country_id": 31
    },
    {
      "id": 15657,
      "name": "Água Doce do Maranhão",
      "name_default": "Água Doce do Maranhão",
      "native": "Água Doce do Maranhão",
      "type": "city",
      "level": null,
      "parent_id": null,
      "population": 12461,
      "latitude": "-2.91251000",
      "longitude": "-42.14125000",
      "timezone": "America/Fortaleza",
      "wikiDataId": "Q1796727",
      "country_code": "BR",
      "state_code": "MA",
      "state_id": 2015,
      "country_id": 31
    },
    {
      "id": 10119,
      "name": "Alcantara",
      "name_default": "Alcântara",
      "native": "Alcântara",
      "type": "city",
      "level": null,
      "parent_id": null,
      "population": 18721,
      "latitude": "-2.32768000",
      "longitude": "-44.50617000",
      "timezone": "America/Sao_Paulo",
      "wikiDataId": "Q939522",
      "country_code": "BR",
      "state_code": "MA",
      "state_id": 2015,
      "country_id": 31
    },
    {
      "id": 10121,
      "name": "अल्देइयास अल्तास",
      "name_default": "Aldeias Altas",
      "native": "Aldeias Altas",
      "type": "city",
      "level": null,
      "parent_id": null,
      "population": 23776,
      "latitude": "-4.58522000",
      "longitude": "-43.46277000",
      "timezone": "America/Fortaleza",
      "wikiDataId": "Q939522",
      "country_code": "BR",
      "state_code": "MA",
      "state_id": 2015,
      "country_id": 31
    },
    {
      "id": 10154,
      "name": "अल्टामिरा डो मारान्हो",
      "name_default": "Altamira do Maranhão",
      "native": "Altamira do Maranhão",
      "type": "city",
      "level": null,
      "parent_id": null,
      "population": 6549,
      "latitude": "-4.14072000",
      "longitude": "-45.46154000",
      "timezone": "America/Fortaleza",
      "wikiDataId": "Q2013259",
      "country_code": "BR",
      "state_code": "MA",
      "state_id": 2015,
      "country_id": 31
    },
    {
      "id": 10162,
      "name": "ऑल्टो एलेग्रे डो मारान्हो",
      "name_default": "Alto Alegre do Maranhão",
      "native": "Alto Alegre do Maranhão",
      "type": "city",
      "level": null,
      "parent_id": null,
      "population": 24528,
      "latitude": "-4.20288000",
      "longitude": "-44.41966000",
      "timezone": "America/Sao_Paulo",
      "wikiDataId": "Q373783",
      "country_code": "BR",
      "state_code": "MA",
      "state_id": 2015,
      "country_id": 31
    },
    {
      "id": 10163,
      "name": "ऑल्टो एलेग्रे डो पिंडारे",
      "name_default": "Alto Alegre do Pindaré",
      "native": "Alto Alegre do Pindaré",
      "type": "city",
      "level": null,
      "parent_id": null,
      "population": 26321,
      "latitude": "-3.83592000",
      "longitude": "-46.03871000",
      "timezone": "America/Sao_Paulo",
      "wikiDataId": "Q373783",
      "country_code": "BR",
      "state_code": "MA",
      "state_id": 2015,
      "country_id": 31
    },
    {
      "id": 10179,
      "name": "ऑल्टो पर्नाइबा",
      "name_default": "Alto Parnaíba",
      "native": "Alto Parnaíba",
      "type": "city",
      "level": null,
      "parent_id": null,
      "population": 11392,
      "latitude": "-9.53480000",
      "longitude": "-46.13899000",
      "timezone": "America/Sao_Paulo",
      "wikiDataId": "Q22060523",
      "country_code": "BR",
      "state_code": "MA",
      "state_id": 2015,
      "country_id": 31
    },
    {
      "id": 10205,
      "name": "अमापा डो मारान्हो",
      "name_default": "Amapá do Maranhão",
      "native": "Amapá do Maranhão",
      "type": "city",
      "level": null,
      "parent_id": null,
      "population": 7380,
      "latitude": "-1.69470000",
      "longitude": "-45.92994000",
      "timezone": "America/Sao_Paulo",
      "wikiDataId": "Q2013296",
      "country_code": "BR",
      "state_code": "MA",
      "state_id": 2015,
      "country_id": 31
    },
    {
      "id": 10210,
      "name": "अमरांटे डो मारान्हो",
      "name_default": "Amarante do Maranhão",
      "native": "Amarante do Maranhão",
      "type": "city",
      "level": null,
      "parent_id": null,
      "population": 38335,
      "latitude": "-5.56939000",
      "longitude": "-46.64105000",
      "timezone": "America/Sao_Paulo",
      "wikiDataId": "Q947834",
      "country_code": "BR",
      "state_code": "MA",
      "state_id": 2015,
      "country_id": 31
    },
    {
      "id": 10230,
      "name": "अनाजातुबा",
      "name_default": "Anajatuba",
      "native": "Ele está falando",
      "type": "city",
      "level": null,
      "parent_id": null,
      "population": 26250,
      "latitude": "-3.27409000",
      "longitude": "-44.53278000",
      "timezone": "America/Sao_Paulo",
      "wikiDataId": "Q2013314",
      "country_code": "BR",
      "state_code": "MA",
      "state_id": 2015,
      "country_id": 31
    },
    {
      "id": 10237,
      "name": "अनापुरस",
      "name_default": "Anapurus",
      "native": "Anapurus",
      "type": "city",
      "level": null,
      "parent_id": null,
      "population": 14113,
      "latitude": "-3.56073000",
      "longitude": "-43.04307000",
      "timezone": "America/Sao_Paulo",
      "wikiDataId": "Q486142",
      "country_code": "BR",
      "state_code": "MA",
      "state_id": 2015,
      "country_id": 31
    },
    {
      "id": 10295,
      "name": "एपिकम-अकु",
      "name_default": "Apicum-Açu",
      "native": "Apicum-Açu",
      "type": "adm2",
      "level": null,
      "parent_id": null,
      "population": 18033,
      "latitude": "-1.48035000",
      "longitude": "-45.08540000",
      "timezone": "America/Fortaleza",
      "wikiDataId": "Q2013356",
      "country_code": "BR",
      "state_code": "MA",
      "state_id": 2015,
      "country_id": 31
    },
    {
      "id": 10321,
      "name": "अरागुआना",
      "name_default": "Araguanã",
      "native": "Araguanã",
      "type": "city",
      "level": null,
      "parent_id": null,
      "population": 4300,
      "latitude": "-3.04178000",
      "longitude": "-45.75874000",
      "timezone": "America/Sao_Paulo",
      "wikiDataId": "Q2209464",
      "country_code": "BR",
      "state_code": "MA",
      "state_id": 2015,
      "country_id": 31
    },
    {
      "id": 10328,
      "name": "अराइओसेस",
      "name_default": "Araioses",
      "native": "Araioses",
      "type": "city",
      "level": null,
      "parent_id": null,
      "population": 40231,
      "latitude": "-2.89792000",
      "longitude": "-42.02298000",
      "timezone": "America/Sao_Paulo",
      "wikiDataId": "Q2041199",
      "country_code": "BR",
      "state_code": "MA",
      "state_id": 2015,
      "country_id": 31
    },
    {
      "id": 10332,
      "name": "अरामे",
      "name_default": "Arame",
      "native": "Arame",
      "type": "adm2",
      "level": null,
      "parent_id": null,
      "population": 26089,
      "latitude": "-5.03155000",
      "longitude": "-45.86324000",
      "timezone": "America/Sao_Paulo",
      "wikiDataId": "Q2036277",
      "country_code": "BR",
      "state_code": "MA",
      "state_id": 2015,
      "country_id": 31
    },
    {
      "id": 10352,
      "name": "अरारी",
      "name_default": "Arari",
      "native": "Arari",
      "type": "city",
      "level": null,
      "parent_id": null,
      "population": 30555,
      "latitude": "-3.45361000",
      "longitude": "-44.78000000",
      "timezone": "America/Fortaleza",
      "wikiDataId": "Q1813008",
      "country_code": "BR",
      "state_code": "MA",
      "state_id": 2015,
      "country_id": 31
    },
    {
      "id": 10440,
      "name": "एटिन्स",
      "name_default": "Atins",
      "native": "Alcançado",
      "type": "city",
      "level": null,
      "parent_id": null,
      "population": 2000,
      "latitude": "-2.57017000",
      "longitude": "-42.74229000",
      "timezone": "America/Fortaleza",
      "wikiDataId": "Q22074324",
      "country_code": "BR",
      "state_code": "MA",
      "state_id": 2015,
      "country_id": 31
    },
    {
      "id": 10461,
      "name": "एक्सिक्सा",
      "name_default": "Axixá",
      "native": "Axixá",
      "type": "city",
      "level": null,
      "parent_id": null,
      "population": 12091,
      "latitude": "-2.84586000",
      "longitude": "-44.10516000",
      "timezone": "America/Sao_Paulo",
      "wikiDataId": "Q630926",
      "country_code": "BR",
      "state_code": "MA",
      "state_id": 2015,
      "country_id": 31
    },
    {
      "id": 10467,
      "name": "बाकाबल",
      "name_default": "Bacabal",
      "native": "Bacabal",
      "type": "city",
      "level": null,
      "parent_id": null,
      "population": 103711,
      "latitude": "-4.29167000",
      "longitude": "-44.79167000",
      "timezone": "America/Fortaleza",
      "wikiDataId": "Q1807313",
      "country_code": "BR",
      "state_code": "MA",
      "state_id": 2015,
      "country_id": 31
    },
    {
      "id": 10468,
      "name": "बाकाबेरा",
      "name_default": "Bacabeira",
      "native": "Bacabeira",
      "type": "city",
      "level": null,
      "parent_id": null,
      "population": 17459,
      "latitude": "-2.86866000",
      "longitude": "-44.34505000",
      "timezone": "America/Sao_Paulo",
      "wikiDataId": "Q1807313",
      "country_code": "BR",
      "state_code": "MA",
      "state_id": 2015,
      "country_id": 31
    },
    {
      "id": 10469,
      "name": "बाकुरी",
      "name_default": "Bacuri",
      "native": "Bacuri",
      "type": "city",
      "level": null,
      "parent_id": null,
      "population": 16591,
      "latitude": "-1.65142000",
      "longitude": "-45.21995000",
      "timezone": "America/Sao_Paulo",
      "wikiDataId": "Q1807313",
      "country_code": "BR",
      "state_code": "MA",
      "state_id": 2015,
      "country_id": 31
    },
    {
      "id": 10470,
      "name": "बाकुरिटुबा",
      "name_default": "Bacurituba",
      "native": "Bacurituba",
      "type": "city",
      "level": null,
      "parent_id": null,
      "population": 5375,
      "latitude": "-2.64645000",
      "longitude": "-44.65477000",
      "timezone": "America/Sao_Paulo",
      "wikiDataId": "Q1807313",
      "country_code": "BR",
      "state_code": "MA",
      "state_id": 2015,
      "country_id": 31
    },
    {
      "id": 10492,
      "name": "बाल्सा",
      "name_default": "Balsas",
      "native": "Voz",
      "type": "city",
      "level": null,
      "parent_id": null,
      "population": 105974,
      "latitude": "-7.53250000",
      "longitude": "-46.03556000",
      "timezone": "America/Fortaleza",
      "wikiDataId": "Q1813001",
      "country_code": "BR",
      "state_code": "MA",
      "state_id": 2015,
      "country_id": 31
    },
    {
      "id": 10574,
      "name": "बाराओ डे ग्राजाउ",
      "name_default": "Barão de Grajaú",
      "native": "Barão de Grajaú",
      "type": "city",
      "level": null,
      "parent_id": null,
      "population": 19493,
      "latitude": "-6.62978000",
      "longitude": "-43.20317000",
      "timezone": "America/Sao_Paulo",
      "wikiDataId": "Q770910",
      "country_code": "BR",
      "state_code": "MA",
      "state_id": 2015,
      "country_id": 31
    },
    {
      "id": 10534,
      "name": "बारा डो कॉर्डा",
      "name_default": "Barra do Corda",
      "native": "Barra do Corda",
      "type": "city",
      "level": null,
      "parent_id": null,
      "population": 87757,
      "latitude": "-5.50556000",
      "longitude": "-45.24333000",
      "timezone": "America/Fortaleza",
      "wikiDataId": "Q1807301",
      "country_code": "BR",
      "state_code": "MA",
      "state_id": 2015,
      "country_id": 31
    },
    {
      "id": 10554,
      "name": "बैरेरिन्हास",
      "name_default": "Barreirinhas",
      "native": "Barreirinhas",
      "type": "city",
      "level": null,
      "parent_id": null,
      "population": 68234,
      "latitude": "-2.75136000",
      "longitude": "-42.83432000",
      "timezone": "America/Fortaleza",
      "wikiDataId": "Q2040600",
      "country_code": "BR",
      "state_code": "MA",
      "state_id": 2015,
      "country_id": 31
    },
    {
      "id": 10598,
      "name": "बेला विस्टा डो मारान्हो",
      "name_default": "Bela Vista do Maranhão",
      "native": "Bela Vista do Maranhão",
      "type": "city",
      "level": null,
      "parent_id": null,
      "population": 12104,
      "latitude": "-3.79140000",
      "longitude": "-45.29546000",
      "timezone": "America/Sao_Paulo",
      "wikiDataId": "Q815101",
      "country_code": "BR",
      "state_code": "MA",
      "state_id": 2015,
      "country_id": 31
    },
    {
      "id": 10613,
      "name": "बेलागुआ",
      "name_default": "Belágua",
      "native": "Belágua",
      "type": "city",
      "level": null,
      "parent_id": null,
      "population": 8751,
      "latitude": "-3.08799000",
      "longitude": "-43.45673000",
      "timezone": "America/Sao_Paulo",
      "wikiDataId": "Q609824",
      "country_code": "BR",
      "state_code": "MA",
      "state_id": 2015,
      "country_id": 31
    },
    {
      "id": 10623,
      "name": "बेनेडिटो लेइट",
      "name_default": "Benedito Leite",
      "native": "Benedito Leite",
      "type": "city",
      "level": null,
      "parent_id": null,
      "population": 5599,
      "latitude": "-7.10697000",
      "longitude": "-44.58763000",
      "timezone": "America/Sao_Paulo",
      "wikiDataId": "Q1981008",
      "country_code": "BR",
      "state_code": "MA",
      "state_id": 2015,
      "country_id": 31
    },
    {
      "id": 10631,
      "name": "बेक्विमाओ",
      "name_default": "Bequimão",
      "native": "Bequimão",
      "type": "city",
      "level": null,
      "parent_id": null,
      "population": 19968,
      "latitude": "-2.44889000",
      "longitude": "-44.78250000",
      "timezone": "America/Fortaleza",
      "wikiDataId": "Q2068952",
      "country_code": "BR",
      "state_code": "MA",
      "state_id": 2015,
      "country_id": 31
    },
    {
      "id": 10637,
      "name": "बर्नार्डो डो मेअरिम",
      "name_default": "Bernardo do Mearim",
      "native": "Bernardo do Mearim",
      "type": "city",
      "level": null,
      "parent_id": null,
      "population": 5989,
      "latitude": "-4.67175000",
      "longitude": "-44.64279000",
      "timezone": "America/Sao_Paulo",
      "wikiDataId": "Q920204",
      "country_code": "BR",
      "state_code": "MA",
      "state_id": 2015,
      "country_id": 31
    },
    {
      "id": 10672,
      "name": "बोआ विस्टा डो गुरुपी",
      "name_default": "Boa Vista do Gurupi",
      "native": "Boa Vista do Gurupi",
      "type": "city",
      "level": null,
      "parent_id": null,
      "population": 7781,
      "latitude": "-1.73082000",
      "longitude": "-46.19635000",
      "timezone": "America/Sao_Paulo",
      "wikiDataId": "Q2007792",
      "country_code": "BR",
      "state_code": "MA",
      "state_id": 2015,
      "country_id": 31
    },
    {
      "id": 10693,
      "name": "बॉम जार्डिम",
      "name_default": "Bom Jardim",
      "native": "Bom Jardim",
      "type": "city",
      "level": null,
      "parent_id": null,
      "population": 33936,
      "latitude": "-3.77409000",
      "longitude": "-46.21707000",
      "timezone": "America/Sao_Paulo",
      "wikiDataId": "Q2279959",
      "country_code": "BR",
      "state_code": "MA",
      "state_id": 2015,
      "country_id": 31
    },
    {
      "id": 10706,
      "name": "Bom Jesus das Selvas",
      "name_default": "Bom Jesus das Selvas",
      "native": "Bom Jesus das Selvas",
      "type": "city",
      "level": null,
      "parent_id": null,
      "population": 29606,
      "latitude": "-4.51333000",
      "longitude": "-46.60686000",
      "timezone": "America/Sao_Paulo",
      "wikiDataId": "Q891727",
      "country_code": "BR",
      "state_code": "MA",
      "state_id": 2015,
      "country_id": 31
    },
    {
      "id": 10718,
      "name": "बॉम लुगर",
      "name_default": "Bom Lugar",
      "native": "Bom Lugar",
      "type": "city",
      "level": null,
      "parent_id": null,
      "population": 12371,
      "latitude": "-4.34667000",
      "longitude": "-45.02098000",
      "timezone": "America/Fortaleza",
      "wikiDataId": "Q1760959",
      "country_code": "BR",
      "state_code": "MA",
      "state_id": 2015,
      "country_id": 31
    },
    {
      "id": 10788,
      "name": "ब्रेजो",
      "name_default": "Brejo",
      "native": "Brejo",
      "type": "city",
      "level": null,
      "parent_id": null,
      "population": 34120,
      "latitude": "-3.68444000",
      "longitude": "-42.75028000",
      "timezone": "America/Fortaleza",
      "wikiDataId": "Q659888",
      "country_code": "BR",
      "state_code": "MA",
      "state_id": 2015,
      "country_id": 31
    },
    {
      "id": 10794,
      "name": "ब्रेजो डे एरिया",
      "name_default": "Brejo de Areia",
      "native": "Brejo de Areia",
      "type": "city",
      "level": null,
      "parent_id": null,
      "population": 9363,
      "latitude": "-4.32450000",
      "longitude": "-45.53970000",
      "timezone": "America/Sao_Paulo",
      "wikiDataId": "Q2068871",
      "country_code": "BR",
      "state_code": "MA",
      "state_id": 2015,
      "country_id": 31
    },
    {
      "id": 10823,
      "name": "बुरीटी",
      "name_default": "Buriti",
      "native": "Buriti",
      "type": "city",
      "level": null,
      "parent_id": null,
      "population": 30866,
      "latitude": "-3.94799000",
      "longitude": "-42.85810000",
      "timezone": "America/Sao_Paulo",
      "wikiDataId": "Q2135872",
      "country_code": "BR",
      "state_code": "MA",
      "state_id": 2015,
      "country_id": 31
    },
    {
      "id": 10825,
      "name": "बुरीटी ब्रावो",
      "name_default": "Buriti Bravo",
      "native": "Buriti Bravo",
      "type": "city",
      "level": null,
      "parent_id": null,
      "population": 22938,
      "latitude": "-5.83722000",
      "longitude": "-43.83361000",
      "timezone": "America/Fortaleza",
      "wikiDataId": "Q2013234",
      "country_code": "BR",
      "state_code": "MA",
      "state_id": 2015,
      "country_id": 31
    },
    {
      "id": 10830,
      "name": "बुरीटिकुपु",
      "name_default": "Buriticupu",
      "native": "Buriticupu",
      "type": "city",
      "level": null,
      "parent_id": null,
      "population": 56733,
      "latitude": "-4.51967000",
      "longitude": "-46.37712000",
      "timezone": "America/Sao_Paulo",
      "wikiDataId": "Q2064004",
      "country_code": "BR",
      "state_code": "MA",
      "state_id": 2015,
      "country_id": 31
    },
    {
      "id": 10833,
      "name": "बुरीतिराना",
      "name_default": "Buritirana",
      "native": "Buritirana",
      "type": "adm2",
      "level": null,
      "parent_id": null,
      "population": 13125,
      "latitude": "-5.59248000",
      "longitude": "-46.99721000",
      "timezone": "America/Sao_Paulo",
      "wikiDataId": "Q2013324",
      "country_code": "BR",
      "state_code": "MA",
      "state_id": 2015,
      "country_id": 31
    },
    {
      "id": 10865,
      "name": "कचोइरा ग्रांडे",
      "name_default": "Cachoeira Grande",
      "native": "Cachoeira Grande",
      "type": "adm2",
      "level": null,
      "parent_id": null,
      "population": 10032,
      "latitude": "-3.12007000",
      "longitude": "-43.93132000",
      "timezone": "America/Sao_Paulo",
      "wikiDataId": "Q22062738",
      "country_code": "BR",
      "state_code": "MA",
      "state_id": 2015,
      "country_id": 31
    },
    {
      "id": 10912,
      "name": "काजापियो",
      "name_default": "Cajapió",
      "native": "Caixa",
      "type": "city",
      "level": null,
      "parent_id": null,
      "population": 10336,
      "latitude": "-2.86374000",
      "longitude": "-44.57287000",
      "timezone": "America/Sao_Paulo",
      "wikiDataId": "Q934637",
      "country_code": "BR",
      "state_code": "MA",
      "state_id": 2015,
      "country_id": 31
    },
    {
      "id": 10913,
      "name": "कजारी",
      "name_default": "Cajari",
      "native": "Cajari",
      "type": "city",
      "level": null,
      "parent_id": null,
      "population": 16680,
      "latitude": "-3.38514000",
      "longitude": "-45.02197000",
      "timezone": "America/Fortaleza",
      "wikiDataId": "Q934637",
      "country_code": "BR",
      "state_code": "MA",
      "state_id": 2015,
      "country_id": 31
    },
    {
      "id": 10961,
      "name": "कैम्पेस्ट्रे डो मारान्हो",
      "name_default": "Campestre do Maranhão",
      "native": "Campestre do Maranhão",
      "type": "city",
      "level": null,
      "parent_id": null,
      "population": 12536,
      "latitude": "-6.15156000",
      "longitude": "-47.23427000",
      "timezone": "America/Sao_Paulo",
      "wikiDataId": "Q22062719",
      "country_code": "BR",
      "state_code": "MA",
      "state_id": 2015,
      "country_id": 31
    },
    {
      "id": 11546,
      "name": "कैंडिडो मेंडेस",
      "name_default": "Cândido Mendes",
      "native": "Cândido Mendes",
      "type": "city",
      "level": null,
      "parent_id": null,
      "population": 20440,
      "latitude": "-1.44667000",
      "longitude": "-45.71667000",
      "timezone": "America/Fortaleza",
      "wikiDataId": "Q2068838",
      "country_code": "BR",
      "state_code": "MA",
      "state_id": 2015,
      "country_id": 31
    },
    {
      "id": 11055,
      "name": "कैंटनहेड",
      "name_default": "Cantanhede",
      "native": "Cantanhede",
      "type": "city",
      "level": null,
      "parent_id": null,
      "population": 25059,
      "latitude": "-3.63333000",
      "longitude": "-44.37667000",
      "timezone": "America/Fortaleza",
      "wikiDataId": "Q2103724",
      "country_code": "BR",
      "state_code": "MA",
      "state_id": 2015,
      "country_id": 31
    },
    {
      "id": 11077,
      "name": "कैपिनज़ल डो नॉर्टे",
      "name_default": "Capinzal do Norte",
      "native": "Capinzal do Norte",
      "type": "city",
      "level": null,
      "parent_id": null,
      "population": 11681,
      "latitude": "-4.74767000",
      "longitude": "-44.25167000",
      "timezone": "America/Sao_Paulo",
      "wikiDataId": "Q780452",
      "country_code": "BR",
      "state_code": "MA",
      "state_id": 2015,
      "country_id": 31
    },
    {
      "id": 11161,
      "name": "कैरोलिना",
      "name_default": "Carolina",
      "native": "Carolina",
      "type": "city",
      "level": null,
      "parent_id": null,
      "population": 24619,
      "latitude": "-7.33561000",
      "longitude": "-47.46218000",
      "timezone": "America/Fortaleza",
      "wikiDataId": "Q651807",
      "country_code": "BR",
      "state_code": "MA",
      "state_id": 2015,
      "country_id": 31
    },
    {
      "id": 11167,
      "name": "कारुतापेरा",
      "name_default": "Carutapera",
      "native": "Carutapera",
      "type": "city",
      "level": null,
      "parent_id": null,
      "population": 24906,
      "latitude": "-1.18025000",
      "longitude": "-45.95966000",
      "timezone": "America/Fortaleza",
      "wikiDataId": "Q2016480",
      "country_code": "BR",
      "state_code": "MA",
      "state_id": 2015,
      "country_id": 31
    },
    {
      "id": 11218,
      "name": "कैक्ज़ियस",
      "name_default": "Caxias",
      "native": "Caxias",
      "type": "city",
      "level": null,
      "parent_id": null,
      "population": 163546,
      "latitude": "-4.85889000",
      "longitude": "-43.35611000",
      "timezone": "America/Fortaleza",
      "wikiDataId": "Q997107",
      "country_code": "BR",
      "state_code": "MA",
      "state_id": 2015,
      "country_id": 31
    },
    {
      "id": 11228,
      "name": "सेड्रल",
      "name_default": "Cedral",
      "native": "Cedral",
      "type": "city",
      "level": null,
      "parent_id": null,
      "population": 12618,
      "latitude": "-1.96086000",
      "longitude": "-44.57424000",
      "timezone": "America/Fortaleza",
      "wikiDataId": "Q1759622",
      "country_code": "BR",
      "state_code": "MA",
      "state_id": 2015,
      "country_id": 31
    },
    {
      "id": 11240,
      "name": "सेंट्रल डो मारान्हो",
      "name_default": "Central do Maranhão",
      "native": "Central do Maranhão",
      "type": "city",
      "level": null,
      "parent_id": null,
      "population": 7220,
      "latitude": "-2.25521000",
      "longitude": "-44.84104000",
      "timezone": "America/Fortaleza",
      "wikiDataId": "Q2021433",
      "country_code": "BR",
      "state_code": "MA",
      "state_id": 2015,
      "country_id": 31
    },
    {
      "id": 11243,
      "name": "सेंट्रो डो गिलहर्मे",
      "name_default": "Centro do Guilherme",
      "native": "Centro do Guilherme",
      "type": "city",
      "level": null,
      "parent_id": null,
      "population": 12693,
      "latitude": "-2.28072000",
      "longitude": "-46.07349000",
      "timezone": "America/Sao_Paulo",
      "wikiDataId": "Q1792154",
      "country_code": "BR",
      "state_code": "MA",
      "state_id": 2015,
      "country_id": 31
    },
    {
      "id": 11242,
      "name": "सेंट्रो नोवो डो मारान्हो",
      "name_default": "Centro Novo do Maranhão",
      "native": "Centro Novo do Maranhão",
      "type": "city",
      "level": null,
      "parent_id": null,
      "population": 16477,
      "latitude": "-3.31669000",
      "longitude": "-46.79364000",
      "timezone": "America/Sao_Paulo",
      "wikiDataId": "Q1792154",
      "country_code": "BR",
      "state_code": "MA",
      "state_id": 2015,
      "country_id": 31
    },
    {
      "id": 11265,
      "name": "चैपाडिन्हा",
      "name_default": "Chapadinha",
      "native": "Chapadinha",
      "type": "city",
      "level": null,
      "parent_id": null,
      "population": 81386,
      "latitude": "-3.74167000",
      "longitude": "-43.36028000",
      "timezone": "America/Fortaleza",
      "wikiDataId": "Q746060",
      "country_code": "BR",
      "state_code": "MA",
      "state_id": 2015,
      "country_id": 31
    },
    {
      "id": 11292,
      "name": "सिडेलांडिया",
      "name_default": "Cidelândia",
      "native": "Cidelândia",
      "type": "city",
      "level": null,
      "parent_id": null,
      "population": 13141,
      "latitude": "-5.05234000",
      "longitude": "-47.86857000",
      "timezone": "America/Sao_Paulo",
      "wikiDataId": "Q1803580",
      "country_code": "BR",
      "state_code": "MA",
      "state_id": 2015,
      "country_id": 31
    },
    {
      "id": 11314,
      "name": "कोडो",
      "name_default": "Codó",
      "native": "Codó",
      "type": "city",
      "level": null,
      "parent_id": null,
      "population": 114275,
      "latitude": "-4.45528000",
      "longitude": "-43.88556000",
      "timezone": "America/Fortaleza",
      "wikiDataId": "Q2013225",
      "country_code": "BR",
      "state_code": "MA",
      "state_id": 2015,
      "country_id": 31
    },
    {
      "id": 11315,
      "name": "कोएलो नेटो",
      "name_default": "Coelho Neto",
      "native": "Coelho Neto",
      "type": "city",
      "level": null,
      "parent_id": null,
      "population": 41658,
      "latitude": "-4.25667000",
      "longitude": "-43.01278000",
      "timezone": "America/Fortaleza",
      "wikiDataId": "Q2019296",
      "country_code": "BR",
      "state_code": "MA",
      "state_id": 2015,
      "country_id": 31
    },
    {
      "id": 11322,
      "name": "कोलिनास",
      "name_default": "Colinas",
      "native": "Colinas",
      "type": "city",
      "level": null,
      "parent_id": null,
      "population": 40316,
      "latitude": "-6.02583000",
      "longitude": "-44.24917000",
      "timezone": "America/Fortaleza",
      "wikiDataId": "Q369679",
      "country_code": "BR",
      "state_code": "MA",
      "state_id": 2015,
      "country_id": 31
    },
    {
      "id": 11359,
      "name": "Conceição do Lago-Açu",
      "name_default": "Conceição do Lago-Açu",
      "native": "Conceição do Lago-Açu",
      "type": "city",
      "level": null,
      "parent_id": null,
      "population": 15278,
      "latitude": "-3.73591000",
      "longitude": "-44.79669000",
      "timezone": "America/Sao_Paulo",
      "wikiDataId": "Q988781",
      "country_code": "BR",
      "state_code": "MA",
      "state_id": 2015,
      "country_id": 31
    },
    {
      "id": 11413,
      "name": "कोरोआटा",
      "name_default": "Coroatá",
      "native": "Coroatá",
      "type": "city",
      "level": null,
      "parent_id": null,
      "population": 61351,
      "latitude": "-4.13000000",
      "longitude": "-44.12417000",
      "timezone": "America/Fortaleza",
      "wikiDataId": "Q967552",
      "country_code": "BR",
      "state_code": "MA",
      "state_id": 2015,
      "country_id": 31
    },
    {
      "id": 11535,
      "name": "कुरुरुपु",
      "name_default": "Cururupu",
      "native": "Cururupu",
      "type": "city",
      "level": null,
      "parent_id": null,
      "population": 32602,
      "latitude": "-1.82833000",
      "longitude": "-44.86833000",
      "timezone": "America/Fortaleza",
      "wikiDataId": "Q1886395",
      "country_code": "BR",
      "state_code": "MA",
      "state_id": 2015,
      "country_id": 31
    },
    {
      "id": 11565,
      "name": "डेविनोपोलिस",
      "name_default": "Davinópolis",
      "native": "Davinópolis",
      "type": "city",
      "level": null,
      "parent_id": null,
      "population": 14828,
      "latitude": "-5.57008000",
      "longitude": "-47.30640000",
      "timezone": "America/Sao_Paulo",
      "wikiDataId": "Q663661",
      "country_code": "BR",
      "state_code": "MA",
      "state_id": 2015,
      "country_id": 31
    },
    {
      "id": 11633,
      "name": "डोम पेड्रो",
      "name_default": "Dom Pedro",
      "native": "Dom Pedro",
      "type": "city",
      "level": null,
      "parent_id": null,
      "population": 23594,
      "latitude": "-5.03749000",
      "longitude": "-44.43857000",
      "timezone": "America/Fortaleza",
      "wikiDataId": "Q1823871",
      "country_code": "BR",
      "state_code": "MA",
      "state_id": 2015,
      "country_id": 31
    },
    {
      "id": 11668,
      "name": "ड्यूक बेसेलर",
      "name_default": "Duque Bacelar",
      "native": "Duque Bacelar",
      "type": "city",
      "level": null,
      "parent_id": null,
      "population": 10443,
      "latitude": "-4.11143000",
      "longitude": "-43.03176000",
      "timezone": "America/Sao_Paulo",
      "wikiDataId": "Q270048",
      "country_code": "BR",
      "state_code": "MA",
      "state_id": 2015,
      "country_id": 31
    },
    {
      "id": 11730,
      "name": "एस्पेरांतिनोपोलिस",
      "name_default": "Esperantinópolis",
      "native": "Esperantinópolis",
      "type": "city",
      "level": null,
      "parent_id": null,
      "population": 18734,
      "latitude": "-4.86667000",
      "longitude": "-44.70833000",
      "timezone": "America/Sao_Paulo",
      "wikiDataId": "Q2013171",
      "country_code": "BR",
      "state_code": "MA",
      "state_id": 2015,
      "country_id": 31
    },
    {
      "id": 11747,
      "name": "एस्ट्रेटो",
      "name_default": "Estreito",
      "native": "Estreito",
      "type": "city",
      "level": null,
      "parent_id": null,
      "population": 17647,
      "latitude": "-5.78333000",
      "longitude": "-43.25000000",
      "timezone": "America/Fortaleza",
      "wikiDataId": "Q22025015",
      "country_code": "BR",
      "state_code": "MA",
      "state_id": 2015,
      "country_id": 31
    },
    {
      "id": 11792,
      "name": "Feira Nova do Maranhão",
      "name_default": "Feira Nova do Maranhão",
      "native": "Feira Nova do Maranhão",
      "type": "city",
      "level": null,
      "parent_id": null,
      "population": 8237,
      "latitude": "-6.99561000",
      "longitude": "-46.64999000",
      "timezone": "America/Sao_Paulo",
      "wikiDataId": "Q1869240",
      "country_code": "BR",
      "state_code": "MA",
      "state_id": 2015,
      "country_id": 31
    },
    {
      "id": 11804,
      "name": "फर्नांडो फाल्काओ",
      "name_default": "Fernando Falcão",
      "native": "Fernando Falcão",
      "type": "city",
      "level": null,
      "parent_id": null,
      "population": 11219,
      "latitude": "-6.35293000",
      "longitude": "-45.32810000",
      "timezone": "America/Sao_Paulo",
      "wikiDataId": "Q194343",
      "country_code": "BR",
      "state_code": "MA",
      "state_id": 2015,
      "country_id": 31
    },
    {
      "id": 11853,
      "name": "फॉर्मोसा दा सेरा नेग्रा",
      "name_default": "Formosa da Serra Negra",
      "native": "Formosa da Serra Negra",
      "type": "city",
      "level": null,
      "parent_id": null,
      "population": 18150,
      "latitude": "-6.69535000",
      "longitude": "-46.19540000",
      "timezone": "America/Sao_Paulo",
      "wikiDataId": "Q1003392",
      "country_code": "BR",
      "state_code": "MA",
      "state_id": 2015,
      "country_id": 31
    },
    {
      "id": 11866,
      "name": "फोर्टालेज़ा डॉस नोग्वेरास",
      "name_default": "Fortaleza dos Nogueiras",
      "native": "Fortaleza dos Nogueiras",
      "type": "city",
      "level": null,
      "parent_id": null,
      "population": 12963,
      "latitude": "-6.86722000",
      "longitude": "-46.02100000",
      "timezone": "America/Sao_Paulo",
      "wikiDataId": "Q43463",
      "country_code": "BR",
      "state_code": "MA",
      "state_id": 2015,
      "country_id": 31
    },
    {
      "id": 11869,
      "name": "फ़ोर्टुना",
      "name_default": "Fortuna",
      "native": "Fortuna",
      "type": "city",
      "level": null,
      "parent_id": null,
      "population": 16976,
      "latitude": "-5.73333000",
      "longitude": "-44.15833000",
      "timezone": "America/Fortaleza",
      "wikiDataId": "Q2034097",
      "country_code": "BR",
      "state_code": "MA",
      "state_id": 2015,
      "country_id": 31
    },
    {
      "id": 11954,
      "name": "गोडोफ्रेडो वियाना",
      "name_default": "Godofredo Viana",
      "native": "Godofredo Viana",
      "type": "city",
      "level": null,
      "parent_id": null,
      "population": 10424,
      "latitude": "-1.27605000",
      "longitude": "-45.76550000",
      "timezone": "America/Sao_Paulo",
      "wikiDataId": "Q1804101",
      "country_code": "BR",
      "state_code": "MA",
      "state_id": 2015,
      "country_id": 31
    },
    {
      "id": 11975,
      "name": "गोन्साल्वेस डायस",
      "name_default": "Gonçalves Dias",
      "native": "Gonçalves Dias",
      "type": "adm2",
      "level": null,
      "parent_id": null,
      "population": 0,
      "latitude": "-5.15671000",
      "longitude": "-44.28658000",
      "timezone": "America/Fortaleza",
      "wikiDataId": "Q14629944",
      "country_code": "BR",
      "state_code": "MA",
      "state_id": 2015,
      "country_id": 31
    },
    {
      "id": 11978,
      "name": "गवर्नर आर्चर",
      "name_default": "Governador Archer",
      "native": "Governador Archer",
      "type": "city",
      "level": null,
      "parent_id": null,
      "population": 10476,
      "latitude": "-4.98399000",
      "longitude": "-44.20513000",
      "timezone": "America/Sao_Paulo",
      "wikiDataId": "Q22066972",
      "country_code": "BR",
      "state_code": "MA",
      "state_id": 2015,
      "country_id": 31
    },
    {
      "id": 11982,
      "name": "गवर्नर एडिसन लोबाओ",
      "name_default": "Governador Edison Lobão",
      "native": "Governador Edison Lobão",
      "type": "city",
      "level": null,
      "parent_id": null,
      "population": 18963,
      "latitude": "-5.74311000",
      "longitude": "-47.32545000",
      "timezone": "America/Sao_Paulo",
      "wikiDataId": "Q1787040",
      "country_code": "BR",
      "state_code": "MA",
      "state_id": 2015,
      "country_id": 31
    },
    {
      "id": 11983,
      "name": "गवर्नर यूजेनियो बारोस",
      "name_default": "Governador Eugênio Barros",
      "native": "Governador Eugênio Barros",
      "type": "city",
      "level": null,
      "parent_id": null,
      "population": 14264,
      "latitude": "-5.42581000",
      "longitude": "-43.88031000",
      "timezone": "America/Sao_Paulo",
      "wikiDataId": "Q1787040",
      "country_code": "BR",
      "state_code": "MA",
      "state_id": 2015,
      "country_id": 31
    },
    {
      "id": 11986,
      "name": "गवर्नर लुईज़ रोचा",
      "name_default": "Governador Luiz Rocha",
      "native": "Governador Luiz Rocha",
      "type": "city",
      "level": null,
      "parent_id": null,
      "population": 7216,
      "latitude": "-5.52826000",
      "longitude": "-44.11154000",
      "timezone": "America/Sao_Paulo",
      "wikiDataId": "Q1985082",
      "country_code": "BR",
      "state_code": "MA",
      "state_id": 2015,
      "country_id": 31
    },
    {
      "id": 11988,
      "name": "गवर्नर न्यूटन बेलो",
      "name_default": "Governador Newton Bello",
      "native": "Governador Newton Bello",
      "type": "city",
      "level": null,
      "parent_id": null,
      "population": 10993,
      "latitude": "-3.36796000",
      "longitude": "-45.65707000",
      "timezone": "America/Fortaleza",
      "wikiDataId": "Q1985082",
      "country_code": "BR",
      "state_code": "MA",
      "state_id": 2015,
      "country_id": 31
    },
    {
      "id": 11989,
      "name": "गवर्नर नून्स फ़्रेयर",
      "name_default": "Governador Nunes Freire",
      "native": "Governador Nunes Freire",
      "type": "city",
      "level": null,
      "parent_id": null,
      "population": 23526,
      "latitude": "-2.00992000",
      "longitude": "-45.84278000",
      "timezone": "America/Sao_Paulo",
      "wikiDataId": "Q1985082",
      "country_code": "BR",
      "state_code": "MA",
      "state_id": 2015,
      "country_id": 31
    },
    {
      "id": 12004,
      "name": "ग्राका अरन्हा",
      "name_default": "Graça Aranha",
      "native": "Graça Aranha",
      "type": "city",
      "level": null,
      "parent_id": null,
      "population": 6160,
      "latitude": "-5.44492000",
      "longitude": "-44.25169000",
      "timezone": "America/Sao_Paulo",
      "wikiDataId": "Q2082297",
      "country_code": "BR",
      "state_code": "MA",
      "state_id": 2015,
      "country_id": 31
    },
    {
      "id": 11992,
      "name": "ग्राजाउ",
      "name_default": "Grajaú",
      "native": "Grajaú",
      "type": "city",
      "level": null,
      "parent_id": null,
      "population": 73872,
      "latitude": "-5.81944000",
      "longitude": "-46.13861000",
      "timezone": "America/Fortaleza",
      "wikiDataId": "Q2043418",
      "country_code": "BR",
      "state_code": "MA",
      "state_id": 2015,
      "country_id": 31
    },
    {
      "id": 12082,
      "name": "गुइमारेस",
      "name_default": "Guimarães",
      "native": "Guimarães",
      "type": "city",
      "level": null,
      "parent_id": null,
      "population": 10439,
      "latitude": "-2.11990000",
      "longitude": "-44.63479000",
      "timezone": "America/Fortaleza",
      "wikiDataId": "Q2101408",
      "country_code": "BR",
      "state_code": "MA",
      "state_id": 2015,
      "country_id": 31
    },
    {
      "id": 12112,
      "name": "हम्बर्टो डी कैम्पोस",
      "name_default": "Humberto de Campos",
      "native": "Humberto de Campos",
      "type": "city",
      "level": null,
      "parent_id": null,
      "population": 26550,
      "latitude": "-2.59833000",
      "longitude": "-43.46111000",
      "timezone": "America/Fortaleza",
      "wikiDataId": "Q1814500",
      "country_code": "BR",
      "state_code": "MA",
      "state_id": 2015,
      "country_id": 31
    },
    {
      "id": 12170,
      "name": "इकातु",
      "name_default": "Icatu",
      "native": "Icatu",
      "type": "city",
      "level": null,
      "parent_id": null,
      "population": 25332,
      "latitude": "-2.77583000",
      "longitude": "-44.06583000",
      "timezone": "America/Fortaleza",
      "wikiDataId": "Q2068290",
      "country_code": "BR",
      "state_code": "MA",
      "state_id": 2015,
      "country_id": 31
    },
    {
      "id": 12185,
      "name": "इगारापे डो मेयो",
      "name_default": "Igarapé do Meio",
      "native": "Igarapé do Meio",
      "type": "city",
      "level": null,
      "parent_id": null,
      "population": 14383,
      "latitude": "-3.72514000",
      "longitude": "-45.10975000",
      "timezone": "America/Sao_Paulo",
      "wikiDataId": "Q22020894",
      "country_code": "BR",
      "state_code": "MA",
      "state_id": 2015,
      "country_id": 31
    },
    {
      "id": 12183,
      "name": "इगारापे ग्रांडे",
      "name_default": "Igarapé Grande",
      "native": "Igarapé Grande",
      "type": "city",
      "level": null,
      "parent_id": null,
      "population": 10461,
      "latitude": "-4.64974000",
      "longitude": "-44.83905000",
      "timezone": "America/Fortaleza",
      "wikiDataId": "Q22020893",
      "country_code": "BR",
      "state_code": "MA",
      "state_id": 2015,
      "country_id": 31
    },
    {
      "id": 12226,
      "name": "इम्पेराट्रिज़",
      "name_default": "Imperatriz",
      "native": "Imperatriz",
      "type": "city",
      "level": null,
      "parent_id": null,
      "population": 218106,
      "latitude": "-5.52639000",
      "longitude": "-47.49167000",
      "timezone": "America/Fortaleza",
      "wikiDataId": "Q504755",
      "country_code": "BR",
      "state_code": "MA",
      "state_id": 2015,
      "country_id": 31
    },
    {
      "id": 12359,
      "name": "इटाइपावा डो ग्राजाउ",
      "name_default": "Itaipava do Grajaú",
      "native": "Itaipava do Grajaú",
      "type": "adm2",
      "level": null,
      "parent_id": null,
      "population": 0,
      "latitude": "-5.22087000",
      "longitude": "-45.78512000",
      "timezone": "America/Fortaleza",
      "wikiDataId": "Q662237",
      "country_code": "BR",
      "state_code": "MA",
      "state_id": 2015,
      "country_id": 31
    },
    {
      "id": 12406,
      "name": "इटापेकुरु मिरिम",
      "name_default": "Itapecuru Mirim",
      "native": "Itapecuru Mirim",
      "type": "city",
      "level": null,
      "parent_id": null,
      "population": 62264,
      "latitude": "-3.39250000",
      "longitude": "-44.35861000",
      "timezone": "America/Fortaleza",
      "wikiDataId": "Q2012733",
      "country_code": "BR",
      "state_code": "MA",
      "state_id": 2015,
      "country_id": 31
    },
    {
      "id": 12474,
      "name": "इटिंगा डो मारान्हो",
      "name_default": "Itinga do Maranhão",
      "native": "Itinga do Maranhão",
      "type": "city",
      "level": null,
      "parent_id": null,
      "population": 22896,
      "latitude": "-4.52832000",
      "longitude": "-47.48859000",
      "timezone": "America/Sao_Paulo",
      "wikiDataId": "Q934924",
      "country_code": "BR",
      "state_code": "MA",
      "state_id": 2015,
      "country_id": 31
    },
    {
      "id": 12603,
      "name": "जटोबा",
      "name_default": "Jatobá",
      "native": "Jatobá",
      "type": "city",
      "level": null,
      "parent_id": null,
      "population": 14020,
      "latitude": "-5.86233000",
      "longitude": "-44.26917000",
      "timezone": "America/Sao_Paulo",
      "wikiDataId": "Q2472554",
      "country_code": "BR",
      "state_code": "MA",
      "state_id": 2015,
      "country_id": 31
    },
    {
      "id": 12613,
      "name": "जेनिपापो डॉस विएरास",
      "name_default": "Jenipapo dos Vieiras",
      "native": "Jenipapo dos Vieiras",
      "type": "city",
      "level": null,
      "parent_id": null,
      "population": 17529,
      "latitude": "-5.50699000",
      "longitude": "-45.54241000",
      "timezone": "America/Sao_Paulo",
      "wikiDataId": "Q1759235",
      "country_code": "BR",
      "state_code": "MA",
      "state_id": 2015,
      "country_id": 31
    },
    {
      "id": 12662,
      "name": "जोआओ लिस्बोआ",
      "name_default": "João Lisboa",
      "native": "João Lisboa",
      "type": "city",
      "level": null,
      "parent_id": null,
      "population": 25311,
      "latitude": "-5.22723000",
      "longitude": "-47.18260000",
      "timezone": "America/Sao_Paulo",
      "wikiDataId": "Q507247",
      "country_code": "BR",
      "state_code": "MA",
      "state_id": 2015,
      "country_id": 31
    },
    {
      "id": 12648,
      "name": "जोसेलैंडिया",
      "name_default": "Joselândia",
      "native": "Joselândia",
      "type": "city",
      "level": null,
      "parent_id": null,
      "population": 15227,
      "latitude": "-5.00747000",
      "longitude": "-44.73158000",
      "timezone": "America/Sao_Paulo",
      "wikiDataId": "Q1800793",
      "country_code": "BR",
      "state_code": "MA",
      "state_id": 2015,
      "country_id": 31
    },
    {
      "id": 12682,
      "name": "जुन्को डो मारान्हो",
      "name_default": "Junco do Maranhão",
      "native": "Junco do Maranhão",
      "type": "city",
      "level": null,
      "parent_id": null,
      "population": 5282,
      "latitude": "-1.94176000",
      "longitude": "-46.11711000",
      "timezone": "America/Fortaleza",
      "wikiDataId": "Q193019",
      "country_code": "BR",
      "state_code": "MA",
      "state_id": 2015,
      "country_id": 31
    },
    {
      "id": 12729,
      "name": "लागो दा पेड्रा",
      "name_default": "Lago da Pedra",
      "native": "Lago da Pedra",
      "type": "city",
      "level": null,
      "parent_id": null,
      "population": 30845,
      "latitude": "-4.28674000",
      "longitude": "-45.23824000",
      "timezone": "America/Fortaleza",
      "wikiDataId": "Q22021608",
      "country_code": "BR",
      "state_code": "MA",
      "state_id": 2015,
      "country_id": 31
    },
    {
      "id": 12730,
      "name": "लागो डो जुन्को",
      "name_default": "Lago do Junco",
      "native": "Lago do Junco",
      "type": "city",
      "level": null,
      "parent_id": null,
      "population": 9687,
      "latitude": "-4.47033000",
      "longitude": "-44.91005000",
      "timezone": "America/Sao_Paulo",
      "wikiDataId": "Q927111",
      "country_code": "BR",
      "state_code": "MA",
      "state_id": 2015,
      "country_id": 31
    },
    {
      "id": 12731,
      "name": "लागो डॉस रोड्रिग्स",
      "name_default": "Lago dos Rodrigues",
      "native": "Lago dos Rodrigues",
      "type": "adm2",
      "level": null,
      "parent_id": null,
      "population": 0,
      "latitude": "-4.61099000",
      "longitude": "-44.97837000",
      "timezone": "America/Fortaleza",
      "wikiDataId": "Q305180",
      "country_code": "BR",
      "state_code": "MA",
      "state_id": 2015,
      "country_id": 31
    },
    {
      "id": 12728,
      "name": "लागो वर्डे",
      "name_default": "Lago Verde",
      "native": "Lago verde",
      "type": "city",
      "level": null,
      "parent_id": null,
      "population": 15069,
      "latitude": "-3.99073000",
      "longitude": "-44.88312000",
      "timezone": "America/Sao_Paulo",
      "wikiDataId": "Q2105837",
      "country_code": "BR",
      "state_code": "MA",
      "state_id": 2015,
      "country_id": 31
    },
    {
      "id": 12760,
      "name": "लागोआ डो माटो",
      "name_default": "Lagoa do Mato",
      "native": "Lagoa do Mato",
      "type": "city",
      "level": null,
      "parent_id": null,
      "population": 0,
      "latitude": "-5.95535000",
      "longitude": "-43.63105000",
      "timezone": "America/Sao_Paulo",
      "wikiDataId": "Q1887813",
      "country_code": "BR",
      "state_code": "MA",
      "state_id": 2015,
      "country_id": 31
    },
    {
      "id": 12740,
      "name": "लागोआ ग्रांडे डो मारान्हो",
      "name_default": "Lagoa Grande do Maranhão",
      "native": "Lagoa Grande do Maranhão",
      "type": "city",
      "level": null,
      "parent_id": null,
      "population": 11731,
      "latitude": "-4.93168000",
      "longitude": "-45.34950000",
      "timezone": "America/Sao_Paulo",
      "wikiDataId": "Q22062425",
      "country_code": "BR",
      "state_code": "MA",
      "state_id": 2015,
      "country_id": 31
    },
    {
      "id": 12778,
      "name": "लाजेडो नोवो",
      "name_default": "Lajeado Novo",
      "native": "Lajeado Novo",
      "type": "city",
      "level": null,
      "parent_id": null,
      "population": 7232,
      "latitude": "-6.10634000",
      "longitude": "-46.90224000",
      "timezone": "America/Sao_Paulo",
      "wikiDataId": "Q1012550",
      "country_code": "BR",
      "state_code": "MA",
      "state_id": 2015,
      "country_id": 31
    },
    {
      "id": 12827,
      "name": "लीमा कैम्पोस",
      "name_default": "Lima Campos",
      "native": "Lima Campos",
      "type": "city",
      "level": null,
      "parent_id": null,
      "population": 11559,
      "latitude": "-4.55295000",
      "longitude": "-44.47986000",
      "timezone": "America/Fortaleza",
      "wikiDataId": "Q22062417",
      "country_code": "BR",
      "state_code": "MA",
      "state_id": 2015,
      "country_id": 31
    },
    {
      "id": 12853,
      "name": "लोरेटो",
      "name_default": "Loreto",
      "native": "Loreto",
      "type": "city",
      "level": null,
      "parent_id": null,
      "population": 11884,
      "latitude": "-7.11921000",
      "longitude": "-45.23138000",
      "timezone": "America/Sao_Paulo",
      "wikiDataId": "Q1948966",
      "country_code": "BR",
      "state_code": "MA",
      "state_id": 2015,
      "country_id": 31
    },
    {
      "id": 12880,
      "name": "लुइस डोमिन्गेस",
      "name_default": "Luís Domingues",
      "native": "Luís Domingues",
      "type": "city",
      "level": null,
      "parent_id": null,
      "population": 7366,
      "latitude": "-1.26964000",
      "longitude": "-45.83792000",
      "timezone": "America/Fortaleza",
      "wikiDataId": "Q2064046",
      "country_code": "BR",
      "state_code": "MA",
      "state_id": 2015,
      "country_id": 31
    },
    {
      "id": 12912,
      "name": "मैगलहेस डी अल्मेडा",
      "name_default": "Magalhães de Almeida",
      "native": "Magalhães de Almeida",
      "type": "city",
      "level": null,
      "parent_id": null,
      "population": 13933,
      "latitude": "-3.32329000",
      "longitude": "-42.12855000",
      "timezone": "America/Sao_Paulo",
      "wikiDataId": "Q2008546",
      "country_code": "BR",
      "state_code": "MA",
      "state_id": 2015,
      "country_id": 31
    },
    {
      "id": 12970,
      "name": "माराकाकुमे",
      "name_default": "Maracaçumé",
      "native": "Maracaçumé",
      "type": "city",
      "level": null,
      "parent_id": null,
      "population": 21730,
      "latitude": "-2.04278000",
      "longitude": "-45.95917000",
      "timezone": "America/Fortaleza",
      "wikiDataId": "Q2064676",
      "country_code": "BR",
      "state_code": "MA",
      "state_id": 2015,
      "country_id": 31
    },
    {
      "id": 12976,
      "name": "माराजा डो सेना",
      "name_default": "Marajá do Sena",
      "native": "Marajá do Sena",
      "type": "city",
      "level": null,
      "parent_id": null,
      "population": 7153,
      "latitude": "-4.70009000",
      "longitude": "-45.63144000",
      "timezone": "America/Sao_Paulo",
      "wikiDataId": "Q2011013",
      "country_code": "BR",
      "state_code": "MA",
      "state_id": 2015,
      "country_id": 31
    },
    {
      "id": 12978,
      "name": "मारान्हाओज़िन्हो",
      "name_default": "Maranhãozinho",
      "native": "Maranhãozinho",
      "type": "city",
      "level": null,
      "parent_id": null,
      "population": 14092,
      "latitude": "-2.45247000",
      "longitude": "-45.98846000",
      "timezone": "America/Sao_Paulo",
      "wikiDataId": "Q1795232",
      "country_code": "BR",
      "state_code": "MA",
      "state_id": 2015,
      "country_id": 31
    },
    {
      "id": 13047,
      "name": "माता रोमा",
      "name_default": "Mata Roma",
      "native": "Olhos de Roma",
      "type": "city",
      "level": null,
      "parent_id": null,
      "population": 17581,
      "latitude": "-3.58219000",
      "longitude": "-43.23178000",
      "timezone": "America/Sao_Paulo",
      "wikiDataId": "Q2027641",
      "country_code": "BR",
      "state_code": "MA",
      "state_id": 2015,
      "country_id": 31
    },
    {
      "id": 13060,
      "name": "मतिन्हा",
      "name_default": "Matinha",
      "native": "Matinha",
      "type": "city",
      "level": null,
      "parent_id": null,
      "population": 22540,
      "latitude": "-3.10056000",
      "longitude": "-45.03361000",
      "timezone": "America/Fortaleza",
      "wikiDataId": "Q1116758",
      "country_code": "BR",
      "state_code": "MA",
      "state_id": 2015,
      "country_id": 31
    },
    {
      "id": 13078,
      "name": "माटोएस",
      "name_default": "Matões",
      "native": "Matões",
      "type": "city",
      "level": null,
      "parent_id": null,
      "population": 33327,
      "latitude": "-5.41542000",
      "longitude": "-43.40049000",
      "timezone": "America/Sao_Paulo",
      "wikiDataId": "Q1649629",
      "country_code": "BR",
      "state_code": "MA",
      "state_id": 2015,
      "country_id": 31
    },
    {
      "id": 13079,
      "name": "Matões do Norte",
      "name_default": "Matões do Norte",
      "native": "Matões do Norte",
      "type": "city",
      "level": null,
      "parent_id": null,
      "population": 18021,
      "latitude": "-3.77876000",
      "longitude": "-44.40753000",
      "timezone": "America/Sao_Paulo",
      "wikiDataId": "Q1649629",
      "country_code": "BR",
      "state_code": "MA",
      "state_id": 2015,
      "country_id": 31
    },
    {
      "id": 13116,
      "name": "मिलग्रेस डो मारान्हो",
      "name_default": "Milagres do Maranhão",
      "native": "Milagres do Maranhão",
      "type": "city",
      "level": null,
      "parent_id": null,
      "population": 9065,
      "latitude": "-3.50554000",
      "longitude": "-42.86468000",
      "timezone": "America/Sao_Paulo",
      "wikiDataId": "Q2092809",
      "country_code": "BR",
      "state_code": "MA",
      "state_id": 2015,
      "country_id": 31
    },
    {
      "id": 13134,
      "name": "मिराडोर",
      "name_default": "Mirador",
      "native": "Mirador",
      "type": "city",
      "level": null,
      "parent_id": null,
      "population": 21536,
      "latitude": "-6.47266000",
      "longitude": "-45.11312000",
      "timezone": "America/Sao_Paulo",
      "wikiDataId": "Q2089741",
      "country_code": "BR",
      "state_code": "MA",
      "state_id": 2015,
      "country_id": 31
    },
    {
      "id": 13139,
      "name": "मिरांडा डो नॉर्टे",
      "name_default": "Miranda do Norte",
      "native": "Miranda do Norte",
      "type": "city",
      "level": null,
      "parent_id": null,
      "population": null,
      "latitude": "-3.53142000",
      "longitude": "-44.52685000",
      "timezone": "America/Sao_Paulo",
      "wikiDataId": "Q519471",
      "country_code": "BR",
      "state_code": "MA",
      "state_id": 2015,
      "country_id": 31
    },
    {
      "id": 13156,
      "name": "मिरिन्ज़ाल",
      "name_default": "Mirinzal",
      "native": "Mirinzal",
      "type": "city",
      "level": null,
      "parent_id": null,
      "population": 14298,
      "latitude": "-2.04774000",
      "longitude": "-44.77403000",
      "timezone": "America/Fortaleza",
      "wikiDataId": "Q1790116",
      "country_code": "BR",
      "state_code": "MA",
      "state_id": 2015,
      "country_id": 31
    },
    {
      "id": 13225,
      "name": "मोनसाओ",
      "name_default": "Monção",
      "native": "Monção",
      "type": "city",
      "level": null,
      "parent_id": null,
      "population": 28563,
      "latitude": "-3.53292000",
      "longitude": "-45.30690000",
      "timezone": "America/Sao_Paulo",
      "wikiDataId": "Q2103583",
      "country_code": "BR",
      "state_code": "MA",
      "state_id": 2015,
      "country_id": 31
    },
    {
      "id": 13219,
      "name": "मोंटेस अल्टोस",
      "name_default": "Montes Altos",
      "native": "Montes altos",
      "type": "city",
      "level": null,
      "parent_id": null,
      "population": 9306,
      "latitude": "-5.83333000",
      "longitude": "-47.06667000",
      "timezone": "America/Fortaleza",
      "wikiDataId": "Q2012463",
      "country_code": "BR",
      "state_code": "MA",
      "state_id": 2015,
      "country_id": 31
    },
    {
      "id": 13251,
      "name": "मोरोस",
      "name_default": "Morros",
      "native": "Morros",
      "type": "city",
      "level": null,
      "parent_id": null,
      "population": 19015,
      "latitude": "-2.96159000",
      "longitude": "-43.87725000",
      "timezone": "America/Sao_Paulo",
      "wikiDataId": "Q301700",
      "country_code": "BR",
      "state_code": "MA",
      "state_id": 2015,
      "country_id": 31
    },
    {
      "id": 13326,
      "name": "नीना रोड्रिग्स",
      "name_default": "Nina Rodrigues",
      "native": "Nina Rodrigues",
      "type": "city",
      "level": null,
      "parent_id": null,
      "population": 14589,
      "latitude": "-3.46375000",
      "longitude": "-43.77165000",
      "timezone": "America/Sao_Paulo",
      "wikiDataId": "Q2020346",
      "country_code": "BR",
      "state_code": "MA",
      "state_id": 2015,
      "country_id": 31
    },
    {
      "id": 13369,
      "name": "नोवा कोलिनास",
      "name_default": "Nova Colinas",
      "native": "Nova Colinas",
      "type": "city",
      "level": null,
      "parent_id": null,
      "population": 5148,
      "latitude": "-7.26656000",
      "longitude": "-46.29184000",
      "timezone": "America/Sao_Paulo",
      "wikiDataId": "Q734270",
      "country_code": "BR",
      "state_code": "MA",
      "state_id": 2015,
      "country_id": 31
    },
    {
      "id": 13392,
      "name": "नोवा इओर्क",
      "name_default": "Nova Iorque",
      "native": "Nova Iorque",
      "type": "city",
      "level": null,
      "parent_id": null,
      "population": 4409,
      "latitude": "-6.74961000",
      "longitude": "-44.03977000",
      "timezone": "America/Fortaleza",
      "wikiDataId": "Q188897",
      "country_code": "BR",
      "state_code": "MA",
      "state_id": 2015,
      "country_id": 31
    },
    {
      "id": 13412,
      "name": "नोवा ओलिंडा डो मारान्हो",
      "name_default": "Nova Olinda do Maranhão",
      "native": "Nova Olinda do Maranhão",
      "type": "city",
      "level": null,
      "parent_id": null,
      "population": 14379,
      "latitude": "-2.84498000",
      "longitude": "-45.92010000",
      "timezone": "America/Sao_Paulo",
      "wikiDataId": "Q1913711",
      "country_code": "BR",
      "state_code": "MA",
      "state_id": 2015,
      "country_id": 31
    },
    {
      "id": 13496,
      "name": "Olho d'Água das Cunhãs",
      "name_default": "Olho d'Água das Cunhãs",
      "native": "Olho d'Água das Cunhãs",
      "type": "city",
      "level": null,
      "parent_id": null,
      "population": 18288,
      "latitude": "-4.02629000",
      "longitude": "-45.04831000",
      "timezone": "America/Sao_Paulo",
      "wikiDataId": "Q2077934",
      "country_code": "BR",
      "state_code": "MA",
      "state_id": 2015,
      "country_id": 31
    },
    {
      "id": 13503,
      "name": "ओलिंडा नोवा डो मारान्हो",
      "name_default": "Olinda Nova do Maranhão",
      "native": "Olinda Nova do Maranhão",
      "type": "city",
      "level": null,
      "parent_id": null,
      "population": 13921,
      "latitude": "-2.99757000",
      "longitude": "-44.96574000",
      "timezone": "America/Sao_Paulo",
      "wikiDataId": "Q28301",
      "country_code": "BR",
      "state_code": "MA",
      "state_id": 2015,
      "country_id": 31
    },
    {
      "id": 13742,
      "name": "पाको डो लुमियार",
      "name_default": "Paço do Lumiar",
      "native": "Paço do Lumiar",
      "type": "city",
      "level": null,
      "parent_id": null,
      "population": 153158,
      "latitude": "-2.48019000",
      "longitude": "-44.11054000",
      "timezone": "America/Fortaleza",
      "wikiDataId": "Q40706",
      "country_code": "BR",
      "state_code": "MA",
      "state_id": 2015,
      "country_id": 31
    },
    {
      "id": 13601,
      "name": "पाल्मेरांडिया",
      "name_default": "Palmeirândia",
      "native": "Palmeirândia",
      "type": "city",
      "level": null,
      "parent_id": null,
      "population": 21657,
      "latitude": "-2.65916000",
      "longitude": "-45.06713000",
      "timezone": "America/Sao_Paulo",
      "wikiDataId": "Q1801156",
      "country_code": "BR",
      "state_code": "MA",
      "state_id": 2015,
      "country_id": 31
    },
    {
      "id": 13629,
      "name": "पैराइबानो",
      "name_default": "Paraibano",
      "native": "Paraibano",
      "type": "city",
      "level": null,
      "parent_id": null,
      "population": 18589,
      "latitude": "-6.40952000",
      "longitude": "-43.84714000",
      "timezone": "America/Sao_Paulo",
      "wikiDataId": "Q2261140",
      "country_code": "BR",
      "state_code": "MA",
      "state_id": 2015,
      "country_id": 31
    },
    {
      "id": 13681,
      "name": "परनाराम",
      "name_default": "Parnarama",
      "native": "Parnarama",
      "type": "city",
      "level": null,
      "parent_id": null,
      "population": 32232,
      "latitude": "-5.52914000",
      "longitude": "-43.60353000",
      "timezone": "America/Sao_Paulo",
      "wikiDataId": "Q2013043",
      "country_code": "BR",
      "state_code": "MA",
      "state_id": 2015,
      "country_id": 31
    },
    {
      "id": 13693,
      "name": "पैसेजम फ़्रैंका",
      "name_default": "Passagem Franca",
      "native": "Passagem Franca",
      "type": "city",
      "level": null,
      "parent_id": null,
      "population": 17591,
      "latitude": "-6.10747000",
      "longitude": "-43.75355000",
      "timezone": "America/Sao_Paulo",
      "wikiDataId": "Q2043365",
      "country_code": "BR",
      "state_code": "MA",
      "state_id": 2015,
      "country_id": 31
    },
    {
      "id": 13702,
      "name": "पास्टोस बोन्स",
      "name_default": "Pastos Bons",
      "native": "Pastos Bons",
      "type": "city",
      "level": null,
      "parent_id": null,
      "population": 19266,
      "latitude": "-6.76600000",
      "longitude": "-44.24234000",
      "timezone": "America/Sao_Paulo",
      "wikiDataId": "Q2066090",
      "country_code": "BR",
      "state_code": "MA",
      "state_id": 2015,
      "country_id": 31
    },
    {
      "id": 13724,
      "name": "पॉलिनो नेवेस",
      "name_default": "Paulino Neves",
      "native": "Paulino Neves",
      "type": "city",
      "level": null,
      "parent_id": null,
      "population": 17578,
      "latitude": "-2.88588000",
      "longitude": "-42.58808000",
      "timezone": "America/Sao_Paulo",
      "wikiDataId": "Q1793494",
      "country_code": "BR",
      "state_code": "MA",
      "state_id": 2015,
      "country_id": 31
    },
    {
      "id": 13736,
      "name": "पाउलो रामोस",
      "name_default": "Paulo Ramos",
      "native": "Paulo Ramos",
      "type": "city",
      "level": null,
      "parent_id": null,
      "population": 20798,
      "latitude": "-4.44876000",
      "longitude": "-45.23758000",
      "timezone": "America/Fortaleza",
      "wikiDataId": "Q2064653",
      "country_code": "BR",
      "state_code": "MA",
      "state_id": 2015,
      "country_id": 31
    },
    {
      "id": 13768,
      "name": "पेड्रेइरास",
      "name_default": "Pedreiras",
      "native": "Pedreiras",
      "type": "city",
      "level": null,
      "parent_id": null,
      "population": 38252,
      "latitude": "-4.58272000",
      "longitude": "-44.59924000",
      "timezone": "America/Fortaleza",
      "wikiDataId": "Q1957216",
      "country_code": "BR",
      "state_code": "MA",
      "state_id": 2015,
      "country_id": 31
    },
    {
      "id": 13785,
      "name": "पेड्रो डो रोसारियो",
      "name_default": "Pedro do Rosário",
      "native": "Pedro do Rosário",
      "type": "city",
      "level": null,
      "parent_id": null,
      "population": 24955,
      "latitude": "-2.97390000",
      "longitude": "-45.45250000",
      "timezone": "America/Sao_Paulo",
      "wikiDataId": "Q1786891",
      "country_code": "BR",
      "state_code": "MA",
      "state_id": 2015,
      "country_id": 31
    },
    {
      "id": 13793,
      "name": "पेनाल्वा",
      "name_default": "Penalva",
      "native": "Penalva",
      "type": "city",
      "level": null,
      "parent_id": null,
      "population": 33496,
      "latitude": "-3.29417000",
      "longitude": "-45.17361000",
      "timezone": "America/Fortaleza",
      "wikiDataId": "Q2066111",
      "country_code": "BR",
      "state_code": "MA",
      "state_id": 2015,
      "country_id": 31
    },
    {
      "id": 13808,
      "name": "पेरी मिरिम",
      "name_default": "Peri Mirim",
      "native": "Peri Mirim",
      "type": "city",
      "level": null,
      "parent_id": null,
      "population": 11229,
      "latitude": "-2.54231000",
      "longitude": "-44.93384000",
      "timezone": "America/Sao_Paulo",
      "wikiDataId": "Q2028227",
      "country_code": "BR",
      "state_code": "MA",
      "state_id": 2015,
      "country_id": 31
    },
    {
      "id": 13811,
      "name": "पेरिटोरो",
      "name_default": "Peritoró",
      "native": "Peritoró",
      "type": "city",
      "level": null,
      "parent_id": null,
      "population": 20903,
      "latitude": "-4.44047000",
      "longitude": "-44.28178000",
      "timezone": "America/Sao_Paulo",
      "wikiDataId": "Q2028227",
      "country_code": "BR",
      "state_code": "MA",
      "state_id": 2015,
      "country_id": 31
    },
    {
      "id": 13849,
      "name": "पिंडारे मिरिम",
      "name_default": "Pindaré Mirim",
      "native": "Pindaré Mirim",
      "type": "city",
      "level": null,
      "parent_id": null,
      "population": 31429,
      "latitude": "-3.60833000",
      "longitude": "-45.34333000",
      "timezone": "America/Fortaleza",
      "wikiDataId": "Q22015476",
      "country_code": "BR",
      "state_code": "MA",
      "state_id": 2015,
      "country_id": 31
    },
    {
      "id": 13868,
      "name": "पिन्हीयरो",
      "name_default": "Pinheiro",
      "native": "Pinheiro",
      "type": "city",
      "level": null,
      "parent_id": null,
      "population": 88091,
      "latitude": "-2.69907000",
      "longitude": "-45.12244000",
      "timezone": "America/Sao_Paulo",
      "wikiDataId": "Q1796449",
      "country_code": "BR",
      "state_code": "MA",
      "state_id": 2015,
      "country_id": 31
    },
    {
      "id": 13879,
      "name": "पियो XII",
      "name_default": "Pio XII",
      "native": "Primeiro xii",
      "type": "city",
      "level": null,
      "parent_id": null,
      "population": 22374,
      "latitude": "-3.89451000",
      "longitude": "-45.16617000",
      "timezone": "America/Fortaleza",
      "wikiDataId": "Q1833985",
      "country_code": "BR",
      "state_code": "MA",
      "state_id": 2015,
      "country_id": 31
    },
    {
      "id": 13898,
      "name": "पिरापेमास",
      "name_default": "Pirapemas",
      "native": "Pirapemas",
      "type": "city",
      "level": null,
      "parent_id": null,
      "population": 18132,
      "latitude": "-3.77957000",
      "longitude": "-44.27746000",
      "timezone": "America/Sao_Paulo",
      "wikiDataId": "Q2089300",
      "country_code": "BR",
      "state_code": "MA",
      "state_id": 2015,
      "country_id": 31
    },
    {
      "id": 14055,
      "name": "पोकाओ डे पेड्रास",
      "name_default": "Poção de Pedras",
      "native": "Poção de Pedras",
      "type": "city",
      "level": null,
      "parent_id": null,
      "population": 17394,
      "latitude": "-4.78496000",
      "longitude": "-44.91232000",
      "timezone": "America/Sao_Paulo",
      "wikiDataId": "Q2104834",
      "country_code": "BR",
      "state_code": "MA",
      "state_id": 2015,
      "country_id": 31
    },
    {
      "id": 14007,
      "name": "पोर्टो फ्रेंको",
      "name_default": "Porto Franco",
      "native": "Porto de Franco",
      "type": "city",
      "level": null,
      "parent_id": null,
      "population": 24571,
      "latitude": "-6.34635000",
      "longitude": "-47.07258000",
      "timezone": "America/Sao_Paulo",
      "wikiDataId": "Q2082418",
      "country_code": "BR",
      "state_code": "MA",
      "state_id": 2015,
      "country_id": 31
    },
    {
      "id": 14016,
      "name": "पोर्टो रिको डो मारान्हो",
      "name_default": "Porto Rico do Maranhão",
      "native": "Porto Rico do Maranhão",
      "type": "city",
      "level": null,
      "parent_id": null,
      "population": 6092,
      "latitude": "-1.85517000",
      "longitude": "-44.60930000",
      "timezone": "America/Fortaleza",
      "wikiDataId": "Q22036573",
      "country_code": "BR",
      "state_code": "MA",
      "state_id": 2015,
      "country_id": 31
    },
    {
      "id": 14079,
      "name": "प्रेसिडेंटे डुट्रा",
      "name_default": "Presidente Dutra",
      "native": "Presidente Dutra",
      "type": "city",
      "level": null,
      "parent_id": null,
      "population": 46606,
      "latitude": "-5.30484000",
      "longitude": "-44.50508000",
      "timezone": "America/Fortaleza",
      "wikiDataId": "Q637452",
      "country_code": "BR",
      "state_code": "MA",
      "state_id": 2015,
      "country_id": 31
    },
    {
      "id": 14084,
      "name": "प्रेसिडेंटे जुसेलिनो",
      "name_default": "Presidente Juscelino",
      "native": "Presidente Juscelino",
      "type": "city",
      "level": null,
      "parent_id": null,
      "population": 3471,
      "latitude": "-3.08609000",
      "longitude": "-44.07739000",
      "timezone": "America/Sao_Paulo",
      "wikiDataId": "Q983495",
      "country_code": "BR",
      "state_code": "MA",
      "state_id": 2015,
      "country_id": 31
    },
    {
      "id": 14092,
      "name": "प्रेसिडेंटे मेडिसी",
      "name_default": "Presidente Médici",
      "native": "Presidente Médici",
      "type": "city",
      "level": null,
      "parent_id": null,
      "population": 4696,
      "latitude": "-2.38729000",
      "longitude": "-45.84126000",
      "timezone": "America/Fortaleza",
      "wikiDataId": "Q1871362",
      "country_code": "BR",
      "state_code": "MA",
      "state_id": 2015,
      "country_id": 31
    },
    {
      "id": 14096,
      "name": "प्रेसिडेंटे सर्नी",
      "name_default": "Presidente Sarney",
      "native": "Presidente Sarney",
      "type": "city",
      "level": null,
      "parent_id": null,
      "population": 17925,
      "latitude": "-2.62072000",
      "longitude": "-45.43931000",
      "timezone": "America/Sao_Paulo",
      "wikiDataId": "Q525618",
      "country_code": "BR",
      "state_code": "MA",
      "state_id": 2015,
      "country_id": 31
    },
    {
      "id": 14098,
      "name": "प्रेसिडेंटे वर्गास",
      "name_default": "Presidente Vargas",
      "native": "Presidente Vargas",
      "type": "city",
      "level": null,
      "parent_id": null,
      "population": 10791,
      "latitude": "-3.42385000",
      "longitude": "-44.01015000",
      "timezone": "America/Fortaleza",
      "wikiDataId": "Q1796453",
      "country_code": "BR",
      "state_code": "MA",
      "state_id": 2015,
      "country_id": 31
    },
    {
      "id": 14104,
      "name": "प्राइमेरा क्रूज़",
      "name_default": "Primeira Cruz",
      "native": "Primeira Cruz",
      "type": "city",
      "level": null,
      "parent_id": null,
      "population": 13920,
      "latitude": "-2.65082000",
      "longitude": "-43.32895000",
      "timezone": "America/Sao_Paulo",
      "wikiDataId": "Q2099821",
      "country_code": "BR",
      "state_code": "MA",
      "state_id": 2015,
      "country_id": 31
    },
    {
      "id": 14174,
      "name": "रापोसा",
      "name_default": "Raposa",
      "native": "Raposa",
      "type": "city",
      "level": null,
      "parent_id": null,
      "population": 11883,
      "latitude": "-6.51667000",
      "longitude": "-44.18333000",
      "timezone": "America/Fortaleza",
      "wikiDataId": "Q22015964",
      "country_code": "BR",
      "state_code": "MA",
      "state_id": 2015,
      "country_id": 31
    },
    {
      "id": 14220,
      "name": "रियाचॉन",
      "name_default": "Riachão",
      "native": "Riachão",
      "type": "city",
      "level": null,
      "parent_id": null,
      "population": 22740,
      "latitude": "-7.36194000",
      "longitude": "-46.61722000",
      "timezone": "America/Fortaleza",
      "wikiDataId": "Q685271",
      "country_code": "BR",
      "state_code": "MA",
      "state_id": 2015,
      "country_id": 31
    },
    {
      "id": 14229,
      "name": "रिबामार फ़िक्वेने",
      "name_default": "Ribamar Fiquene",
      "native": "Ribamar Fiquene",
      "type": "city",
      "level": null,
      "parent_id": null,
      "population": 7601,
      "latitude": "-5.93436000",
      "longitude": "-47.29792000",
      "timezone": "America/Sao_Paulo",
      "wikiDataId": "Q258992",
      "country_code": "BR",
      "state_code": "MA",
      "state_id": 2015,
      "country_id": 31
    },
    {
      "id": 14350,
      "name": "रोसारियो",
      "name_default": "Rosário",
      "native": "Rosário",
      "type": "city",
      "level": null,
      "parent_id": null,
      "population": 39761,
      "latitude": "-2.96001000",
      "longitude": "-44.17429000",
      "timezone": "America/Sao_Paulo",
      "wikiDataId": "Q1795604",
      "country_code": "BR",
      "state_code": "MA",
      "state_id": 2015,
      "country_id": 31
    },
    {
      "id": 14408,
      "name": "सांबाइबा",
      "name_default": "Sambaíba",
      "native": "Sambaíba",
      "type": "city",
      "level": null,
      "parent_id": null,
      "population": 6234,
      "latitude": "-7.61486000",
      "longitude": "-45.67749000",
      "timezone": "America/Sao_Paulo",
      "wikiDataId": "Q36947",
      "country_code": "BR",
      "state_code": "MA",
      "state_id": 2015,
      "country_id": 31
    },
    {
      "id": 14463,
      "name": "सांता फिलोमेना डो मारान्हो",
      "name_default": "Santa Filomena do Maranhão",
      "native": "Santa Filomena do Maranhão",
      "type": "city",
      "level": null,
      "parent_id": null,
      "population": 6833,
      "latitude": "-5.48267000",
      "longitude": "-44.55176000",
      "timezone": "America/Fortaleza",
      "wikiDataId": "Q2065314",
      "country_code": "BR",
      "state_code": "MA",
      "state_id": 2015,
      "country_id": 31
    },
    {
      "id": 14470,
      "name": "सांता हेलेना",
      "name_default": "Santa Helena",
      "native": "Santa Helena",
      "type": "city",
      "level": null,
      "parent_id": null,
      "population": 26461,
      "latitude": "-2.42660000",
      "longitude": "-45.38362000",
      "timezone": "America/Sao_Paulo",
      "wikiDataId": "Q2103762",
      "country_code": "BR",
      "state_code": "MA",
      "state_id": 2015,
      "country_id": 31
    },
    {
      "id": 14477,
      "name": "सांता इनेस",
      "name_default": "Santa Inês",
      "native": "Santa Inês",
      "type": "city",
      "level": null,
      "parent_id": null,
      "population": 1745,
      "latitude": "-3.75659000",
      "longitude": "-45.40393000",
      "timezone": "America/Sao_Paulo",
      "wikiDataId": "Q2469099",
      "country_code": "BR",
      "state_code": "MA",
      "state_id": 2015,
      "country_id": 31
    },
    {
      "id": 14491,
      "name": "सांता लुज़िया",
      "name_default": "Santa Luzia",
      "native": "Santa Luzia",
      "type": "city",
      "level": null,
      "parent_id": null,
      "population": 58839,
      "latitude": "-4.18778000",
      "longitude": "-45.87797000",
      "timezone": "America/Sao_Paulo",
      "wikiDataId": "Q1977528",
      "country_code": "BR",
      "state_code": "MA",
      "state_id": 2015,
      "country_id": 31
    },
    {
      "id": 14496,
      "name": "सांता लुज़िया डो पारुआ",
      "name_default": "Santa Luzia do Paruá",
      "native": "Santa Luzia do Paruá",
      "type": "city",
      "level": null,
      "parent_id": null,
      "population": 24890,
      "latitude": "-2.54684000",
      "longitude": "-45.75943000",
      "timezone": "America/Fortaleza",
      "wikiDataId": "Q2064642",
      "country_code": "BR",
      "state_code": "MA",
      "state_id": 2015,
      "country_id": 31
    },
    {
      "id": 14523,
      "name": "सांता क्विटेरिया डो मारान्हो",
      "name_default": "Santa Quitéria do Maranhão",
      "native": "Santa Quitéria do Maranhão",
      "type": "city",
      "level": null,
      "parent_id": null,
      "population": 24495,
      "latitude": "-3.30241000",
      "longitude": "-42.95484000",
      "timezone": "America/Sao_Paulo",
      "wikiDataId": "Q2013052",
      "country_code": "BR",
      "state_code": "MA",
      "state_id": 2015,
      "country_id": 31
    },
    {
      "id": 14524,
      "name": "सांता रीटा",
      "name_default": "Santa Rita",
      "native": "Santa Rita",
      "type": "city",
      "level": null,
      "parent_id": null,
      "population": 37035,
      "latitude": "-3.16346000",
      "longitude": "-44.32883000",
      "timezone": "America/Fortaleza",
      "wikiDataId": "Q1915115",
      "country_code": "BR",
      "state_code": "MA",
      "state_id": 2015,
      "country_id": 31
    },
    {
      "id": 14587,
      "name": "सैन्टाना डो मारान्हो",
      "name_default": "Santana do Maranhão",
      "native": "Santana do Maranhão",
      "type": "city",
      "level": null,
      "parent_id": null,
      "population": 10759,
      "latitude": "-3.13508000",
      "longitude": "-42.74876000",
      "timezone": "America/Sao_Paulo",
      "wikiDataId": "Q675814",
      "country_code": "BR",
      "state_code": "MA",
      "state_id": 2015,
      "country_id": 31
    },
    {
      "id": 14606,
      "name": "सैंटो अमारो डो मारान्हो",
      "name_default": "Santo Amaro do Maranhão",
      "native": "Santo Amaro do Maranhão",
      "type": "adm2",
      "level": null,
      "parent_id": null,
      "population": 14287,
      "latitude": "-2.62026000",
      "longitude": "-43.16505000",
      "timezone": "America/Sao_Paulo",
      "wikiDataId": "Q371369",
      "country_code": "BR",
      "state_code": "MA",
      "state_id": 2015,
      "country_id": 31
    },
    {
      "id": 14642,
      "name": "सैंटो एंटोनियो डॉस लोपेस",
      "name_default": "Santo Antônio dos Lopes",
      "native": "Santo Antônio dos Lopes",
      "type": "city",
      "level": null,
      "parent_id": null,
      "population": 14628,
      "latitude": "-4.82567000",
      "longitude": "-44.47506000",
      "timezone": "America/Sao_Paulo",
      "wikiDataId": "Q2009548",
      "country_code": "BR",
      "state_code": "MA",
      "state_id": 2015,
      "country_id": 31
    },
    {
      "id": 14832,
      "name": "साओ बेनेडिटो डो रियो प्रेटो",
      "name_default": "São Benedito do Rio Preto",
      "native": "São Benedito do Rio Preto",
      "type": "city",
      "level": null,
      "parent_id": null,
      "population": 18810,
      "latitude": "-3.33098000",
      "longitude": "-43.74036000",
      "timezone": "America/Sao_Paulo",
      "wikiDataId": "Q1806571",
      "country_code": "BR",
      "state_code": "MA",
      "state_id": 2015,
      "country_id": 31
    },
    {
      "id": 14835,
      "name": "साओ बेंटो",
      "name_default": "São Bento",
      "native": "São Bento",
      "type": "city",
      "level": null,
      "parent_id": null,
      "population": 48036,
      "latitude": "-2.69583000",
      "longitude": "-44.82139000",
      "timezone": "America/Fortaleza",
      "wikiDataId": "Q2104116",
      "country_code": "BR",
      "state_code": "MA",
      "state_id": 2015,
      "country_id": 31
    },
    {
      "id": 14845,
      "name": "साओ बर्नार्डो",
      "name_default": "São Bernardo",
      "native": "São Bernardo",
      "type": "city",
      "level": null,
      "parent_id": null,
      "population": 27910,
      "latitude": "-3.43614000",
      "longitude": "-42.40555000",
      "timezone": "America/Fortaleza",
      "wikiDataId": "Q2065297",
      "country_code": "BR",
      "state_code": "MA",
      "state_id": 2015,
      "country_id": 31
    },
    {
      "id": 14868,
      "name": "São Domingos do Azeitão",
      "name_default": "São Domingos do Azeitão",
      "native": "São Domingos do Azeitão",
      "type": "city",
      "level": null,
      "parent_id": null,
      "population": 8236,
      "latitude": "-6.85798000",
      "longitude": "-44.58281000",
      "timezone": "America/Sao_Paulo",
      "wikiDataId": "Q1754673",
      "country_code": "BR",
      "state_code": "MA",
      "state_id": 2015,
      "country_id": 31
    },
    {
      "id": 14871,
      "name": "साओ डोमिंगोस डो मारान्हो",
      "name_default": "São Domingos do Maranhão",
      "native": "São Domingos do Maranhão",
      "type": "city",
      "level": null,
      "parent_id": null,
      "population": 35247,
      "latitude": "-5.57583000",
      "longitude": "-44.38528000",
      "timezone": "America/Fortaleza",
      "wikiDataId": "Q2036695",
      "country_code": "BR",
      "state_code": "MA",
      "state_id": 2015,
      "country_id": 31
    },
    {
      "id": 14900,
      "name": "साओ फेलिक्स डी बाल्सास",
      "name_default": "São Félix de Balsas",
      "native": "São Félix de Balsas",
      "type": "city",
      "level": null,
      "parent_id": null,
      "population": 4491,
      "latitude": "-6.94884000",
      "longitude": "-44.83461000",
      "timezone": "America/Sao_Paulo",
      "wikiDataId": "Q986536",
      "country_code": "BR",
      "state_code": "MA",
      "state_id": 2015,
      "country_id": 31
    },
    {
      "id": 14890,
      "name": "साओ फ्रांसिस्को डो ब्रेजाओ",
      "name_default": "São Francisco do Brejão",
      "native": "São Francisco do Brejão",
      "type": "city",
      "level": null,
      "parent_id": null,
      "population": 9202,
      "latitude": "-5.13880000",
      "longitude": "-47.34887000",
      "timezone": "America/Sao_Paulo",
      "wikiDataId": "Q643392",
      "country_code": "BR",
      "state_code": "MA",
      "state_id": 2015,
      "country_id": 31
    },
    {
      "id": 14894,
      "name": "साओ फ्रांसिस्को डो मारान्हो",
      "name_default": "São Francisco do Maranhão",
      "native": "São Francisco do Maranhão",
      "type": "city",
      "level": null,
      "parent_id": null,
      "population": 12360,
      "latitude": "-6.23353000",
      "longitude": "-42.95249000",
      "timezone": "America/Sao_Paulo",
      "wikiDataId": "Q1788549",
      "country_code": "BR",
      "state_code": "MA",
      "state_id": 2015,
      "country_id": 31
    },
    {
      "id": 15000,
      "name": "साओ जोआओ बतिस्ता",
      "name_default": "São João Batista",
      "native": "São João Batista",
      "type": "city",
      "level": null,
      "parent_id": null,
      "population": 18889,
      "latitude": "-2.95528000",
      "longitude": "-44.80694000",
      "timezone": "America/Fortaleza",
      "wikiDataId": "Q1919029",
      "country_code": "BR",
      "state_code": "MA",
      "state_id": 2015,
      "country_id": 31
    },
    {
      "id": 15028,
      "name": "साओ जोआओ डो कारू",
      "name_default": "São João do Carú",
      "native": "São João do Carú",
      "type": "city",
      "level": null,
      "parent_id": null,
      "population": 12360,
      "latitude": "-3.55923000",
      "longitude": "-46.39242000",
      "timezone": "America/Sao_Paulo",
      "wikiDataId": "Q740965",
      "country_code": "BR",
      "state_code": "MA",
      "state_id": 2015,
      "country_id": 31
    },
    {
      "id": 15037,
      "name": "साओ जोआओ डो पैराइसो",
      "name_default": "São João do Paraíso",
      "native": "São João do Paraíso",
      "type": "city",
      "level": null,
      "parent_id": null,
      "population": 24706,
      "latitude": "-6.40174000",
      "longitude": "-46.88929000",
      "timezone": "America/Sao_Paulo",
      "wikiDataId": "Q1787332",
      "country_code": "BR",
      "state_code": "MA",
      "state_id": 2015,
      "country_id": 31
    },
    {
      "id": 15044,
      "name": "साओ जोआओ डो सोटर",
      "name_default": "São João do Soter",
      "native": "São João do Soter",
      "type": "city",
      "level": null,
      "parent_id": null,
      "population": 17253,
      "latitude": "-4.96497000",
      "longitude": "-43.73953000",
      "timezone": "America/Sao_Paulo",
      "wikiDataId": "Q1937319",
      "country_code": "BR",
      "state_code": "MA",
      "state_id": 2015,
      "country_id": 31
    },
    {
      "id": 15049,
      "name": "साओ जोआओ डॉस पाटोस",
      "name_default": "São João dos Patos",
      "native": "São João dos Patos",
      "type": "city",
      "level": null,
      "parent_id": null,
      "population": 25910,
      "latitude": "-6.49500000",
      "longitude": "-43.70222000",
      "timezone": "America/Fortaleza",
      "wikiDataId": "Q2064621",
      "country_code": "BR",
      "state_code": "MA",
      "state_id": 2015,
      "country_id": 31
    },
    {
      "id": 14957,
      "name": "साओ जोस डे रिबामार",
      "name_default": "São José de Ribamar",
      "native": "São José de Ribamar",
      "type": "city",
      "level": null,
      "parent_id": null,
      "population": 244579,
      "latitude": "-2.56194000",
      "longitude": "-44.05417000",
      "timezone": "America/Fortaleza",
      "wikiDataId": "Q1006367",
      "country_code": "BR",
      "state_code": "MA",
      "state_id": 2015,
      "country_id": 31
    },
    {
      "id": 14992,
      "name": "साओ जोस डॉस बेसिलियोस",
      "name_default": "São José dos Basílios",
      "native": "São José dos Basílios",
      "type": "city",
      "level": null,
      "parent_id": null,
      "population": 7094,
      "latitude": "-5.05917000",
      "longitude": "-44.59458000",
      "timezone": "America/Fortaleza",
      "wikiDataId": "Q944254",
      "country_code": "BR",
      "state_code": "MA",
      "state_id": 2015,
      "country_id": 31
    },
    {
      "id": 15063,
      "name": "साओ लुइस",
      "name_default": "São Luís",
      "native": "São Luís",
      "type": "adm1",
      "level": null,
      "parent_id": null,
      "population": 917237,
      "latitude": "-2.52972000",
      "longitude": "-44.30278000",
      "timezone": "America/Fortaleza",
      "wikiDataId": "Q28441",
      "country_code": "BR",
      "state_code": "MA",
      "state_id": 2015,
      "country_id": 31
    },
    {
      "id": 15064,
      "name": "साओ लुइस गोंज़ागा दो मरान्हाओ",
      "name_default": "São Luís Gonzaga do Maranhão",
      "native": "São Luís Gonzaga do Maranhão",
      "type": "city",
      "level": null,
      "parent_id": null,
      "population": 18123,
      "latitude": "-4.37871000",
      "longitude": "-44.71595000",
      "timezone": "America/Sao_Paulo",
      "wikiDataId": "Q2066188",
      "country_code": "BR",
      "state_code": "MA",
      "state_id": 2015,
      "country_id": 31
    },
    {
      "id": 15076,
      "name": "साओ माटेउस डो मारान्हो",
      "name_default": "São Mateus do Maranhão",
      "native": "São Mateus do Maranhão",
      "type": "city",
      "level": null,
      "parent_id": null,
      "population": 40177,
      "latitude": "-4.04167000",
      "longitude": "-44.47500000",
      "timezone": "America/Fortaleza",
      "wikiDataId": "Q2065276",
      "country_code": "BR",
      "state_code": "MA",
      "state_id": 2015,
      "country_id": 31
    },
    {
      "id": 15112,
      "name": "साओ पेड्रो दा अगुआ ब्रांका",
      "name_default": "São Pedro da Água Branca",
      "native": "São Pedro da Água Branca",
      "type": "city",
      "level": null,
      "parent_id": null,
      "population": 14786,
      "latitude": "-5.16149000",
      "longitude": "-48.36104000",
      "timezone": "America/Sao_Paulo",
      "wikiDataId": "Q1788043",
      "country_code": "BR",
      "state_code": "MA",
      "state_id": 2015,
      "country_id": 31
    },
    {
      "id": 15123,
      "name": "साओ पेड्रो डॉस क्रेंटेस",
      "name_default": "São Pedro dos Crentes",
      "native": "São Pedro dos Crentes",
      "type": "city",
      "level": null,
      "parent_id": null,
      "population": 5993,
      "latitude": "-6.81958000",
      "longitude": "-46.70736000",
      "timezone": "America/Sao_Paulo",
      "wikiDataId": "Q2007743",
      "country_code": "BR",
      "state_code": "MA",
      "state_id": 2015,
      "country_id": 31
    },
    {
      "id": 15127,
      "name": "São Raimundo das Mangabeiras",
      "name_default": "São Raimundo das Mangabeiras",
      "native": "São Raimundo das Mangabeiras",
      "type": "city",
      "level": null,
      "parent_id": null,
      "population": 19158,
      "latitude": "-7.02194000",
      "longitude": "-45.48111000",
      "timezone": "America/Fortaleza",
      "wikiDataId": "Q2065231",
      "country_code": "BR",
      "state_code": "MA",
      "state_id": 2015,
      "country_id": 31
    },
    {
      "id": 15128,
      "name": "São Raimundo do Doca Bezerra",
      "name_default": "São Raimundo do Doca Bezerra",
      "native": "São Raimundo do Doca Bezerra",
      "type": "city",
      "level": null,
      "parent_id": null,
      "population": 5761,
      "latitude": "-5.11025000",
      "longitude": "-45.06894000",
      "timezone": "America/Fortaleza",
      "wikiDataId": "Q1947813",
      "country_code": "BR",
      "state_code": "MA",
      "state_id": 2015,
      "country_id": 31
    },
    {
      "id": 15129,
      "name": "साओ रॉबर्टो",
      "name_default": "São Roberto",
      "native": "São Roberto",
      "type": "city",
      "level": null,
      "parent_id": null,
      "population": 4577,
      "latitude": "-4.98137000",
      "longitude": "-44.99100000",
      "timezone": "America/Fortaleza",
      "wikiDataId": "Q1947813",
      "country_code": "BR",
      "state_code": "MA",
      "state_id": 2015,
      "country_id": 31
    },
    {
      "id": 15170,
      "name": "साओ विसेंट फेरर",
      "name_default": "São Vicente Ferrer",
      "native": "São Vicente Ferrer",
      "type": "city",
      "level": null,
      "parent_id": null,
      "population": 19865,
      "latitude": "-2.87717000",
      "longitude": "-44.93960000",
      "timezone": "America/Sao_Paulo",
      "wikiDataId": "Q272254",
      "country_code": "BR",
      "state_code": "MA",
      "state_id": 2015,
      "country_id": 31
    },
    {
      "id": 14674,
      "name": "सतुबिन्हा",
      "name_default": "Satubinha",
      "native": "Satubinha",
      "type": "city",
      "level": null,
      "parent_id": null,
      "population": 8821,
      "latitude": "-3.84804000",
      "longitude": "-45.25543000",
      "timezone": "America/Sao_Paulo",
      "wikiDataId": "Q2064663",
      "country_code": "BR",
      "state_code": "MA",
      "state_id": 2015,
      "country_id": 31
    },
    {
      "id": 14693,
      "name": "सीनेटर एलेक्जेंडर कोस्टा",
      "name_default": "Senador Alexandre Costa",
      "native": "Senador Alexandre Costa",
      "type": "city",
      "level": null,
      "parent_id": null,
      "population": 10447,
      "latitude": "-5.29207000",
      "longitude": "-43.87491000",
      "timezone": "America/Sao_Paulo",
      "wikiDataId": "Q1754389",
      "country_code": "BR",
      "state_code": "MA",
      "state_id": 2015,
      "country_id": 31
    },
    {
      "id": 14703,
      "name": "सेनेडोर ला रोके",
      "name_default": "Senador La Rocque",
      "native": "Senador La Rocque",
      "type": "city",
      "level": null,
      "parent_id": null,
      "population": 15044,
      "latitude": "-5.42661000",
      "longitude": "-47.17194000",
      "timezone": "America/Sao_Paulo",
      "wikiDataId": "Q609027",
      "country_code": "BR",
      "state_code": "MA",
      "state_id": 2015,
      "country_id": 31
    },
    {
      "id": 14745,
      "name": "सेरानो डो मारान्हो",
      "name_default": "Serrano do Maranhão",
      "native": "Serrano do Maranhão",
      "type": "city",
      "level": null,
      "parent_id": null,
      "population": 10475,
      "latitude": "-1.85659000",
      "longitude": "-45.08514000",
      "timezone": "America/Fortaleza",
      "wikiDataId": "Q593028",
      "country_code": "BR",
      "state_code": "MA",
      "state_id": 2015,
      "country_id": 31
    },
    {
      "id": 15176,
      "name": "सिटियो नोवो",
      "name_default": "Sítio Novo",
      "native": "Sítio Novo",
      "type": "city",
      "level": null,
      "parent_id": null,
      "population": 17464,
      "latitude": "-6.15590000",
      "longitude": "-46.67216000",
      "timezone": "America/Sao_Paulo",
      "wikiDataId": "Q272254",
      "country_code": "BR",
      "state_code": "MA",
      "state_id": 2015,
      "country_id": 31
    },
    {
      "id": 14818,
      "name": "सुकुपिरा डो नॉर्ट",
      "name_default": "Sucupira do Norte",
      "native": "Sucupira do Norte",
      "type": "city",
      "level": null,
      "parent_id": null,
      "population": 10471,
      "latitude": "-6.46683000",
      "longitude": "-44.28011000",
      "timezone": "America/Sao_Paulo",
      "wikiDataId": "Q2011653",
      "country_code": "BR",
      "state_code": "MA",
      "state_id": 2015,
      "country_id": 31
    },
    {
      "id": 14819,
      "name": "Sucupira do Riachão",
      "name_default": "Sucupira do Riachão",
      "native": "Sucupira do Riachão",
      "type": "city",
      "level": null,
      "parent_id": null,
      "population": 5081,
      "latitude": "-6.46791000",
      "longitude": "-43.49722000",
      "timezone": "America/Sao_Paulo",
      "wikiDataId": "Q2011653",
      "country_code": "BR",
      "state_code": "MA",
      "state_id": 2015,
      "country_id": 31
    },