{
  "locale": "hi",
  "country": {
    "id": 55,
    "code": "HR",
    "iso3": "HRV",
    "numeric_code": "191",
    "name": "क्रोएशिया",
    "name_default": "Croatia",
    "native": "Hrvatska",
    "capital": "Zagreb",
    "phonecode": "385",
    "currency": "EUR",
    "currency_name": "Euro",
    "currency_symbol": "€",
    "tld": ".hr",
    "population": 3866233,
    "gdp": 98951,
    "region": "Europe",
    "region_id": 4,
    "subregion": "Southern Europe",
    "subregion_id": 16,
    "nationality": "Croatian",
    "timezones": [
      {
        "zoneName": "Europe/Zagreb",
        "gmtOffset": 3600,
        "gmtOffsetName": "UTC+01:00",
        "abbreviation": "CET",
        "tzName": "Central European Time"
      }
    ],
    "latitude": "45.16666666",
    "longitude": "15.50000000",
    "emoji": "🇭🇷",
    "emojiU": "U+1F1ED U+1F1F7"
  },
  "state": {
    "id": 735,
    "code": "08",
    "iso2": "08",
    "iso3166_2": "HR-08",
    "fips_code": "12",
    "name": "प्रिमोरजे-गोर्स्की कोटार",
    "name_default": "Primorje-Gorski Kotar",
    "native": "Primorje-gorski kotar",
    "type": "county",
    "level": null,
    "parent_id": null,
    "population": 266183,
    "latitude": "45.42259370",
    "longitude": "14.61720320",
    "timezone": "Europe/Zagreb",
    "wikiDataId": "Q58071",
    "country_code": "HR"
  },
  "cities": [
    {
      "id": 54383,
      "name": "बाकर",
      "name_default": "Bakar",
      "native": "Bakar",
      "type": "adm2",
      "level": null,
      "parent_id": null,
      "population": 1187,
      "latitude": "45.30861000",
      "longitude": "14.53028000",
      "timezone": "Europe/Zagreb",
      "wikiDataId": "Q740324",
      "country_code": "HR",
      "state_code": "08",
      "state_id": 735,
      "country_id": 55
    },
    {
      "id": 54386,
      "name": "बंजोल",
      "name_default": "Banjol",
      "native": "Bajd",
      "type": "city",
      "level": null,
      "parent_id": null,
      "population": 1708,
      "latitude": "44.75000000",
      "longitude": "14.78333000",
      "timezone": "Europe/Zagreb",
      "wikiDataId": "Q790050",
      "country_code": "HR",
      "state_code": "08",
      "state_id": 735,
      "country_id": 55
    },
    {
      "id": 54388,
      "name": "बास्का",
      "name_default": "Baška",
      "native": "Baška",
      "type": "adm2",
      "level": null,
      "parent_id": null,
      "population": 899,
      "latitude": "44.97028000",
      "longitude": "14.75333000",
      "timezone": "Europe/Zagreb",
      "wikiDataId": "Q791614",
      "country_code": "HR",
      "state_code": "08",
      "state_id": 735,
      "country_id": 55
    },
    {
      "id": 54420,
      "name": "ब्रिबिर",
      "name_default": "Bribir",
      "native": "Podmićivač",
      "type": "adm2",
      "level": null,
      "parent_id": null,
      "population": 1480,
      "latitude": "45.16111000",
      "longitude": "14.76472000",
      "timezone": "Europe/Zagreb",
      "wikiDataId": "Q326957",
      "country_code": "HR",
      "state_code": "08",
      "state_id": 735,
      "country_id": 55
    },
    {
      "id": 54435,
      "name": "बुज़दोहांज",
      "name_default": "Buzdohanj",
      "native": "Buzdohanj",
      "type": "city",
      "level": null,
      "parent_id": null,
      "population": 1648,
      "latitude": "45.34528000",
      "longitude": "14.48833000",
      "timezone": "Europe/Zagreb",
      "wikiDataId": "Q1284357",
      "country_code": "HR",
      "state_code": "08",
      "state_id": 735,
      "country_id": 55
    },
    {
      "id": 55016,
      "name": "चावले",
      "name_default": "Čavle",
      "native": "Čavle",
      "type": "adm2",
      "level": null,
      "parent_id": null,
      "population": 1269,
      "latitude": "45.35194000",
      "longitude": "14.48389000",
      "timezone": "Europe/Zagreb",
      "wikiDataId": "Q337798",
      "country_code": "HR",
      "state_code": "08",
      "state_id": 735,
      "country_id": 55
    },
    {
      "id": 54442,
      "name": "सेर्निक",
      "name_default": "Cernik",
      "native": "Cernik",
      "type": "city",
      "level": null,
      "parent_id": null,
      "population": 1035,
      "latitude": "45.34361000",
      "longitude": "14.50222000",
      "timezone": "Europe/Zagreb",
      "wikiDataId": "Q1285573",
      "country_code": "HR",
      "state_code": "08",
      "state_id": 735,
      "country_id": 55
    },
    {
      "id": 54444,
      "name": "Cres के",
      "name_default": "Cres",
      "native": "Cres",
      "type": "adm2",
      "level": null,
      "parent_id": null,
      "population": null,
      "latitude": "44.96111000",
      "longitude": "14.40840000",
      "timezone": "Europe/Zagreb",
      "wikiDataId": "Q859784",
      "country_code": "HR",
      "state_code": "08",
      "state_id": 735,
      "country_id": 55
    },
    {
      "id": 54445,
      "name": "क्रिकवेनिका",
      "name_default": "Crikvenica",
      "native": "Crikvenica",
      "type": "adm2",
      "level": null,
      "parent_id": null,
      "population": 6239,
      "latitude": "45.17722000",
      "longitude": "14.69278000",
      "timezone": "Europe/Zagreb",
      "wikiDataId": "Q397626",
      "country_code": "HR",
      "state_code": "08",
      "state_id": 735,
      "country_id": 55
    },
    {
      "id": 54452,
      "name": "डेल्निस",
      "name_default": "Delnice",
      "native": "Zaliha",
      "type": "adm2",
      "level": null,
      "parent_id": null,
      "population": 3861,
      "latitude": "45.40083000",
      "longitude": "14.79972000",
      "timezone": "Europe/Zagreb",
      "wikiDataId": "Q397508",
      "country_code": "HR",
      "state_code": "08",
      "state_id": 735,
      "country_id": 55
    },
    {
      "id": 54465,
      "name": "ड्रैज़िस",
      "name_default": "Dražice",
      "native": "Zmaj",
      "type": "city",
      "level": null,
      "parent_id": null,
      "population": 2064,
      "latitude": "45.39083000",
      "longitude": "14.47028000",
      "timezone": "Europe/Zagreb",
      "wikiDataId": "Q902360",
      "country_code": "HR",
      "state_code": "08",
      "state_id": 735,
      "country_id": 55
    },
    {
      "id": 54466,
      "name": "ड्रेनोवा",
      "name_default": "Drenova",
      "native": "Drenova",
      "type": "section",
      "level": null,
      "parent_id": null,
      "population": 7063,
      "latitude": "45.35000000",
      "longitude": "14.43028000",
      "timezone": "Europe/Zagreb",
      "wikiDataId": "Q902360",
      "country_code": "HR",
      "state_code": "08",
      "state_id": 735,
      "country_id": 55
    },
    {
      "id": 54485,
      "name": "फ़ुज़िने",
      "name_default": "Fužine",
      "native": "Željezo",
      "type": "adm2",
      "level": null,
      "parent_id": null,
      "population": 597,
      "latitude": "45.30528000",
      "longitude": "14.71556000",
      "timezone": "Europe/Zagreb",
      "wikiDataId": "Q915795",
      "country_code": "HR",
      "state_code": "08",
      "state_id": 735,
      "country_id": 55
    },
    {
      "id": 54569,
      "name": "ग्रैड चबार",
      "name_default": "Grad Čabar",
      "native": "Grad Čabar",
      "type": "city",
      "level": null,
      "parent_id": null,
      "population": null,
      "latitude": "45.58333000",
      "longitude": "14.58333000",
      "timezone": "Europe/Zagreb",
      "wikiDataId": "Q1194688",
      "country_code": "HR",
      "state_code": "08",
      "state_id": 735,
      "country_id": 55
    },
    {
      "id": 54507,
      "name": "ग्रैड क्रिकवेनिका",
      "name_default": "Grad Crikvenica",
      "native": "Grad Crikvenica",
      "type": "adm2",
      "level": null,
      "parent_id": null,
      "population": 9980,
      "latitude": "45.16667000",
      "longitude": "14.70000000",
      "timezone": "Europe/Zagreb",
      "wikiDataId": "Q319276",
      "country_code": "HR",
      "state_code": "08",
      "state_id": 735,
      "country_id": 55
    },
    {
      "id": 54509,
      "name": "ग्रैड डेल्निस",
      "name_default": "Grad Delnice",
      "native": "Grad Delnice",
      "type": "adm2",
      "level": null,
      "parent_id": null,
      "population": 3861,
      "latitude": "45.39806000",
      "longitude": "14.80111000",
      "timezone": "Europe/Zagreb",
      "wikiDataId": "Q319276",
      "country_code": "HR",
      "state_code": "08",
      "state_id": 735,
      "country_id": 55
    },
    {
      "id": 54528,
      "name": "ग्रैड क्रक",
      "name_default": "Grad Krk",
      "native": "Grad Krk",
      "type": "adm2",
      "level": null,
      "parent_id": null,
      "population": 6816,
      "latitude": "45.02829000",
      "longitude": "14.57233000",
      "timezone": "Europe/Zagreb",
      "wikiDataId": "Q5718",
      "country_code": "HR",
      "state_code": "08",
      "state_id": 735,
      "country_id": 55
    },
    {
      "id": 54538,
      "name": "ग्रैड ओपतिया",
      "name_default": "Grad Opatija",
      "native": "Grad Opatija",
      "type": "city",
      "level": null,
      "parent_id": null,
      "population": 547,
      "latitude": "45.33333000",
      "longitude": "14.26667000",
      "timezone": "Europe/Zagreb",
      "wikiDataId": "Q397600",
      "country_code": "HR",
      "state_code": "08",
      "state_id": 735,
      "country_id": 55
    },
    {
      "id": 54546,
      "name": "ग्रैड रिजेका",
      "name_default": "Grad Rijeka",
      "native": "Grad Rijeka",
      "type": "adm1",
      "level": null,
      "parent_id": null,
      "population": null,
      "latitude": "45.32693000",
      "longitude": "14.43758000",
      "timezone": "Europe/Zagreb",
      "wikiDataId": "Q1647",
      "country_code": "HR",
      "state_code": "08",
      "state_id": 735,
      "country_id": 55
    },
    {
      "id": 54563,
      "name": "ग्रैड व्रबोवस्को",
      "name_default": "Grad Vrbovsko",
      "native": "Grad Vrbovsko",
      "type": "adm2",
      "level": null,
      "parent_id": null,
      "population": 1257,
      "latitude": "45.37542000",
      "longitude": "15.07856000",
      "timezone": "Europe/Zagreb",
      "wikiDataId": "Q924442",
      "country_code": "HR",
      "state_code": "08",
      "state_id": 735,
      "country_id": 55
    },
    {
      "id": 54598,
      "name": "ह्रेलजिन",
      "name_default": "Hreljin",
      "native": "Hreljin",
      "type": "city",
      "level": null,
      "parent_id": null,
      "population": 2139,
      "latitude": "45.28250000",
      "longitude": "14.59917000",
      "timezone": "Europe/Zagreb",
      "wikiDataId": "Q1021770",
      "country_code": "HR",
      "state_code": "08",
      "state_id": 735,
      "country_id": 55
    },
    {
      "id": 54609,
      "name": "जादरानोवो",
      "name_default": "Jadranovo",
      "native": "Jadranovo",
      "type": "city",
      "level": null,
      "parent_id": null,
      "population": 1077,
      "latitude": "45.23111000",
      "longitude": "14.61833000",
      "timezone": "Europe/Zagreb",
      "wikiDataId": "Q917220",
      "country_code": "HR",
      "state_code": "08",
      "state_id": 735,
      "country_id": 55
    },
    {
      "id": 54628,
      "name": "काम्पोर",
      "name_default": "Kampor",
      "native": "Kampor",
      "type": "city",
      "level": null,
      "parent_id": null,
      "population": 1030,
      "latitude": "44.77500000",
      "longitude": "14.71861000",
      "timezone": "Europe/Zagreb",
      "wikiDataId": "Q1103518",
      "country_code": "HR",
      "state_code": "08",
      "state_id": 735,
      "country_id": 55
    },
    {
      "id": 54635,
      "name": "कस्तव",
      "name_default": "Kastav",
      "native": "Kastav",
      "type": "adm2",
      "level": null,
      "parent_id": null,
      "population": 10202,
      "latitude": "45.37528000",
      "longitude": "14.34861000",
      "timezone": "Europe/Zagreb",
      "wikiDataId": "Q399425",
      "country_code": "HR",
      "state_code": "08",
      "state_id": 735,
      "country_id": 55
    },
    {
      "id": 54647,
      "name": "क्लाना",
      "name_default": "Klana",
      "native": "Klana",
      "type": "adm2",
      "level": null,
      "parent_id": null,
      "population": 1147,
      "latitude": "45.44694000",
      "longitude": "14.37694000",
      "timezone": "Europe/Zagreb",
      "wikiDataId": "Q1284790",
      "country_code": "HR",
      "state_code": "08",
      "state_id": 735,
      "country_id": 55
    },
    {
      "id": 54666,
      "name": "क्रालजेविका",
      "name_default": "Kraljevica",
      "native": "Kraljevica",
      "type": "adm2",
      "level": null,
      "parent_id": null,
      "population": 2415,
      "latitude": "45.27395000",
      "longitude": "14.56830000",
      "timezone": "Europe/Zagreb",
      "wikiDataId": "Q396555",
      "country_code": "HR",
      "state_code": "08",
      "state_id": 735,
      "country_id": 55
    },
    {
      "id": 54668,
      "name": "क्रासिका",
      "name_default": "Krasica",
      "native": "Krazika",
      "type": "city",
      "level": null,
      "parent_id": null,
      "population": 1325,
      "latitude": "45.30972000",
      "longitude": "14.55556000",
      "timezone": "Europe/Zagreb",
      "wikiDataId": "Q3199605",
      "country_code": "HR",
      "state_code": "08",
      "state_id": 735,
      "country_id": 55
    },
    {
      "id": 54671,
      "name": "क्रक",
      "name_default": "Krk",
      "native": "KRK",
      "type": "adm2",
      "level": null,
      "parent_id": null,
      "population": 3935,
      "latitude": "45.02744000",
      "longitude": "14.57542000",
      "timezone": "Europe/Zagreb",
      "wikiDataId": "Q13274",
      "country_code": "HR",
      "state_code": "08",
      "state_id": 735,
      "country_id": 55
    },
    {
      "id": 54696,
      "name": "लोपार",
      "name_default": "Lopar",
      "native": "Lopar",
      "type": "adm2",
      "level": null,
      "parent_id": null,
      "population": 1107,
      "latitude": "44.83250000",
      "longitude": "14.73028000",
      "timezone": "Europe/Zagreb",
      "wikiDataId": "Q1013185",
      "country_code": "HR",
      "state_code": "08",
      "state_id": 735,
      "country_id": 55
    },
    {
      "id": 54699,
      "name": "लोवरान",
      "name_default": "Lovran",
      "native": "Lovran",
      "type": "adm2",
      "level": null,
      "parent_id": null,
      "population": 3527,
      "latitude": "45.29194000",
      "longitude": "14.27417000",
      "timezone": "Europe/Zagreb",
      "wikiDataId": "Q757311",
      "country_code": "HR",
      "state_code": "08",
      "state_id": 735,
      "country_id": 55
    },
    {
      "id": 54712,
      "name": "माली लोसिंज",
      "name_default": "Mali Lošinj",
      "native": "Mali Lošinj",
      "type": "adm2",
      "level": null,
      "parent_id": null,
      "population": 5561,
      "latitude": "44.53056000",
      "longitude": "14.46861000",
      "timezone": "Europe/Zagreb",
      "wikiDataId": "Q397720",
      "country_code": "HR",
      "state_code": "08",
      "state_id": 735,
      "country_id": 55
    },
    {
      "id": 54713,
      "name": "मालिंस्का-दुबास्निका",
      "name_default": "Malinska-Dubašnica",
      "native": "Malinska-Dubašnica",
      "type": "city",
      "level": null,
      "parent_id": null,
      "population": null,
      "latitude": "45.12277000",
      "longitude": "14.52873000",
      "timezone": "Europe/Zagreb",
      "wikiDataId": "Q397720",
      "country_code": "HR",
      "state_code": "08",
      "state_id": 735,
      "country_id": 55
    },
    {
      "id": 54723,
      "name": "मार्सेलजी",
      "name_default": "Marčelji",
      "native": "Marčelji",
      "type": "city",
      "level": null,
      "parent_id": null,
      "population": 2535,
      "latitude": "45.39611000",
      "longitude": "14.38944000",
      "timezone": "Europe/Zagreb",
      "wikiDataId": "Q3338770",
      "country_code": "HR",
      "state_code": "08",
      "state_id": 735,
      "country_id": 55
    },
    {
      "id": 54716,
      "name": "मारिनिची",
      "name_default": "Marinići",
      "native": "Marinski",
      "type": "city",
      "level": null,
      "parent_id": null,
      "population": 3862,
      "latitude": "45.36500000",
      "longitude": "14.39389000",
      "timezone": "Europe/Zagreb",
      "wikiDataId": "Q1943409",
      "country_code": "HR",
      "state_code": "08",
      "state_id": 735,
      "country_id": 55
    },
    {
      "id": 54724,
      "name": "मातुलजी",
      "name_default": "Matulji",
      "native": "Matulji",
      "type": "adm2",
      "level": null,
      "parent_id": null,
      "population": 3566,
      "latitude": "45.36167000",
      "longitude": "14.32500000",
      "timezone": "Europe/Zagreb",
      "wikiDataId": "Q518871",
      "country_code": "HR",
      "state_code": "08",
      "state_id": 735,
      "country_id": 55
    },
    {
      "id": 54729,
      "name": "मिहोतिसी",
      "name_default": "Mihotići",
      "native": "Um",
      "type": "city",
      "level": null,
      "parent_id": null,
      "population": 862,
      "latitude": "45.36125000",
      "longitude": "14.30553000",
      "timezone": "Europe/Zagreb",
      "wikiDataId": "Q390588",
      "country_code": "HR",
      "state_code": "08",
      "state_id": 735,
      "country_id": 55
    },
    {
      "id": 54743,
      "name": "मृकोपालज",
      "name_default": "Mrkopalj",
      "native": "Mrkopalj",
      "type": "adm2",
      "level": null,
      "parent_id": null,
      "population": 557,
      "latitude": "45.31556000",
      "longitude": "14.85528000",
      "timezone": "Europe/Zagreb",
      "wikiDataId": "Q1027260",
      "country_code": "HR",
      "state_code": "08",
      "state_id": 735,
      "country_id": 55
    },
    {
      "id": 54755,
      "name": "न्जीविसे",
      "name_default": "Njivice",
      "native": "Njivice",
      "type": "city",
      "level": null,
      "parent_id": null,
      "population": 1115,
      "latitude": "45.15806000",
      "longitude": "14.53861000",
      "timezone": "Europe/Zagreb",
      "wikiDataId": "Q3445196",
      "country_code": "HR",
      "state_code": "08",
      "state_id": 735,
      "country_id": 55
    },
    {
      "id": 54759,
      "name": "नोवी विनोडोल्स्की",
      "name_default": "Novi Vinodolski",
      "native": "Novi Vinodolski",
      "type": "adm2",
      "level": null,
      "parent_id": null,
      "population": 3336,
      "latitude": "45.12806000",
      "longitude": "14.78889000",
      "timezone": "Europe/Zagreb",
      "wikiDataId": "Q397927",
      "country_code": "HR",
      "state_code": "08",
      "state_id": 735,
      "country_id": 55
    },
    {
      "id": 54776,
      "name": "Omisalj",
      "name_default": "Omišalj",
      "native": "Omišalj",
      "type": "adm2",
      "level": null,
      "parent_id": null,
      "population": 1877,
      "latitude": "45.21134000",
      "longitude": "14.55495000",
      "timezone": "Europe/Zagreb",
      "wikiDataId": "Q382602",
      "country_code": "HR",
      "state_code": "08",
      "state_id": 735,
      "country_id": 55
    },
    {
      "id": 54777,
      "name": "ओपतिया",
      "name_default": "Opatija",
      "native": "Opatija",
      "type": "city",
      "level": null,
      "parent_id": null,
      "population": 862,
      "latitude": "45.33771000",
      "longitude": "14.30515000",
      "timezone": "Europe/Zagreb",
      "wikiDataId": "Q382602",
      "country_code": "HR",
      "state_code": "08",
      "state_id": 735,
      "country_id": 55
    },
    {
      "id": 54815,
      "name": "पोधुम",
      "name_default": "Podhum",
      "native": "Polj",
      "type": "city",
      "level": null,
      "parent_id": null,
      "population": 1356,
      "latitude": "45.38722000",
      "longitude": "14.47944000",
      "timezone": "Europe/Zagreb",
      "wikiDataId": "Q1026698",
      "country_code": "HR",
      "state_code": "08",
      "state_id": 735,
      "country_id": 55
    },
    {
      "id": 54846,
      "name": "पुनात",
      "name_default": "Punat",
      "native": "Gumb",
      "type": "adm2",
      "level": null,
      "parent_id": null,
      "population": 1900,
      "latitude": "45.01472000",
      "longitude": "14.62889000",
      "timezone": "Europe/Zagreb",
      "wikiDataId": "Q1269942",
      "country_code": "HR",
      "state_code": "08",
      "state_id": 735,
      "country_id": 55
    },
    {
      "id": 54849,
      "name": "रब",
      "name_default": "Rab",
      "native": "Rab",
      "type": "adm2",
      "level": null,
      "parent_id": null,
      "population": 364,
      "latitude": "44.75769000",
      "longitude": "14.75906000",
      "timezone": "Europe/Zagreb",
      "wikiDataId": "Q769612",
      "country_code": "HR",
      "state_code": "08",
      "state_id": 735,
      "country_id": 55
    },
    {
      "id": 54863,
      "name": "रिजेका",
      "name_default": "Rijeka",
      "native": "Rijeka",
      "type": "adm1",
      "level": null,
      "parent_id": null,
      "population": 107964,
      "latitude": "45.32673000",
      "longitude": "14.44241000",
      "timezone": "Europe/Zagreb",
      "wikiDataId": "Q1269809",
      "country_code": "HR",
      "state_code": "08",
      "state_id": 735,
      "country_id": 55
    },
    {
      "id": 54870,
      "name": "रुबेसी",
      "name_default": "Rubeši",
      "native": "Rubeši",
      "type": "city",
      "level": null,
      "parent_id": null,
      "population": 1730,
      "latitude": "45.36694000",
      "longitude": "14.34806000",
      "timezone": "Europe/Zagreb",
      "wikiDataId": "Q3446490",
      "country_code": "HR",
      "state_code": "08",
      "state_id": 735,
      "country_id": 55
    },
    {
      "id": 54882,
      "name": "सेल्से",
      "name_default": "Selce",
      "native": "Selce",
      "type": "city",
      "level": null,
      "parent_id": null,
      "population": 1298,
      "latitude": "45.15639000",
      "longitude": "14.72111000",
      "timezone": "Europe/Zagreb",
      "wikiDataId": "Q430072",
      "country_code": "HR",
      "state_code": "08",
      "state_id": 735,
      "country_id": 55
    },
    {
      "id": 54893,
      "name": "स्क्रैड",
      "name_default": "Skrad",
      "native": "Skrad",
      "type": "adm2",
      "level": null,
      "parent_id": null,
      "population": 858,
      "latitude": "45.42778000",
      "longitude": "14.91111000",
      "timezone": "Europe/Zagreb",
      "wikiDataId": "Q1184846",
      "country_code": "HR",
      "state_code": "08",
      "state_id": 735,
      "country_id": 55
    },
    {
      "id": 55033,
      "name": "स्क्रलजेवो",
      "name_default": "Škrljevo",
      "native": "Novčanik",
      "type": "city",
      "level": null,
      "parent_id": null,
      "population": 1158,
      "latitude": "45.32053000",
      "longitude": "14.53268000",
      "timezone": "Europe/Zagreb",
      "wikiDataId": "Q3443449",
      "country_code": "HR",
      "state_code": "08",
      "state_id": 735,
      "country_id": 55
    },
    {
      "id": 54924,
      "name": "सुपेटार्स्का ड्रेगा",
      "name_default": "Supetarska Draga",
      "native": "Supetarska Draga",
      "type": "city",
      "level": null,
      "parent_id": null,
      "population": 937,
      "latitude": "44.79750000",
      "longitude": "14.72472000",
      "timezone": "Europe/Zagreb",
      "wikiDataId": "Q925754",
      "country_code": "HR",
      "state_code": "08",
      "state_id": 735,
      "country_id": 55
    },
    {
      "id": 54970,
      "name": "Vinodolska općina",
      "name_default": "Vinodolska općina",
      "native": "Vinodolska općina",
      "type": "city",
      "level": null,
      "parent_id": null,
      "population": null,
      "latitude": "45.22219000",
      "longitude": "14.68941000",
      "timezone": "Europe/Zagreb",
      "wikiDataId": "Q376950",
      "country_code": "HR",
      "state_code": "08",
      "state_id": 735,
      "country_id": 55
    },
    {
      "id": 54976,
      "name": "विस्कोवो",
      "name_default": "Viškovo",
      "native": "Viškovo",
      "type": "adm2",
      "level": null,
      "parent_id": null,
      "population": 3602,
      "latitude": "45.37572000",
      "longitude": "14.38400000",
      "timezone": "Europe/Zagreb",
      "wikiDataId": "Q963229",
      "country_code": "HR",
      "state_code": "08",
      "state_id": 735,
      "country_id": 55
    },
    {
      "id": 54990,
      "name": "व्रबनिक",
      "name_default": "Vrbnik",
      "native": "Vrbnik",
      "type": "adm2",
      "level": null,
      "parent_id": null,
      "population": 887,
      "latitude": "45.07583000",
      "longitude": "14.67250000",
      "timezone": "Europe/Zagreb",
      "wikiDataId": "Q1092393",
      "country_code": "HR",
      "state_code": "08",
      "state_id": 735,
      "country_id": 55
    },
    {
      "id": 54992,
      "name": "व्रबोव्स्को",
      "name_default": "Vrbovsko",
      "native": "Vrbovsko",
      "type": "adm2",
      "level": null,
      "parent_id": null,
      "population": 1257,
      "latitude": "45.36861000",
      "longitude": "15.07833000",
      "timezone": "Europe/Zagreb",
      "wikiDataId": "Q1092393",
      "country_code": "HR",
      "state_code": "08",
      "state_id": 735,
      "country_id": 55
    }
  ]
}
