{
  "locale": "fa",
  "country": {
    "id": 142,
    "code": "MX",
    "iso3": "MEX",
    "numeric_code": "484",
    "name": "مکزیک",
    "name_default": "Mexico",
    "native": "México",
    "capital": "Ciudad de México",
    "phonecode": "52",
    "currency": "MXN",
    "currency_name": "Mexican peso",
    "currency_symbol": "$",
    "tld": ".mx",
    "population": 130575786,
    "gdp": 1692640,
    "region": "Americas",
    "region_id": 2,
    "subregion": "Northern America",
    "subregion_id": 6,
    "nationality": "Mexican",
    "timezones": [
      {
        "zoneName": "America/Bahia_Banderas",
        "gmtOffset": -21600,
        "gmtOffsetName": "UTC-06:00",
        "abbreviation": "CST",
        "tzName": "Central Standard Time (North America"
      },
      {
        "zoneName": "America/Cancun",
        "gmtOffset": -18000,
        "gmtOffsetName": "UTC-05:00",
        "abbreviation": "EST",
        "tzName": "Eastern Standard Time (North America"
      },
      {
        "zoneName": "America/Chihuahua",
        "gmtOffset": -25200,
        "gmtOffsetName": "UTC-07:00",
        "abbreviation": "MST",
        "tzName": "Mountain Standard Time (North America"
      },
      {
        "zoneName": "America/Hermosillo",
        "gmtOffset": -25200,
        "gmtOffsetName": "UTC-07:00",
        "abbreviation": "MST",
        "tzName": "Mountain Standard Time (North America"
      },
      {
        "zoneName": "America/Matamoros",
        "gmtOffset": -21600,
        "gmtOffsetName": "UTC-06:00",
        "abbreviation": "CST",
        "tzName": "Central Standard Time (North America"
      },
      {
        "zoneName": "America/Mazatlan",
        "gmtOffset": -25200,
        "gmtOffsetName": "UTC-07:00",
        "abbreviation": "MST",
        "tzName": "Mountain Standard Time (North America"
      },
      {
        "zoneName": "America/Merida",
        "gmtOffset": -21600,
        "gmtOffsetName": "UTC-06:00",
        "abbreviation": "CST",
        "tzName": "Central Standard Time (North America"
      },
      {
        "zoneName": "America/Mexico_City",
        "gmtOffset": -21600,
        "gmtOffsetName": "UTC-06:00",
        "abbreviation": "CST",
        "tzName": "Central Standard Time (North America"
      },
      {
        "zoneName": "America/Monterrey",
        "gmtOffset": -21600,
        "gmtOffsetName": "UTC-06:00",
        "abbreviation": "CST",
        "tzName": "Central Standard Time (North America"
      },
      {
        "zoneName": "America/Ojinaga",
        "gmtOffset": -25200,
        "gmtOffsetName": "UTC-07:00",
        "abbreviation": "MST",
        "tzName": "Mountain Standard Time (North America"
      },
      {
        "zoneName": "America/Tijuana",
        "gmtOffset": -28800,
        "gmtOffsetName": "UTC-08:00",
        "abbreviation": "PST",
        "tzName": "Pacific Standard Time (North America"
      }
    ],
    "latitude": "23.00000000",
    "longitude": "-102.00000000",
    "emoji": "🇲🇽",
    "emojiU": "U+1F1F2 U+1F1FD"
  },
  "state": {
    "id": 3469,
    "code": "GUA",
    "iso2": "GUA",
    "iso3166_2": "MX-GUA",
    "fips_code": "11",
    "name": "گوآناخوآتو",
    "name_default": "Guanajuato",
    "native": "Guanajuato",
    "type": "state",
    "level": null,
    "parent_id": null,
    "population": 6166934,
    "latitude": "21.01901450",
    "longitude": "-101.25735860",
    "timezone": "America/Mexico_City",
    "wikiDataId": "Q46475",
    "country_code": "MX"
  },
  "cities": [
    {
      "id": 68015,
      "name": "آباسولو",
      "name_default": "Abasolo",
      "native": "Tarifa",
      "type": "adm2",
      "level": null,
      "parent_id": null,
      "population": 27389,
      "latitude": "20.44997000",
      "longitude": "-101.53073000",
      "timezone": "America/Mexico_City",
      "wikiDataId": "Q2991444",
      "country_code": "MX",
      "state_code": "GUA",
      "state_id": 3469,
      "country_id": 142
    },
    {
      "id": 68087,
      "name": "آکامبارو",
      "name_default": "Acámbaro",
      "native": "Acámbaro",
      "type": "adm2",
      "level": null,
      "parent_id": null,
      "population": 57972,
      "latitude": "20.03085000",
      "longitude": "-100.72194000",
      "timezone": "America/Mexico_City",
      "wikiDataId": "Q947689",
      "country_code": "MX",
      "state_code": "GUA",
      "state_id": 3469,
      "country_id": 142
    },
    {
      "id": 68088,
      "name": "آجونتاس دل ریو",
      "name_default": "Adjuntas del Río",
      "native": "Adjuntas del Río",
      "type": "city",
      "level": null,
      "parent_id": null,
      "population": 1068,
      "latitude": "21.11667000",
      "longitude": "-100.86806000",
      "timezone": "America/Mexico_City",
      "wikiDataId": "Q20205435",
      "country_code": "MX",
      "state_code": "GUA",
      "state_id": 3469,
      "country_id": 142
    },
    {
      "id": 68125,
      "name": "آگواس بوئناس",
      "name_default": "Aguas Buenas",
      "native": "Aguas Buenas",
      "type": "city",
      "level": null,
      "parent_id": null,
      "population": 1025,
      "latitude": "20.97028000",
      "longitude": "-101.37250000",
      "timezone": "America/Mexico_City",
      "wikiDataId": "Q20133038",
      "country_code": "MX",
      "state_code": "GUA",
      "state_id": 3469,
      "country_id": 142
    },
    {
      "id": 68181,
      "name": "آلکوسر",
      "name_default": "Alcocer",
      "native": "Alcocer",
      "type": "city",
      "level": null,
      "parent_id": null,
      "population": 1224,
      "latitude": "20.86867000",
      "longitude": "-100.70456000",
      "timezone": "America/Mexico_City",
      "wikiDataId": "Q20134076",
      "country_code": "MX",
      "state_code": "GUA",
      "state_id": 3469,
      "country_id": 142
    },
    {
      "id": 68185,
      "name": "آلداما",
      "name_default": "Aldama",
      "native": "Aldama",
      "type": "city",
      "level": null,
      "parent_id": null,
      "population": 4175,
      "latitude": "20.81641000",
      "longitude": "-101.31467000",
      "timezone": "America/Mexico_City",
      "wikiDataId": "Q20205452",
      "country_code": "MX",
      "state_code": "GUA",
      "state_id": 3469,
      "country_id": 142
    },
    {
      "id": 68191,
      "name": "آلفارو",
      "name_default": "Alfaro",
      "native": "Alfaro",
      "type": "city",
      "level": null,
      "parent_id": null,
      "population": 2381,
      "latitude": "21.14941000",
      "longitude": "-101.60611000",
      "timezone": "America/Mexico_City",
      "wikiDataId": "Q27796636",
      "country_code": "MX",
      "state_code": "GUA",
      "state_id": 3469,
      "country_id": 142
    },
    {
      "id": 68253,
      "name": "آمچه",
      "name_default": "Ameche",
      "native": "Amatake",
      "type": "city",
      "level": null,
      "parent_id": null,
      "population": 2869,
      "latitude": "20.55261000",
      "longitude": "-100.58367000",
      "timezone": "America/Mexico_City",
      "wikiDataId": "Q4064121",
      "country_code": "MX",
      "state_code": "GUA",
      "state_id": 3469,
      "country_id": 142
    },
    {
      "id": 68296,
      "name": "آپازئو ال آلتو",
      "name_default": "Apaseo el Alto",
      "native": "Apaseo el Alto",
      "type": "adm2",
      "level": null,
      "parent_id": null,
      "population": 27991,
      "latitude": "20.45798000",
      "longitude": "-100.62081000",
      "timezone": "America/Mexico_City",
      "wikiDataId": "Q2651599",
      "country_code": "MX",
      "state_code": "GUA",
      "state_id": 3469,
      "country_id": 142
    },
    {
      "id": 68297,
      "name": "آپازئو ال گرانده",
      "name_default": "Apaseo el Grande",
      "native": "Apaseo el Grande",
      "type": "adm2",
      "level": null,
      "parent_id": null,
      "population": 31264,
      "latitude": "20.54495000",
      "longitude": "-100.68462000",
      "timezone": "America/Mexico_City",
      "wikiDataId": "Q2651604",
      "country_code": "MX",
      "state_code": "GUA",
      "state_id": 3469,
      "country_id": 142
    },
    {
      "id": 68329,
      "name": "آرانداس",
      "name_default": "Arandas",
      "native": "Arandas",
      "type": "city",
      "level": null,
      "parent_id": null,
      "population": 7722,
      "latitude": "20.72468000",
      "longitude": "-101.37296000",
      "timezone": "America/Mexico_City",
      "wikiDataId": "Q625719",
      "country_code": "MX",
      "state_code": "GUA",
      "state_id": 3469,
      "country_id": 142
    },
    {
      "id": 68392,
      "name": "آتارجه",
      "name_default": "Atarjea",
      "native": "Atarja",
      "type": "adm2",
      "level": null,
      "parent_id": null,
      "population": 389,
      "latitude": "21.26777000",
      "longitude": "-99.71914000",
      "timezone": "America/Mexico_City",
      "wikiDataId": "Q2651750",
      "country_code": "MX",
      "state_code": "GUA",
      "state_id": 3469,
      "country_id": 142
    },
    {
      "id": 68505,
      "name": "باجیو د بونیلاس",
      "name_default": "Bajío de Bonillas",
      "native": "Bajío de Bonillas",
      "type": "abandoned",
      "level": null,
      "parent_id": null,
      "population": 3377,
      "latitude": "20.94944000",
      "longitude": "-101.49528000",
      "timezone": "America/Mexico_City",
      "wikiDataId": "Q20140376",
      "country_code": "MX",
      "state_code": "GUA",
      "state_id": 3469,
      "country_id": 142
    },
    {
      "id": 68523,
      "name": "بارِتوس",
      "name_default": "Barretos",
      "native": "Barrecos",
      "type": "city",
      "level": null,
      "parent_id": null,
      "population": 1658,
      "latitude": "20.93933000",
      "longitude": "-101.64282000",
      "timezone": "America/Mexico_City",
      "wikiDataId": "Q20141424",
      "country_code": "MX",
      "state_code": "GUA",
      "state_id": 3469,
      "country_id": 142
    },
    {
      "id": 68543,
      "name": "باریو د گوادالوپ دل مزکویتیو",
      "name_default": "Barrio de Guadalupe del Mezquitillo",
      "native": "Barrio de Guadalupe del Mezquitillo",
      "type": "city",
      "level": null,
      "parent_id": null,
      "population": 1084,
      "latitude": "20.94417000",
      "longitude": "-101.80083000",
      "timezone": "America/Mexico_City",
      "wikiDataId": "Q20205514",
      "country_code": "MX",
      "state_code": "GUA",
      "state_id": 3469,
      "country_id": 142
    },
    {
      "id": 68562,
      "name": "بارون",
      "name_default": "Barrón",
      "native": "Barrón",
      "type": "city",
      "level": null,
      "parent_id": null,
      "population": 1964,
      "latitude": "20.67667000",
      "longitude": "-101.08423000",
      "timezone": "America/Mexico_City",
      "wikiDataId": "Q20274769",
      "country_code": "MX",
      "state_code": "GUA",
      "state_id": 3469,
      "country_id": 142
    },
    {
      "id": 68640,
      "name": "بوکیلاس",
      "name_default": "Boquillas",
      "native": "Boquillas",
      "type": "city",
      "level": null,
      "parent_id": null,
      "population": 1704,
      "latitude": "20.41642000",
      "longitude": "-101.43333000",
      "timezone": "America/Mexico_City",
      "wikiDataId": "Q8250809",
      "country_code": "MX",
      "state_code": "GUA",
      "state_id": 3469,
      "country_id": 142
    },
    {
      "id": 68681,
      "name": "بوئناویستا د کورتس",
      "name_default": "Buenavista de Cortés",
      "native": "Buenavista de Cortés",
      "type": "city",
      "level": null,
      "parent_id": null,
      "population": 1368,
      "latitude": "20.37326000",
      "longitude": "-101.87021000",
      "timezone": "America/Mexico_City",
      "wikiDataId": "Q20145986",
      "country_code": "MX",
      "state_code": "GUA",
      "state_id": 3469,
      "country_id": 142
    },
    {
      "id": 68733,
      "name": "کالراس د آمچه",
      "name_default": "Caleras de Ameche",
      "native": "Caleras de Ameche",
      "type": "city",
      "level": null,
      "parent_id": null,
      "population": 1967,
      "latitude": "20.56133000",
      "longitude": "-100.56013000",
      "timezone": "America/Mexico_City",
      "wikiDataId": "Q20147578",
      "country_code": "MX",
      "state_code": "GUA",
      "state_id": 3469,
      "country_id": 142
    },
    {
      "id": 68754,
      "name": "کالزادا دل تپوزان",
      "name_default": "Calzada del Tepozán",
      "native": "Calzada del Tepozán",
      "type": "city",
      "level": null,
      "parent_id": null,
      "population": 1116,
      "latitude": "20.73762000",
      "longitude": "-101.88299000",
      "timezone": "America/Mexico_City",
      "wikiDataId": "Q2656541",
      "country_code": "MX",
      "state_code": "GUA",
      "state_id": 3469,
      "country_id": 142
    },
    {
      "id": 68874,
      "name": "کانادا دِ بوستوس",
      "name_default": "Cañada de Bustos",
      "native": "Cañada de Bustos",
      "type": "city",
      "level": null,
      "parent_id": null,
      "population": 3275,
      "latitude": "20.90436000",
      "longitude": "-101.31260000",
      "timezone": "America/Mexico_City",
      "wikiDataId": "Q56605930",
      "country_code": "MX",
      "state_code": "GUA",
      "state_id": 3469,
      "country_id": 142
    },
    {
      "id": 68875,
      "name": "کانادا د کاراچو",
      "name_default": "Cañada de Caracheo",
      "native": "Cañada de Caracheo",
      "type": "city",
      "level": null,
      "parent_id": null,
      "population": 2109,
      "latitude": "20.37552000",
      "longitude": "-100.94549000",
      "timezone": "America/Mexico_City",
      "wikiDataId": "Q20205614",
      "country_code": "MX",
      "state_code": "GUA",
      "state_id": 3469,
      "country_id": 142
    },
    {
      "id": 68879,
      "name": "کانادای سیاه‌پوست",
      "name_default": "Cañada de Negros",
      "native": "Cañada de Negros",
      "type": "city",
      "level": null,
      "parent_id": null,
      "population": 1385,
      "latitude": "20.92636000",
      "longitude": "-101.92115000",
      "timezone": "America/Mexico_City",
      "wikiDataId": "Q20205614",
      "country_code": "MX",
      "state_code": "GUA",
      "state_id": 3469,
      "country_id": 142
    },
    {
      "id": 68813,
      "name": "کاپولین دِ بوستوس",
      "name_default": "Capulín de Bustos",
      "native": "Capulín de Bustos",
      "type": "city",
      "level": null,
      "parent_id": null,
      "population": 2021,
      "latitude": "20.88242000",
      "longitude": "-101.30680000",
      "timezone": "America/Mexico_City",
      "wikiDataId": "Q590948",
      "country_code": "MX",
      "state_code": "GUA",
      "state_id": 3469,
      "country_id": 142
    },
    {
      "id": 69660,
      "name": "کاردناس",
      "name_default": "Cárdenas",
      "native": "Cárdenas",
      "type": "city",
      "level": null,
      "parent_id": null,
      "population": 2885,
      "latitude": "20.63012000",
      "longitude": "-101.22040000",
      "timezone": "America/Mexico_City",
      "wikiDataId": "Q1962471",
      "country_code": "MX",
      "state_code": "GUA",
      "state_id": 3469,
      "country_id": 142
    },
    {
      "id": 68842,
      "name": "کاریزال گراند",
      "name_default": "Carrizal Grande",
      "native": "Carrizal Grande",
      "type": "city",
      "level": null,
      "parent_id": null,
      "population": 3113,
      "latitude": "20.70634000",
      "longitude": "-101.30600000",
      "timezone": "America/Mexico_City",
      "wikiDataId": "Q3894268",
      "country_code": "MX",
      "state_code": "GUA",
      "state_id": 3469,
      "country_id": 142
    },
    {
      "id": 68891,
      "name": "سلایا",
      "name_default": "Celaya",
      "native": "Celaya",
      "type": "adm2",
      "level": null,
      "parent_id": null,
      "population": 378143,
      "latitude": "20.52353000",
      "longitude": "-100.81570000",
      "timezone": "America/Mexico_City",
      "wikiDataId": "Q580649",
      "country_code": "MX",
      "state_code": "GUA",
      "state_id": 3469,
      "country_id": 142
    },
    {
      "id": 68899,
      "name": "مرکز آشنایی با سولداد",
      "name_default": "Centro Familiar la Soledad",
      "native": "Centro Familiar la Soledad",
      "type": "city",
      "level": null,
      "parent_id": null,
      "population": 32159,
      "latitude": "21.13500000",
      "longitude": "-101.74972000",
      "timezone": "America/Mexico_City",
      "wikiDataId": "Q20205738",
      "country_code": "MX",
      "state_code": "GUA",
      "state_id": 3469,
      "country_id": 142
    },
    {
      "id": 68904,
      "name": "سرانو",
      "name_default": "Cerano",
      "native": "Cerano",
      "type": "city",
      "level": null,
      "parent_id": null,
      "population": 6530,
      "latitude": "20.10877000",
      "longitude": "-101.38710000",
      "timezone": "America/Mexico_City",
      "wikiDataId": "Q978419",
      "country_code": "MX",
      "state_code": "GUA",
      "state_id": 3469,
      "country_id": 142
    },
    {
      "id": 68910,
      "name": "سریتو د گاسکا",
      "name_default": "Cerrito de Gasca",
      "native": "Cerrito de Gasca",
      "type": "city",
      "level": null,
      "parent_id": null,
      "population": 1214,
      "latitude": "20.61829000",
      "longitude": "-101.06200000",
      "timezone": "America/Mexico_City",
      "wikiDataId": "Q20275367",
      "country_code": "MX",
      "state_code": "GUA",
      "state_id": 3469,
      "country_id": 142
    },
    {
      "id": 68915,
      "name": "سریتوس",
      "name_default": "Cerritos",
      "native": "Cerritos",
      "type": "city",
      "level": null,
      "parent_id": null,
      "population": 1015,
      "latitude": "20.88552000",
      "longitude": "-100.59880000",
      "timezone": "America/Mexico_City",
      "wikiDataId": "Q20257423",
      "country_code": "MX",
      "state_code": "GUA",
      "state_id": 3469,
      "country_id": 142
    },
    {
      "id": 68923,
      "name": "سرو کلرادو",
      "name_default": "Cerro Colorado",
      "native": "Cerro Colorado",
      "type": "city",
      "level": null,
      "parent_id": null,
      "population": 848,
      "latitude": "20.40111000",
      "longitude": "-101.32451000",
      "timezone": "America/Mexico_City",
      "wikiDataId": "Q27772333",
      "country_code": "MX",
      "state_code": "GUA",
      "state_id": 3469,
      "country_id": 142
    },
    {
      "id": 68928,
      "name": "سرو گوردو",
      "name_default": "Cerro Gordo",
      "native": "Cerro Gordo",
      "type": "city",
      "level": null,
      "parent_id": null,
      "population": 5460,
      "latitude": "20.59294000",
      "longitude": "-101.12684000",
      "timezone": "America/Mexico_City",
      "wikiDataId": "Q20257879",
      "country_code": "MX",
      "state_code": "GUA",
      "state_id": 3469,
      "country_id": 142
    },
    {
      "id": 68971,
      "name": "چاماکوارو",
      "name_default": "Chamácuaro",
      "native": "Chamácuaro",
      "type": "city",
      "level": null,
      "parent_id": null,
      "population": 1288,
      "latitude": "20.10444000",
      "longitude": "-100.82756000",
      "timezone": "America/Mexico_City",
      "wikiDataId": "Q1061542",
      "country_code": "MX",
      "state_code": "GUA",
      "state_id": 3469,
      "country_id": 142
    },
    {
      "id": 68997,
      "name": "چارکو د پانتوخا",
      "name_default": "Charco de Pantoja",
      "native": "Charco de Pantoja",
      "type": "city",
      "level": null,
      "parent_id": null,
      "population": 1777,
      "latitude": "20.38949000",
      "longitude": "-101.35436000",
      "timezone": "America/Mexico_City",
      "wikiDataId": "Q20220502",
      "country_code": "MX",
      "state_code": "GUA",
      "state_id": 3469,
      "country_id": 142
    },
    {
      "id": 69029,
      "name": "چیچیمکیلاس",
      "name_default": "Chichimequillas",
      "native": "Chichimequillas",
      "type": "city",
      "level": null,
      "parent_id": null,
      "population": 2518,
      "latitude": "21.03716000",
      "longitude": "-101.44274000",
      "timezone": "America/Mexico_City",
      "wikiDataId": "Q2889052",
      "country_code": "MX",
      "state_code": "GUA",
      "state_id": 3469,
      "country_id": 142
    },
    {
      "id": 69094,
      "name": "چیریمویا (Estación Chirimoya)",
      "name_default": "Chirimoya (Estación Chirimoya)",
      "native": "Chirimoya (Estación Chirimoya)",
      "type": "city",
      "level": null,
      "parent_id": null,
      "population": 1014,
      "latitude": "21.59278000",
      "longitude": "-101.09139000",
      "timezone": "America/Mexico_City",
      "wikiDataId": "Q20205833",
      "country_code": "MX",
      "state_code": "GUA",
      "state_id": 3469,
      "country_id": 142
    },
    {
      "id": 69124,
      "name": "چوریپیتزئو",
      "name_default": "Churipitzeo",
      "native": "El sonpitzeo",
      "type": "city",
      "level": null,
      "parent_id": null,
      "population": 2105,
      "latitude": "20.41185000",
      "longitude": "-101.74206000",
      "timezone": "America/Mexico_City",
      "wikiDataId": "Q10748091",
      "country_code": "MX",
      "state_code": "GUA",
      "state_id": 3469,
      "country_id": 142
    },
    {
      "id": 69129,
      "name": "سیه‌نگیولا",
      "name_default": "Cieneguilla",
      "native": "Cieneguilla",
      "type": "city",
      "level": null,
      "parent_id": null,
      "population": 1190,
      "latitude": "21.24833000",
      "longitude": "-100.27389000",
      "timezone": "America/Mexico_City",
      "wikiDataId": "Q20205838",
      "country_code": "MX",
      "state_code": "GUA",
      "state_id": 3469,
      "country_id": 142
    },
    {
      "id": 69168,
      "name": "سیوداد مانوئل دوبلادو",
      "name_default": "Ciudad Manuel Doblado",
      "native": "Ciudad Manuel Doblado",
      "type": "adm2",
      "level": null,
      "parent_id": null,
      "population": 13956,
      "latitude": "20.72888000",
      "longitude": "-101.95226000",
      "timezone": "America/Mexico_City",
      "wikiDataId": "Q18671878",
      "country_code": "MX",
      "state_code": "GUA",
      "state_id": 3469,
      "country_id": 142
    },
    {
      "id": 69205,
      "name": "کوچیتی",
      "name_default": "Coachiti",
      "native": "Entrenador",
      "type": "city",
      "level": null,
      "parent_id": null,
      "population": 1775,
      "latitude": "20.55944000",
      "longitude": "-100.58944000",
      "timezone": "America/Mexico_City",
      "wikiDataId": "Q20276075",
      "country_code": "MX",
      "state_code": "GUA",
      "state_id": 3469,
      "country_id": 142
    },
    {
      "id": 69264,
      "name": "کولونیا ۱۸ دِ مارزو",
      "name_default": "Colonia 18 de Marzo",
      "native": "Colonia 18 de Marzo",
      "type": "city",
      "level": null,
      "parent_id": null,
      "population": 2065,
      "latitude": "20.55556000",
      "longitude": "-101.03556000",
      "timezone": "America/Mexico_City",
      "wikiDataId": "Q20205861",
      "country_code": "MX",
      "state_code": "GUA",
      "state_id": 3469,
      "country_id": 142
    },
    {
      "id": 69302,
      "name": "Colonia Fraccionamiento el Puente",
      "name_default": "Colonia Fraccionamiento el Puente",
      "native": "Colonia Fraccionamiento el Puente",
      "type": "city",
      "level": null,
      "parent_id": null,
      "population": 1087,
      "latitude": "20.52361000",
      "longitude": "-100.89667000",
      "timezone": "America/Mexico_City",
      "wikiDataId": "Q20129124",
      "country_code": "MX",
      "state_code": "GUA",
      "state_id": 3469,
      "country_id": 142
    },
    {
      "id": 69304,
      "name": "کولونیا فرانسیسکو خاویر مینا",
      "name_default": "Colonia Francisco Javier Mina",
      "native": "Colonia Francisco Javier Mina",
      "type": "city",
      "level": null,
      "parent_id": null,
      "population": 1167,
      "latitude": "20.97944000",
      "longitude": "-101.41639000",
      "timezone": "America/Mexico_City",
      "wikiDataId": "Q20276342",
      "country_code": "MX",
      "state_code": "GUA",
      "state_id": 3469,
      "country_id": 142
    },
    {
      "id": 69393,
      "name": "کولونیا لا کالزادا (لا اولا)",
      "name_default": "Colonia la Calzada (La Olla)",
      "native": "Colonia la Calzada (La Olla)",
      "type": "city",
      "level": null,
      "parent_id": null,
      "population": 1015,
      "latitude": "20.50278000",
      "longitude": "-100.95889000",
      "timezone": "America/Mexico_City",
      "wikiDataId": "Q20205905",
      "country_code": "MX",
      "state_code": "GUA",
      "state_id": 3469,
      "country_id": 142
    },
    {
      "id": 69319,
      "name": "کولونیا لاتینوآمریکانا",
      "name_default": "Colonia Latinoamericana",
      "native": "Colonia Latinoamericana",
      "type": "city",
      "level": null,
      "parent_id": null,
      "population": 1972,
      "latitude": "21.03028000",
      "longitude": "-101.70583000",
      "timezone": "America/Mexico_City",
      "wikiDataId": "Q20276399",
      "country_code": "MX",
      "state_code": "GUA",
      "state_id": 3469,
      "country_id": 142
    },
    {
      "id": 69332,
      "name": "کولونیا مورلوس",
      "name_default": "Colonia Morelos",
      "native": "Colonia Morelos",
      "type": "city",
      "level": null,
      "parent_id": null,
      "population": 1102,
      "latitude": "20.36832000",
      "longitude": "-101.89937000",
      "timezone": "America/Mexico_City",
      "wikiDataId": "Q20130901",
      "country_code": "MX",
      "state_code": "GUA",
      "state_id": 3469,
      "country_id": 142
    },
    {
      "id": 69336,
      "name": "Colonia Morelos de Guadalupe de Rivera",
      "name_default": "Colonia Morelos de Guadalupe de Rivera",
      "native": "Colonia Morelos de Guadalupe de Rivera",
      "type": "city",
      "level": null,
      "parent_id": null,
      "population": 1144,
      "latitude": "20.59556000",
      "longitude": "-101.44833000",
      "timezone": "America/Mexico_City",
      "wikiDataId": "Q20205923",
      "country_code": "MX",
      "state_code": "GUA",
      "state_id": 3469,
      "country_id": 142
    },
    {
      "id": 69341,
      "name": "کولونیا نوئوو مکزیکو",
      "name_default": "Colonia Nuevo México",
      "native": "Colonia Nuevo México",
      "type": "city",
      "level": null,
      "parent_id": null,
      "population": 3585,
      "latitude": "20.98475000",
      "longitude": "-101.48502000",
      "timezone": "America/Mexico_City",
      "wikiDataId": "Q20209086",
      "country_code": "MX",
      "state_code": "GUA",
      "state_id": 3469,
      "country_id": 142
    },
    {
      "id": 69345,
      "name": "کولونیا پادره هیدالگو",
      "name_default": "Colonia Padre Hidalgo",
      "native": "Colonia Padre Hidalgo",
      "type": "city",
      "level": null,
      "parent_id": null,
      "population": 1118,
      "latitude": "21.17056000",
      "longitude": "-100.93556000",
      "timezone": "America/Mexico_City",
      "wikiDataId": "Q20276453",
      "country_code": "MX",
      "state_code": "GUA",
      "state_id": 3469,
      "country_id": 142
    },
    {
      "id": 69349,
      "name": "کولونیا پاتریا نوئوا",
      "name_default": "Colonia Patria Nueva",
      "native": "Colonia Patria Nueva",
      "type": "city",
      "level": null,
      "parent_id": null,
      "population": 1214,
      "latitude": "20.52833000",
      "longitude": "-100.87944000",
      "timezone": "America/Mexico_City",
      "wikiDataId": "Q20205933",
      "country_code": "MX",
      "state_code": "GUA",
      "state_id": 3469,
      "country_id": 142
    },
    {
      "id": 69350,
      "name": "کولونیا پدرو ماریا آنایا",
      "name_default": "Colonia Pedro María Anaya",
      "native": "Colonia Pedro María Anaya",
      "type": "city",
      "level": null,
      "parent_id": null,
      "population": 1543,
      "latitude": "20.52611000",
      "longitude": "-100.87778000",
      "timezone": "America/Mexico_City",
      "wikiDataId": "Q20205935",
      "country_code": "MX",
      "state_code": "GUA",
      "state_id": 3469,
      "country_id": 142
    },
    {
      "id": 69353,
      "name": "کولونیا رافائل کورالس آیالا",
      "name_default": "Colonia Rafael Corrales Ayala",
      "native": "Colonia Rafael Corrales Ayala",
      "type": "city",
      "level": null,
      "parent_id": null,
      "population": 1020,
      "latitude": "20.90194000",
      "longitude": "-101.51611000",
      "timezone": "America/Mexico_City",
      "wikiDataId": "Q20205937",
      "country_code": "MX",
      "state_code": "GUA",
      "state_id": 3469,
      "country_id": 142
    },
    {
      "id": 69367,
      "name": "کولونیا سن لوئیس ری",
      "name_default": "Colonia San Luis Rey",
      "native": "Colonia San Luis Rey",
      "type": "city",
      "level": null,
      "parent_id": null,
      "population": 2707,
      "latitude": "20.93556000",
      "longitude": "-100.73611000",
      "timezone": "America/Mexico_City",
      "wikiDataId": "Q20205943",
      "country_code": "MX",
      "state_code": "GUA",
      "state_id": 3469,
      "country_id": 142
    },
    {
      "id": 69421,
      "name": "کومانجیلا",
      "name_default": "Comanjilla",
      "native": "Comanjilla",
      "type": "city",
      "level": null,
      "parent_id": null,
      "population": 2955,
      "latitude": "21.06510000",
      "longitude": "-101.47303000",
      "timezone": "America/Mexico_City",
      "wikiDataId": "Q20132978",
      "country_code": "MX",
      "state_code": "GUA",
      "state_id": 3469,
      "country_id": 142
    },
    {
      "id": 69428,
      "name": "کامفورت",
      "name_default": "Comonfort",
      "native": "Comonfort",
      "type": "adm2",
      "level": null,
      "parent_id": null,
      "population": 24228,
      "latitude": "20.72278000",
      "longitude": "-100.75946000",
      "timezone": "America/Mexico_City",
      "wikiDataId": "Q2651278",
      "country_code": "MX",
      "state_code": "GUA",
      "state_id": 3469,
      "country_id": 142
    },
    {
      "id": 69482,
      "name": "کورونئو",
      "name_default": "Coroneo",
      "native": "Coroneo",
      "type": "adm2",
      "level": null,
      "parent_id": null,
      "population": 4024,
      "latitude": "20.20001000",
      "longitude": "-100.36546000",
      "timezone": "America/Mexico_City",
      "wikiDataId": "Q2651332",
      "country_code": "MX",
      "state_code": "GUA",
      "state_id": 3469,
      "country_id": 142
    },
    {
      "id": 69488,
      "name": "کورال د پیدراس د آریبا",
      "name_default": "Corral de Piedras de Arriba",
      "native": "Corral de Piedras de Arriba",
      "type": "city",
      "level": null,
      "parent_id": null,
      "population": 2037,
      "latitude": "20.97577000",
      "longitude": "-100.59474000",
      "timezone": "America/Mexico_City",
      "wikiDataId": "Q20134517",
      "country_code": "MX",
      "state_code": "GUA",
      "state_id": 3469,
      "country_id": 142
    },
    {
      "id": 69490,
      "name": "کورالخو د آریبا",
      "name_default": "Corralejo de Arriba",
      "native": "Corralejo de Arriba",
      "type": "city",
      "level": null,
      "parent_id": null,
      "population": 1026,
      "latitude": "20.89667000",
      "longitude": "-100.65444000",
      "timezone": "America/Mexico_City",
      "wikiDataId": "Q20134699",
      "country_code": "MX",
      "state_code": "GUA",
      "state_id": 3469,
      "country_id": 142
    },
    {
      "id": 69494,
      "name": "کورتازار",
      "name_default": "Cortazar",
      "native": "Corteza",
      "type": "adm2",
      "level": null,
      "parent_id": null,
      "population": 61658,
      "latitude": "20.48362000",
      "longitude": "-100.96237000",
      "timezone": "America/Mexico_City",
      "wikiDataId": "Q25425552",
      "country_code": "MX",
      "state_code": "GUA",
      "state_id": 3469,
      "country_id": 142
    },
    {
      "id": 69565,
      "name": "کوارتا بریگادا",
      "name_default": "Cuarta Brigada",
      "native": "Cuarta Brigada",
      "type": "city",
      "level": null,
      "parent_id": null,
      "population": 2973,
      "latitude": "20.62194000",
      "longitude": "-101.28001000",
      "timezone": "America/Mexico_City",
      "wikiDataId": "Q20205980",
      "country_code": "MX",
      "state_code": "GUA",
      "state_id": 3469,
      "country_id": 142
    },
    {
      "id": 69605,
      "name": "کوچیچواتو",
      "name_default": "Cuchicuato",
      "native": "Cuchicuato",
      "type": "city",
      "level": null,
      "parent_id": null,
      "population": 2896,
      "latitude": "20.66092000",
      "longitude": "-101.46203000",
      "timezone": "America/Mexico_City",
      "wikiDataId": "Q20205992",
      "country_code": "MX",
      "state_code": "GUA",
      "state_id": 3469,
      "country_id": 142
    },
    {
      "id": 69616,
      "name": "کوئرامارو",
      "name_default": "Cuerámaro",
      "native": "Cuerámaro",
      "type": "adm2",
      "level": null,
      "parent_id": null,
      "population": 13948,
      "latitude": "20.62546000",
      "longitude": "-101.67242000",
      "timezone": "America/Mexico_City",
      "wikiDataId": "Q2651369",
      "country_code": "MX",
      "state_code": "GUA",
      "state_id": 3469,
      "country_id": 142
    },
    {
      "id": 69620,
      "name": "کوئستا د پنونز",
      "name_default": "Cuesta de Peñones",
      "native": "Cuesta de Peñones",
      "type": "city",
      "level": null,
      "parent_id": null,
      "population": 1219,
      "latitude": "21.08400000",
      "longitude": "-100.23671000",
      "timezone": "America/Mexico_City",
      "wikiDataId": "Q20137970",
      "country_code": "MX",
      "state_code": "GUA",
      "state_id": 3469,
      "country_id": 142
    },
    {
      "id": 69642,
      "name": "کوپارئو",
      "name_default": "Cupareo",
      "native": "Cuacao",
      "type": "city",
      "level": null,
      "parent_id": null,
      "population": 2061,
      "latitude": "20.22876000",
      "longitude": "-101.01806000",
      "timezone": "America/Mexico_City",
      "wikiDataId": "Q5194433",
      "country_code": "MX",
      "state_code": "GUA",
      "state_id": 3469,
      "country_id": 142
    },
    {
      "id": 69670,
      "name": "دی پارال",
      "name_default": "De Parral",
      "native": "De Parral",
      "type": "city",
      "level": null,
      "parent_id": null,
      "population": 1114,
      "latitude": "20.45611000",
      "longitude": "-101.00778000",
      "timezone": "America/Mexico_City",
      "wikiDataId": "Q20138703",
      "country_code": "MX",
      "state_code": "GUA",
      "state_id": 3469,
      "country_id": 142
    },
    {
      "id": 69674,
      "name": "دلگادو د آباخو",
      "name_default": "Delgado de Abajo",
      "native": "Delgado de Abajo",
      "type": "city",
      "level": null,
      "parent_id": null,
      "population": 1172,
      "latitude": "20.71749000",
      "longitude": "-100.89338000",
      "timezone": "America/Mexico_City",
      "wikiDataId": "Q20269102",
      "country_code": "MX",
      "state_code": "GUA",
      "state_id": 3469,
      "country_id": 142
    },
    {
      "id": 69675,
      "name": "دلگادو د آریبا",
      "name_default": "Delgado de Arriba",
      "native": "Delgado de Arriba",
      "type": "city",
      "level": null,
      "parent_id": null,
      "population": 2038,
      "latitude": "20.72222000",
      "longitude": "-100.90080000",
      "timezone": "America/Mexico_City",
      "wikiDataId": "Q20269102",
      "country_code": "MX",
      "state_code": "GUA",
      "state_id": 3469,
      "country_id": 142
    },
    {
      "id": 69680,
      "name": "Derramadero Segundo (Infiernillo)",
      "name_default": "Derramadero Segundo (Infiernillo)",
      "native": "Derramadero Segundo (Infiernillo)",
      "type": "city",
      "level": null,
      "parent_id": null,
      "population": 1023,
      "latitude": "21.09750000",
      "longitude": "-100.51417000",
      "timezone": "America/Mexico_City",
      "wikiDataId": "Q20276863",
      "country_code": "MX",
      "state_code": "GUA",
      "state_id": 3469,
      "country_id": 142
    },
    {
      "id": 69699,
      "name": "دکتر مورا",
      "name_default": "Doctor Mora",
      "native": "Doctor Mora",
      "type": "adm2",
      "level": null,
      "parent_id": null,
      "population": 5140,
      "latitude": "21.14246000",
      "longitude": "-100.31966000",
      "timezone": "America/Mexico_City",
      "wikiDataId": "Q2448224",
      "country_code": "MX",
      "state_code": "GUA",
      "state_id": 3469,
      "country_id": 142
    },
    {
      "id": 69706,
      "name": "Dolores Hidalgo Cuna de la Independencia Nacional",
      "name_default": "Dolores Hidalgo Cuna de la Independencia Nacional",
      "native": "Dolores Hidalgo Cuna de la Independencia Nacional",
      "type": "city",
      "level": null,
      "parent_id": null,
      "population": 67101,
      "latitude": "21.15611000",
      "longitude": "-100.93250000",
      "timezone": "America/Mexico_City",
      "wikiDataId": "Q17487868",
      "country_code": "MX",
      "state_code": "GUA",
      "state_id": 3469,
      "country_id": 142
    },
    {
      "id": 69710,
      "name": "دون دیگو",
      "name_default": "Don Diego",
      "native": "Don Diego",
      "type": "city",
      "level": null,
      "parent_id": null,
      "population": 1040,
      "latitude": "20.69791000",
      "longitude": "-100.90209000",
      "timezone": "America/Mexico_City",
      "wikiDataId": "Q20139549",
      "country_code": "MX",
      "state_code": "GUA",
      "state_id": 3469,
      "country_id": 142
    },
    {
      "id": 69711,
      "name": "دون فرانسیسکو",
      "name_default": "Don Francisco",
      "native": "Don Francisco",
      "type": "city",
      "level": null,
      "parent_id": null,
      "population": 1010,
      "latitude": "20.90281000",
      "longitude": "-100.91873000",
      "timezone": "America/Mexico_City",
      "wikiDataId": "Q20139549",
      "country_code": "MX",
      "state_code": "GUA",
      "state_id": 3469,
      "country_id": 142
    },
    {
      "id": 69730,
      "name": "دوآرته",
      "name_default": "Duarte",
      "native": "Duarte",
      "type": "city",
      "level": null,
      "parent_id": null,
      "population": 6261,
      "latitude": "21.08712000",
      "longitude": "-101.52431000",
      "timezone": "America/Mexico_City",
      "wikiDataId": "Q20206023",
      "country_code": "MX",
      "state_code": "GUA",
      "state_id": 3469,
      "country_id": 142
    },
    {
      "id": 69769,
      "name": "اجیدو خسوس ماریا",
      "name_default": "Ejido Jesús María",
      "native": "Ejido Jesús María",
      "type": "city",
      "level": null,
      "parent_id": null,
      "population": 1324,
      "latitude": "21.14194000",
      "longitude": "-100.91167000",
      "timezone": "America/Mexico_City",
      "wikiDataId": "Q20141362",
      "country_code": "MX",
      "state_code": "GUA",
      "state_id": 3469,
      "country_id": 142
    },
    {
      "id": 69814,
      "name": "ایجیدو لا جویا",
      "name_default": "Ejido la Joya",
      "native": "Ejido la Joya",
      "type": "city",
      "level": null,
      "parent_id": null,
      "population": 1587,
      "latitude": "21.14325000",
      "longitude": "-101.73922000",
      "timezone": "America/Mexico_City",
      "wikiDataId": "Q20141412",
      "country_code": "MX",
      "state_code": "GUA",
      "state_id": 3469,
      "country_id": 142
    },
    {
      "id": 69823,
      "name": "ال آسبوچه",
      "name_default": "El Acebuche",
      "native": "El Acebuche",
      "type": "city",
      "level": null,
      "parent_id": null,
      "population": 1542,
      "latitude": "20.22311000",
      "longitude": "-100.74196000",
      "timezone": "America/Mexico_City",
      "wikiDataId": "Q1144317",
      "country_code": "MX",
      "state_code": "GUA",
      "state_id": 3469,
      "country_id": 142
    },
    {
      "id": 69860,
      "name": "ال کاناریو",
      "name_default": "El Canario",
      "native": "El Canario",
      "type": "city",
      "level": null,
      "parent_id": null,
      "population": 1157,
      "latitude": "20.15694000",
      "longitude": "-101.33556000",
      "timezone": "America/Mexico_City",
      "wikiDataId": "Q20147644",
      "country_code": "MX",
      "state_code": "GUA",
      "state_id": 3469,
      "country_id": 142
    },
    {
      "id": 69865,
      "name": "ال کاپولین",
      "name_default": "El Capulín",
      "native": "El Capulín",
      "type": "city",
      "level": null,
      "parent_id": null,
      "population": 3258,
      "latitude": "21.04043000",
      "longitude": "-100.32220000",
      "timezone": "America/Mexico_City",
      "wikiDataId": "Q50012184",
      "country_code": "MX",
      "state_code": "GUA",
      "state_id": 3469,
      "country_id": 142
    },
    {
      "id": 69868,
      "name": "ال کاراکول",
      "name_default": "El Caracol",
      "native": "El Caracol",
      "type": "city",
      "level": null,
      "parent_id": null,
      "population": 1052,
      "latitude": "20.56718000",
      "longitude": "-100.98290000",
      "timezone": "America/Mexico_City",
      "wikiDataId": "Q20262807",
      "country_code": "MX",
      "state_code": "GUA",
      "state_id": 3469,
      "country_id": 142
    },
    {
      "id": 69872,
      "name": "ال کارمن",
      "name_default": "El Carmen",
      "native": "El Carmen",
      "type": "city",
      "level": null,
      "parent_id": null,
      "population": 1693,
      "latitude": "20.64009000",
      "longitude": "-101.37259000",
      "timezone": "America/Mexico_City",
      "wikiDataId": "Q20262807",
      "country_code": "MX",
      "state_code": "GUA",
      "state_id": 3469,
      "country_id": 142
    },
    {
      "id": 69880,
      "name": "ال کارتیون",
      "name_default": "El Carretón",
      "native": "El Carretón",
      "type": "city",
      "level": null,
      "parent_id": null,
      "population": 2161,
      "latitude": "21.63045000",
      "longitude": "-100.98064000",
      "timezone": "America/Mexico_City",
      "wikiDataId": "Q20277649",
      "country_code": "MX",
      "state_code": "GUA",
      "state_id": 3469,
      "country_id": 142
    },
    {
      "id": 69883,
      "name": "ال کاریزالیتو",
      "name_default": "El Carrizalito",
      "native": "El Carrizalito",
      "type": "city",
      "level": null,
      "parent_id": null,
      "population": 2492,
      "latitude": "20.70371000",
      "longitude": "-101.32439000",
      "timezone": "America/Mexico_City",
      "wikiDataId": "Q27767960",
      "country_code": "MX",
      "state_code": "GUA",
      "state_id": 3469,
      "country_id": 142
    },
    {
      "id": 69887,
      "name": "ال کاستیلو",
      "name_default": "El Castillo",
      "native": "El Castillo",
      "type": "village",
      "level": null,
      "parent_id": null,
      "population": 2878,
      "latitude": "20.58072000",
      "longitude": "-100.49297000",
      "timezone": "America/Mexico_City",
      "wikiDataId": "Q20222798",
      "country_code": "MX",
      "state_code": "GUA",
      "state_id": 3469,
      "country_id": 142
    },
    {
      "id": 69852,
      "name": "ال سرسو",
      "name_default": "El CERESO",
      "native": "El CERESO",
      "type": "city",
      "level": null,
      "parent_id": null,
      "population": 1581,
      "latitude": "21.02222000",
      "longitude": "-101.68917000",
      "timezone": "America/Mexico_City",
      "wikiDataId": "Q20277795",
      "country_code": "MX",
      "state_code": "GUA",
      "state_id": 3469,
      "country_id": 142
    },
    {
      "id": 69901,
      "name": "ال چیناکو (ال پوجیدو)",
      "name_default": "El Chinaco (El Pujido)",
      "native": "El Chinaco (El Pujido)",
      "type": "city",
      "level": null,
      "parent_id": null,
      "population": 1534,
      "latitude": "20.52222000",
      "longitude": "-100.91972000",
      "timezone": "America/Mexico_City",
      "wikiDataId": "Q20206225",
      "country_code": "MX",
      "state_code": "GUA",
      "state_id": 3469,
      "country_id": 142
    },
    {
      "id": 69909,
      "name": "ال کوئیچیلو",
      "name_default": "El Coecillo",
      "native": "El Coecillo",
      "type": "city",
      "level": null,
      "parent_id": null,
      "population": 4002,
      "latitude": "20.97651000",
      "longitude": "-101.45010000",
      "timezone": "America/Mexico_City",
      "wikiDataId": "Q20206482",
      "country_code": "MX",
      "state_code": "GUA",
      "state_id": 3469,
      "country_id": 142
    },
    {
      "id": 69925,
      "name": "ال کوپالیلو",
      "name_default": "El Copalillo",
      "native": "El Copalillo",
      "type": "city",
      "level": null,
      "parent_id": null,
      "population": 1720,
      "latitude": "20.72745000",
      "longitude": "-101.34570000",
      "timezone": "America/Mexico_City",
      "wikiDataId": "Q20278187",
      "country_code": "MX",
      "state_code": "GUA",
      "state_id": 3469,
      "country_id": 142
    },
    {
      "id": 69944,
      "name": "ال دیویسادور",
      "name_default": "El Divisador",
      "native": "El Divisador",
      "type": "city",
      "level": null,
      "parent_id": null,
      "population": 2389,
      "latitude": "20.57722000",
      "longitude": "-101.15806000",
      "timezone": "America/Mexico_City",
      "wikiDataId": "Q20206330",
      "country_code": "MX",
      "state_code": "GUA",
      "state_id": 3469,
      "country_id": 142
    },
    {
      "id": 69957,
      "name": "ال اسکوپلو",
      "name_default": "El Escoplo",
      "native": "El Escoplo",
      "type": "city",
      "level": null,
      "parent_id": null,
      "population": 1011,
      "latitude": "20.91004000",
      "longitude": "-101.51127000",
      "timezone": "America/Mexico_City",
      "wikiDataId": "Q20238057",
      "country_code": "MX",
      "state_code": "GUA",
      "state_id": 3469,
      "country_id": 142
    },
    {
      "id": 69959,
      "name": "ال اسپخو",
      "name_default": "El Espejo",
      "native": "El Espejo",
      "type": "city",
      "level": null,
      "parent_id": null,
      "population": 1247,
      "latitude": "20.44094000",
      "longitude": "-100.55417000",
      "timezone": "America/Mexico_City",
      "wikiDataId": "Q20227835",
      "country_code": "MX",
      "state_code": "GUA",
      "state_id": 3469,
      "country_id": 142
    },
    {
      "id": 69968,
      "name": "ال فرسنو",
      "name_default": "El Fresno",
      "native": "El Fresno",
      "type": "city",
      "level": null,
      "parent_id": null,
      "population": 1226,
      "latitude": "20.27322000",
      "longitude": "-100.49154000",
      "timezone": "America/Mexico_City",
      "wikiDataId": "Q20206608",
      "country_code": "MX",
      "state_code": "GUA",
      "state_id": 3469,
      "country_id": 142
    },
    {
      "id": 69975,
      "name": "ال گالینرو",
      "name_default": "El Gallinero",
      "native": "El Gallinero",
      "type": "city",
      "level": null,
      "parent_id": null,
      "population": 1092,
      "latitude": "21.18208000",
      "longitude": "-100.95996000",
      "timezone": "America/Mexico_City",
      "wikiDataId": "Q1324181",
      "country_code": "MX",
      "state_code": "GUA",
      "state_id": 3469,
      "country_id": 142
    },
    {
      "id": 69992,
      "name": "ال هویزاچه",
      "name_default": "El Huizache",
      "native": "El Huizache",
      "type": "city",
      "level": null,
      "parent_id": null,
      "population": 1910,
      "latitude": "20.41934000",
      "longitude": "-100.95978000",
      "timezone": "America/Mexico_City",
      "wikiDataId": "Q5822143",
      "country_code": "MX",
      "state_code": "GUA",
      "state_id": 3469,
      "country_id": 142
    },
    {
      "id": 69997,
      "name": "ال جاگی",
      "name_default": "El Jaguey",
      "native": "El Jaguey",
      "type": "city",
      "level": null,
      "parent_id": null,
      "population": 1613,
      "latitude": "20.91499000",
      "longitude": "-101.63426000",
      "timezone": "America/Mexico_City",
      "wikiDataId": "Q20238098",
      "country_code": "MX",
      "state_code": "GUA",
      "state_id": 3469,
      "country_id": 142
    },
    {
      "id": 70020,
      "name": "ال لانیتو",
      "name_default": "El Llanito",
      "native": "El Llanito",
      "type": "city",
      "level": null,
      "parent_id": null,
      "population": 1186,
      "latitude": "21.12143000",
      "longitude": "-100.95110000",
      "timezone": "America/Mexico_City",
      "wikiDataId": "Q20223530",
      "country_code": "MX",
      "state_code": "GUA",
      "state_id": 3469,
      "country_id": 142
    },
    {
      "id": 70029,
      "name": "ال ماگوئی",
      "name_default": "El Maguey",
      "native": "El Maguey",
      "type": "city",
      "level": null,
      "parent_id": null,
      "population": 2289,
      "latitude": "20.98035000",
      "longitude": "-101.84651000",
      "timezone": "America/Mexico_City",
      "wikiDataId": "Q20238120",
      "country_code": "MX",
      "state_code": "GUA",
      "state_id": 3469,
      "country_id": 142
    },
    {
      "id": 70036,
      "name": "ال مزکوئیتیلو",
      "name_default": "El Mezquitillo",
      "native": "El Mezquitillo",
      "type": "city",
      "level": null,
      "parent_id": null,
      "population": 1512,
      "latitude": "20.96213000",
      "longitude": "-101.80857000",
      "timezone": "America/Mexico_City",
      "wikiDataId": "Q20206792",
      "country_code": "MX",
      "state_code": "GUA",
      "state_id": 3469,
      "country_id": 142
    },
    {
      "id": 70049,
      "name": "ال مورال",
      "name_default": "El Moral",
      "native": "El Moral",
      "type": "city",
      "level": null,
      "parent_id": null,
      "population": 1295,
      "latitude": "20.13030000",
      "longitude": "-101.28862000",
      "timezone": "America/Mexico_City",
      "wikiDataId": "Q20223726",
      "country_code": "MX",
      "state_code": "GUA",
      "state_id": 3469,
      "country_id": 142
    },
    {
      "id": 70053,
      "name": "ال ناسیمینتو",
      "name_default": "El Nacimiento",
      "native": "El Nacimiento",
      "type": "city",
      "level": null,
      "parent_id": null,
      "population": 1608,
      "latitude": "20.53596000",
      "longitude": "-100.61017000",
      "timezone": "America/Mexico_City",
      "wikiDataId": "Q20246282",
      "country_code": "MX",
      "state_code": "GUA",
      "state_id": 3469,
      "country_id": 142
    },
    {
      "id": 70054,
      "name": "ال نارنجیو",
      "name_default": "El Naranjillo",
      "native": "El Naranjillo",
      "type": "city",
      "level": null,
      "parent_id": null,
      "population": 1566,
      "latitude": "20.71417000",
      "longitude": "-101.00056000",
      "timezone": "America/Mexico_City",
      "wikiDataId": "Q20206594",
      "country_code": "MX",
      "state_code": "GUA",
      "state_id": 3469,
      "country_id": 142
    },
    {
      "id": 70102,
      "name": "ال پیکاچو",
      "name_default": "El Picacho",
      "native": "El Picacho",
      "type": "city",
      "level": null,
      "parent_id": null,
      "population": 1306,
      "latitude": "20.71016000",
      "longitude": "-100.63704000",
      "timezone": "America/Mexico_City",
      "wikiDataId": "Q4359610",
      "country_code": "MX",
      "state_code": "GUA",
      "state_id": 3469,
      "country_id": 142
    },
    {
      "id": 70141,
      "name": "ال پوستو",
      "name_default": "El Puesto",
      "native": "El Puesto",
      "type": "city",
      "level": null,
      "parent_id": null,
      "population": 1249,
      "latitude": "20.46890000",
      "longitude": "-100.82763000",
      "timezone": "America/Mexico_City",
      "wikiDataId": "Q20224156",
      "country_code": "MX",
      "state_code": "GUA",
      "state_id": 3469,
      "country_id": 142
    },
    {
      "id": 70149,
      "name": "El Recuerdo de Ancón (Xoconoxtle de Arriba)",
      "name_default": "El Recuerdo de Ancón (Xoconoxtle de Arriba)",
      "native": "El Recuerdo de Ancón (Xoconoxtle de Arriba)",
      "type": "city",
      "level": null,
      "parent_id": null,
      "population": 2405,
      "latitude": "20.63806000",
      "longitude": "-101.12694000",
      "timezone": "America/Mexico_City",
      "wikiDataId": "Q20206785",
      "country_code": "MX",
      "state_code": "GUA",
      "state_id": 3469,
      "country_id": 142
    },
    {
      "id": 70156,
      "name": "پناهگاه سس‌ها",
      "name_default": "El Refugio de los Sauces",
      "native": "El Refugio de los Sauces",
      "type": "city",
      "level": null,
      "parent_id": null,
      "population": 1360,
      "latitude": "21.01488000",
      "longitude": "-101.53084000",
      "timezone": "America/Mexico_City",
      "wikiDataId": "Q20280633",
      "country_code": "MX",
      "state_code": "GUA",
      "state_id": 3469,
      "country_id": 142
    },
    {
      "id": 70181,
      "name": "ال سابینو",
      "name_default": "El Sabino",
      "native": "El Sabino",
      "type": "city",
      "level": null,
      "parent_id": null,
      "population": 4095,
      "latitude": "20.28131000",
      "longitude": "-101.00224000",
      "timezone": "America/Mexico_City",
      "wikiDataId": "Q1858643",
      "country_code": "MX",
      "state_code": "GUA",
      "state_id": 3469,
      "country_id": 142
    },
    {
      "id": 70192,
      "name": "ال سالتو د اسپخو",
      "name_default": "El Salto de Espejo",
      "native": "El Salto de Espejo",
      "type": "city",
      "level": null,
      "parent_id": null,
      "population": 1052,
      "latitude": "20.45045000",
      "longitude": "-100.50587000",
      "timezone": "America/Mexico_City",
      "wikiDataId": "Q20206883",
      "country_code": "MX",
      "state_code": "GUA",
      "state_id": 3469,
      "country_id": 142
    },
    {
      "id": 70195,
      "name": "السالوادور (رانچیتو سن خوزه دل کارمن)",
      "name_default": "El Salvador (Ranchito San José del Carmen)",
      "native": "El Salvador (Ranchito San José del Carmen)",
      "type": "city",
      "level": null,
      "parent_id": null,
      "population": 1205,
      "latitude": "20.28750000",
      "longitude": "-100.87722000",
      "timezone": "America/Mexico_City",
      "wikiDataId": "Q20206889",
      "country_code": "MX",
      "state_code": "GUA",
      "state_id": 3469,
      "country_id": 142
    },
    {
      "id": 70201,
      "name": "ال ساوز (El Sauz de Villaseñor)",
      "name_default": "El Sauz (El Sauz de Villaseñor)",
      "native": "El Sauz (El Sauz de Villaseñor)",
      "type": "city",
      "level": null,
      "parent_id": null,
      "population": 1751,
      "latitude": "20.41056000",
      "longitude": "-100.79667000",
      "timezone": "America/Mexico_City",
      "wikiDataId": "Q20206915",
      "country_code": "MX",
      "state_code": "GUA",
      "state_id": 3469,
      "country_id": 142
    },
    {
      "id": 70212,
      "name": "ال تکولوته",
      "name_default": "El Tecolote",
      "native": "El Tecolote",
      "type": "city",
      "level": null,
      "parent_id": null,
      "population": 1411,
      "latitude": "20.88407000",
      "longitude": "-101.92432000",
      "timezone": "America/Mexico_City",
      "wikiDataId": "Q20207142",
      "country_code": "MX",
      "state_code": "GUA",
      "state_id": 3469,
      "country_id": 142
    },
    {
      "id": 70216,
      "name": "ال تجوکوته (ال دومینگو)",
      "name_default": "El Tejocote (El Domingo)",
      "native": "El Tejocote (El Domingo)",
      "type": "city",
      "level": null,
      "parent_id": null,
      "population": 1346,
      "latitude": "21.67611000",
      "longitude": "-100.91500000",
      "timezone": "America/Mexico_City",
      "wikiDataId": "Q20257968",
      "country_code": "MX",
      "state_code": "GUA",
      "state_id": 3469,
      "country_id": 142
    },
    {
      "id": 70245,
      "name": "ال تونال",
      "name_default": "El Tunal",
      "native": "El Tunal",
      "type": "city",
      "level": null,
      "parent_id": null,
      "population": 1372,
      "latitude": "20.56944000",
      "longitude": "-100.61995000",
      "timezone": "America/Mexico_City",
      "wikiDataId": "Q2990973",
      "country_code": "MX",
      "state_code": "GUA",
      "state_id": 3469,
      "country_id": 142
    },
    {
      "id": 70248,
      "name": "ال ورال",
      "name_default": "El Varal",
      "native": "El Varal",
      "type": "city",
      "level": null,
      "parent_id": null,
      "population": 1113,
      "latitude": "20.34845000",
      "longitude": "-101.60028000",
      "timezone": "America/Mexico_City",
      "wikiDataId": "Q20130874",
      "country_code": "MX",
      "state_code": "GUA",
      "state_id": 3469,
      "country_id": 142
    },
    {
      "id": 70257,
      "name": "ال ویکارلو",
      "name_default": "El Vicarlo",
      "native": "El Vicarlo",
      "type": "city",
      "level": null,
      "parent_id": null,
      "population": 1189,
      "latitude": "20.58211000",
      "longitude": "-100.67120000",
      "timezone": "America/Mexico_City",
      "wikiDataId": "Q20219114",
      "country_code": "MX",
      "state_code": "GUA",
      "state_id": 3469,
      "country_id": 142
    },
    {
      "id": 70261,
      "name": "ال زاپوته",
      "name_default": "El Zapote",
      "native": "El Zapote",
      "type": "city",
      "level": null,
      "parent_id": null,
      "population": 1052,
      "latitude": "21.73563000",
      "longitude": "-101.04905000",
      "timezone": "America/Mexico_City",
      "wikiDataId": "Q20219114",
      "country_code": "MX",
      "state_code": "GUA",
      "state_id": 3469,
      "country_id": 142
    },
    {
      "id": 70299,
      "name": "امپالمه اسکوبدو",
      "name_default": "Empalme Escobedo",
      "native": "Empalme Escobedo",
      "type": "city",
      "level": null,
      "parent_id": null,
      "population": 13384,
      "latitude": "20.67250000",
      "longitude": "-100.74675000",
      "timezone": "America/Mexico_City",
      "wikiDataId": "Q20207060",
      "country_code": "MX",
      "state_code": "GUA",
      "state_id": 3469,
      "country_id": 142
    },
    {
      "id": 70341,
      "name": "شهرک کورالخو",
      "name_default": "Estación Corralejo",
      "native": "Estación Corralejo",
      "type": "city",
      "level": null,
      "parent_id": null,
      "population": 1008,
      "latitude": "20.47000000",
      "longitude": "-101.61639000",
      "timezone": "America/Mexico_City",
      "wikiDataId": "Q20281645",
      "country_code": "MX",
      "state_code": "GUA",
      "state_id": 3469,
      "country_id": 142
    },
    {
      "id": 70360,
      "name": "شهرک سانفرانسیسکو",
      "name_default": "Estación de San Francisco",
      "native": "Estación de San Francisco",
      "type": "city",
      "level": null,
      "parent_id": null,
      "population": 1140,
      "latitude": "21.03722000",
      "longitude": "-101.82472000",
      "timezone": "America/Mexico_City",
      "wikiDataId": "Q20135887",
      "country_code": "MX",
      "state_code": "GUA",
      "state_id": 3469,
      "country_id": 142
    },
    {
      "id": 70344,
      "name": "ایستگاه خواکین",
      "name_default": "Estación Joaquín",
      "native": "Estación Joaquín",
      "type": "city",
      "level": null,
      "parent_id": null,
      "population": 1960,
      "latitude": "20.56082000",
      "longitude": "-101.51993000",
      "timezone": "America/Mexico_City",
      "wikiDataId": "Q20135893",
      "country_code": "MX",
      "state_code": "GUA",
      "state_id": 3469,
      "country_id": 142
    },
    {
      "id": 70361,
      "name": "ایستگاه پیداد",
      "name_default": "Estación la Piedad",
      "native": "Estación la Piedad",
      "type": "city",
      "level": null,
      "parent_id": null,
      "population": 1123,
      "latitude": "20.36750000",
      "longitude": "-101.99806000",
      "timezone": "America/Mexico_City",
      "wikiDataId": "Q20207085",
      "country_code": "MX",
      "state_code": "GUA",
      "state_id": 3469,
      "country_id": 142
    },
    {
      "id": 70350,
      "name": "ایستگاه پنژامو",
      "name_default": "Estación Pénjamo",
      "native": "Estación Pénjamo",
      "type": "city",
      "level": null,
      "parent_id": null,
      "population": 2615,
      "latitude": "20.39470000",
      "longitude": "-101.69188000",
      "timezone": "America/Mexico_City",
      "wikiDataId": "Q20259332",
      "country_code": "MX",
      "state_code": "GUA",
      "state_id": 3469,
      "country_id": 142
    },
    {
      "id": 70364,
      "name": "استانسیا دل لانو",
      "name_default": "Estancia del Llano",
      "native": "Estancia del Llano",
      "type": "city",
      "level": null,
      "parent_id": null,
      "population": 1863,
      "latitude": "20.51101000",
      "longitude": "-100.72637000",
      "timezone": "America/Mexico_City",
      "wikiDataId": "Q20207085",
      "country_code": "MX",
      "state_code": "GUA",
      "state_id": 3469,
      "country_id": 142
    },
    {
      "id": 70367,
      "name": "استانزوئلا د رومرو",
      "name_default": "Estanzuela de Romero",
      "native": "Stanzuela de Romero",
      "type": "city",
      "level": null,
      "parent_id": null,
      "population": 1505,
      "latitude": "20.18477000",
      "longitude": "-100.50448000",
      "timezone": "America/Mexico_City",
      "wikiDataId": "Q20259160",
      "country_code": "MX",
      "state_code": "GUA",
      "state_id": 3469,
      "country_id": 142
    },
    {
      "id": 70372,
      "name": "استرادا",
      "name_default": "Estrada",
      "native": "Estrada",
      "type": "city",
      "level": null,
      "parent_id": null,
      "population": 1715,
      "latitude": "20.52918000",
      "longitude": "-100.86550000",
      "timezone": "America/Mexico_City",
      "wikiDataId": "Q27798278",
      "country_code": "MX",
      "state_code": "GUA",
      "state_id": 3469,
      "country_id": 142
    },
    {
      "id": 70384,
      "name": "سابق هاسیندا دل کوپال",
      "name_default": "Ex-Hacienda del Copal",
      "native": "Ex-Hacienda del Copal",
      "type": "city",
      "level": null,
      "parent_id": null,
      "population": 1431,
      "latitude": "20.74083000",
      "longitude": "-101.33528000",
      "timezone": "America/Mexico_City",
      "wikiDataId": "Q20207099",
      "country_code": "MX",
      "state_code": "GUA",
      "state_id": 3469,
      "country_id": 142
    },
    {
      "id": 70499,
      "name": "کارخانه ملچور",
      "name_default": "Fábrica de Melchor",
      "native": "Fábrica de Melchor",
      "type": "city",
      "level": null,
      "parent_id": null,
      "population": 1777,
      "latitude": "21.67223000",
      "longitude": "-100.90171000",
      "timezone": "America/Mexico_City",
      "wikiDataId": "Q2445418",
      "country_code": "MX",
      "state_code": "GUA",
      "state_id": 3469,
      "country_id": 142
    },
    {
      "id": 70451,
      "name": "فراسیونامیِنتو لا مزکوئیترا",
      "name_default": "Fraccionamiento la Mezquitera",
      "native": "Fraccionamiento la Mezquitera",
      "type": "city",
      "level": null,
      "parent_id": null,
      "population": 1034,
      "latitude": "21.00972000",
      "longitude": "-101.83472000",
      "timezone": "America/Mexico_City",
      "wikiDataId": "Q20207165",
      "country_code": "MX",
      "state_code": "GUA",
      "state_id": 3469,
      "country_id": 142
    },
    {
      "id": 70456,
      "name": "فراسیونامیِنتو لاس لیبرس",
      "name_default": "Fraccionamiento las Liebres",
      "native": "Fraccionamiento las Liebres",
      "type": "city",
      "level": null,
      "parent_id": null,
      "population": 1513,
      "latitude": "20.64750000",
      "longitude": "-101.39556000",
      "timezone": "America/Mexico_City",
      "wikiDataId": "Q20139111",
      "country_code": "MX",
      "state_code": "GUA",
      "state_id": 3469,
      "country_id": 142
    },
    {
      "id": 70431,
      "name": "فراسیونامیِنتو پارائیسو ریل",
      "name_default": "Fraccionamiento Paraíso Real",
      "native": "Fraccionamiento Paraíso Real",
      "type": "city",
      "level": null,
      "parent_id": null,
      "population": 1157,
      "latitude": "21.11250000",
      "longitude": "-101.58083000",
      "timezone": "America/Mexico_City",
      "wikiDataId": "Q20282101",
      "country_code": "MX",
      "state_code": "GUA",
      "state_id": 3469,
      "country_id": 142
    },
    {
      "id": 70432,
      "name": "Fraccionamiento Paseo de las Torres",
      "name_default": "Fraccionamiento Paseo de las Torres",
      "native": "Fraccionamiento Paseo de las Torres",
      "type": "city",
      "level": null,
      "parent_id": null,
      "population": 1901,
      "latitude": "21.16833000",
      "longitude": "-101.75806000",
      "timezone": "America/Mexico_City",
      "wikiDataId": "Q20207178",
      "country_code": "MX",
      "state_code": "GUA",
      "state_id": 3469,
      "country_id": 142
    },
    {
      "id": 70433,
      "name": "Fraccionamiento Praderas de la Venta",
      "name_default": "Fraccionamiento Praderas de la Venta",
      "native": "Fraccionamiento Praderas de la Venta",
      "type": "city",
      "level": null,
      "parent_id": null,
      "population": 1420,
      "latitude": "20.53611000",
      "longitude": "-101.00000000",
      "timezone": "America/Mexico_City",
      "wikiDataId": "Q20207180",
      "country_code": "MX",
      "state_code": "GUA",
      "state_id": 3469,
      "country_id": 142
    },
    {
      "id": 70445,
      "name": "فراسیونامینتو ویلا ژاردین",
      "name_default": "Fraccionamiento Villa Jardín",
      "native": "Fraccionamiento Villa Jardín",
      "type": "city",
      "level": null,
      "parent_id": null,
      "population": 1330,
      "latitude": "20.99167000",
      "longitude": "-101.85194000",
      "timezone": "America/Mexico_City",
      "wikiDataId": "Q20139433",
      "country_code": "MX",
      "state_code": "GUA",
      "state_id": 3469,
      "country_id": 142
    },
    {
      "id": 70446,
      "name": "Fraccionamiento Villas de Guanajuato",
      "name_default": "Fraccionamiento Villas de Guanajuato",
      "native": "Fraccionamiento Villas de Guanajuato",
      "type": "city",
      "level": null,
      "parent_id": null,
      "population": 1114,
      "latitude": "20.96028000",
      "longitude": "-101.29806000",
      "timezone": "America/Mexico_City",
      "wikiDataId": "Q20207186",
      "country_code": "MX",
      "state_code": "GUA",
      "state_id": 3469,
      "country_id": 142
    },
    {
      "id": 70485,
      "name": "فرانکو",
      "name_default": "Franco",
      "native": "Franco",
      "type": "city",
      "level": null,
      "parent_id": null,
      "population": 4349,
      "latitude": "20.94327000",
      "longitude": "-101.46180000",
      "timezone": "America/Mexico_City",
      "wikiDataId": "Q5484072",
      "country_code": "MX",
      "state_code": "GUA",
      "state_id": 3469,
      "country_id": 142
    },
    {
      "id": 70486,
      "name": "فرانکو تاورا",
      "name_default": "Franco Tavera",
      "native": "Franco Tavera",
      "type": "city",
      "level": null,
      "parent_id": null,
      "population": 1622,
      "latitude": "20.60595000",
      "longitude": "-100.92700000",
      "timezone": "America/Mexico_City",
      "wikiDataId": "Q20140081",
      "country_code": "MX",
      "state_code": "GUA",
      "state_id": 3469,
      "country_id": 142
    },
    {
      "id": 70495,
      "name": "فریاس",
      "name_default": "Frías",
      "native": "Frías",
      "type": "city",
      "level": null,
      "parent_id": null,
      "population": 1184,
      "latitude": "20.79945000",
      "longitude": "-101.99644000",
      "timezone": "America/Mexico_City",
      "wikiDataId": "Q1470224",
      "country_code": "MX",
      "state_code": "GUA",
      "state_id": 3469,
      "country_id": 142
    },
    {
      "id": 70505,
      "name": "گاچوپین‌ها",
      "name_default": "Gachupines",
      "native": "Gachupines",
      "type": "city",
      "level": null,
      "parent_id": null,
      "population": 1043,
      "latitude": "21.76259000",
      "longitude": "-101.56247000",
      "timezone": "America/Mexico_City",
      "wikiDataId": "Q20282296",
      "country_code": "MX",
      "state_code": "GUA",
      "state_id": 3469,
      "country_id": 142
    },
    {
      "id": 70513,
      "name": "گالراد پانالس",
      "name_default": "Galerade Panales",
      "native": "Galerade Panales",
      "type": "city",
      "level": null,
      "parent_id": null,
      "population": 1362,
      "latitude": "20.29452000",
      "longitude": "-100.81452000",
      "timezone": "America/Mexico_City",
      "wikiDataId": "Q2990972",
      "country_code": "MX",
      "state_code": "GUA",
      "state_id": 3469,
      "country_id": 142
    },
    {
      "id": 70521,
      "name": "گاسکا",
      "name_default": "Gasca",
      "native": "Gas",
      "type": "city",
      "level": null,
      "parent_id": null,
      "population": 1843,
      "latitude": "20.60444000",
      "longitude": "-100.85639000",
      "timezone": "America/Mexico_City",
      "wikiDataId": "Q20140711",
      "country_code": "MX",
      "state_code": "GUA",
      "state_id": 3469,
      "country_id": 142
    },
    {
      "id": 70522,
      "name": "گاویا د ریوندا",
      "name_default": "Gavia de Rionda",
      "native": "Gavia de Riona",
      "type": "city",
      "level": null,
      "parent_id": null,
      "population": 1590,
      "latitude": "20.83357000",
      "longitude": "-101.61647000",
      "timezone": "America/Mexico_City",
      "wikiDataId": "Q20140711",
      "country_code": "MX",
      "state_code": "GUA",
      "state_id": 3469,
      "country_id": 142
    },
    {
      "id": 70574,
      "name": "گوادالوپ",
      "name_default": "Guadalupe",
      "native": "Guadalupo",
      "type": "city",
      "level": null,
      "parent_id": null,
      "population": 1485,
      "latitude": "21.71644000",
      "longitude": "-100.97645000",
      "timezone": "America/Mexico_City",
      "wikiDataId": "Q938835",
      "country_code": "MX",
      "state_code": "GUA",
      "state_id": 3469,
      "country_id": 142
    },
    {
      "id": 70609,
      "name": "گوادالوپه د پاسو بلانکو",
      "name_default": "Guadalupe de Paso Blanco",
      "native": "Guadalupe de Paso Blanco",
      "type": "city",
      "level": null,
      "parent_id": null,
      "population": 1068,
      "latitude": "20.75498000",
      "longitude": "-101.40345000",
      "timezone": "America/Mexico_City",
      "wikiDataId": "Q20143066",
      "country_code": "MX",
      "state_code": "GUA",
      "state_id": 3469,
      "country_id": 142
    },
    {
      "id": 70610,
      "name": "گوادالوپه د ریورا",
      "name_default": "Guadalupe de Rivera",
      "native": "Guadalupe de Rivera",
      "type": "city",
      "level": null,
      "parent_id": null,
      "population": 1375,
      "latitude": "20.60499000",
      "longitude": "-101.46745000",
      "timezone": "America/Mexico_City",
      "wikiDataId": "Q20143066",
      "country_code": "MX",
      "state_code": "GUA",
      "state_id": 3469,
      "country_id": 142
    },
    {
      "id": 70611,
      "name": "گوادالوپه دِ تامبولا",
      "name_default": "Guadalupe de Tambula",
      "native": "Guadalus de Tambula",
      "type": "city",
      "level": null,
      "parent_id": null,
      "population": 1056,
      "latitude": "20.86645000",
      "longitude": "-100.57620000",
      "timezone": "America/Mexico_City",
      "wikiDataId": "Q20143066",
      "country_code": "MX",
      "state_code": "GUA",
      "state_id": 3469,
      "country_id": 142
    },
    {
      "id": 70612,
      "name": "گوادالوپه دل مونته",
      "name_default": "Guadalupe del Monte",
      "native": "Guadalupe del Monte",
      "type": "city",
      "level": null,
      "parent_id": null,
      "population": 1094,
      "latitude": "20.55688000",
      "longitude": "-100.64064000",
      "timezone": "America/Mexico_City",
      "wikiDataId": "Q20143066",
      "country_code": "MX",
      "state_code": "GUA",
      "state_id": 3469,
      "country_id": 142
    },
    {
      "id": 70618,
      "name": "گوآناخوآتو",
      "name_default": "Guanajuato",
      "native": "Guanajuato",
      "type": "adm1",
      "level": null,
      "parent_id": null,
      "population": 72237,
      "latitude": "21.01858000",
      "longitude": "-101.25910000",
      "timezone": "America/Mexico_City",
      "wikiDataId": "Q61306",
      "country_code": "MX",
      "state_code": "GUA",
      "state_id": 3469,
      "country_id": 142
    },
    {
      "id": 70650,
      "name": "هاسیندا آریبا",
      "name_default": "Hacienda Arriba",
      "native": "Hacienda Arriba",
      "type": "city",
      "level": null,
      "parent_id": null,
      "population": 1570,
      "latitude": "21.23366000",
      "longitude": "-101.70393000",
      "timezone": "America/Mexico_City",
      "wikiDataId": "Q20227981",
      "country_code": "MX",
      "state_code": "GUA",
      "state_id": 3469,
      "country_id": 142
    },
    {
      "id": 70659,
      "name": "هاسیندا د لا بولسا",
      "name_default": "Hacienda de la Bolsa",
      "native": "Hacienda de la Bolsa",
      "type": "city",
      "level": null,
      "parent_id": null,
      "population": 1296,
      "latitude": "20.37524000",
      "longitude": "-101.10425000",
      "timezone": "America/Mexico_City",
      "wikiDataId": "Q20207402",
      "country_code": "MX",
      "state_code": "GUA",
      "state_id": 3469,
      "country_id": 142
    },
    {
      "id": 70658,
      "name": "هاسیندا د مارکز",
      "name_default": "Hacienda de Márquez",
      "native": "Hacienda de Márquez",
      "type": "city",
      "level": null,
      "parent_id": null,
      "population": 2279,
      "latitude": "20.78037000",
      "longitude": "-101.35979000",
      "timezone": "America/Mexico_City",
      "wikiDataId": "Q20207402",
      "country_code": "MX",
      "state_code": "GUA",
      "state_id": 3469,
      "country_id": 142
    },
    {
      "id": 70712,
      "name": "هویا د سینتورا (La Hoya de Arriba)",
      "name_default": "Hoya de Cintora (La Hoya de Arriba)",
      "native": "Hoya de Cintora (La Hoya de Arriba)",
      "type": "city",
      "level": null,
      "parent_id": null,
      "population": 1050,
      "latitude": "20.36444000",
      "longitude": "-101.20833000",
      "timezone": "America/Mexico_City",
      "wikiDataId": "Q20207417",
      "country_code": "MX",
      "state_code": "GUA",
      "state_id": 3469,
      "country_id": 142
    },
    {
      "id": 70734,
      "name": "خوانیمارو",
      "name_default": "Huanímaro",
      "native": "Huadzaro",
      "type": "adm2",
      "level": null,
      "parent_id": null,
      "population": 5505,
      "latitude": "20.36783000",
      "longitude": "-101.49869000",
      "timezone": "America/Mexico_City",
      "wikiDataId": "Q2651183",
      "country_code": "MX",
      "state_code": "GUA",
      "state_id": 3469,
      "country_id": 142
    },
    {
      "id": 70803,
      "name": "هویتزاتاریتو",
      "name_default": "Huitzatarito",
      "native": "Huitzatarito",
      "type": "city",
      "level": null,
      "parent_id": null,
      "population": 1936,
      "latitude": "20.49213000",
      "longitude": "-101.57064000",
      "timezone": "America/Mexico_City",
      "wikiDataId": "Q27769233",
      "country_code": "MX",
      "state_code": "GUA",
      "state_id": 3469,
      "country_id": 142
    },
    {
      "id": 70832,
      "name": "ایباریلا",
      "name_default": "Ibarrilla",
      "native": "Ibarrilla",
      "type": "city",
      "level": null,
      "parent_id": null,
      "population": 2054,
      "latitude": "21.18664000",
      "longitude": "-101.64576000",
      "timezone": "America/Mexico_City",
      "wikiDataId": "Q20283240",
      "country_code": "MX",
      "state_code": "GUA",
      "state_id": 3469,
      "country_id": 142
    },
    {
      "id": 70880,
      "name": "ایراموکو",
      "name_default": "Irámuco",
      "native": "Iramuco",
      "type": "city",
      "level": null,
      "parent_id": null,
      "population": 5954,
      "latitude": "19.96156000",
      "longitude": "-100.92202000",
      "timezone": "America/Mexico_City",
      "wikiDataId": "Q11019532",
      "country_code": "MX",
      "state_code": "GUA",
      "state_id": 3469,
      "country_id": 142
    },
    {
      "id": 70876,
      "name": "ایراپوآتو",
      "name_default": "Irapuato",
      "native": "Irapuato",
      "type": "adm2",
      "level": null,
      "parent_id": null,
      "population": 380941,
      "latitude": "20.67675000",
      "longitude": "-101.35628000",
      "timezone": "America/Mexico_City",
      "wikiDataId": "Q816845",
      "country_code": "MX",
      "state_code": "GUA",
      "state_id": 3469,
      "country_id": 142
    },
    {
      "id": 70982,
      "name": "جالپیلا",
      "name_default": "Jalpilla",
      "native": "Jalpilla",
      "type": "city",
      "level": null,
      "parent_id": null,
      "population": 2065,
      "latitude": "20.73129000",
      "longitude": "-100.72090000",
      "timezone": "America/Mexico_City",
      "wikiDataId": "Q6126975",
      "country_code": "MX",
      "state_code": "GUA",
      "state_id": 3469,
      "country_id": 142
    },
    {
      "id": 70995,
      "name": "جامائیکا",
      "name_default": "Jamaica",
      "native": "Jamaica",
      "type": "city",
      "level": null,
      "parent_id": null,
      "population": 1196,
      "latitude": "21.14364000",
      "longitude": "-100.73430000",
      "timezone": "America/Mexico_City",
      "wikiDataId": "Q20210485",
      "country_code": "MX",
      "state_code": "GUA",
      "state_id": 3469,
      "country_id": 142
    },
    {
      "id": 71004,
      "name": "یارال دل پروگرسو",
      "name_default": "Jaral del Progreso",
      "native": "Jaral del Progresso",
      "type": "adm2",
      "level": null,
      "parent_id": null,
      "population": 20457,
      "latitude": "20.37237000",
      "longitude": "-101.06249000",
      "timezone": "America/Mexico_City",
      "wikiDataId": "Q2651205",
      "country_code": "MX",
      "state_code": "GUA",
      "state_id": 3469,
      "country_id": 142
    },
    {
      "id": 71013,
      "name": "ژاورگی",
      "name_default": "Jauregui",
      "native": "Palacio",
      "type": "city",
      "level": null,
      "parent_id": null,
      "population": 1369,
      "latitude": "20.59280000",
      "longitude": "-100.71940000",
      "timezone": "America/Mexico_City",
      "wikiDataId": "Q20148773",
      "country_code": "MX",
      "state_code": "GUA",
      "state_id": 3469,
      "country_id": 142
    },
    {
      "id": 71021,
      "name": "جرکوارو",
      "name_default": "Jerécuaro",
      "native": "Jerécuaro",
      "type": "adm2",
      "level": null,
      "parent_id": null,
      "population": 7748,
      "latitude": "20.15467000",
      "longitude": "-100.50860000",
      "timezone": "America/Mexico_City",
      "wikiDataId": "Q2651217",
      "country_code": "MX",
      "state_code": "GUA",
      "state_id": 3469,
      "country_id": 142
    },
    {
      "id": 71038,
      "name": "خسوس دل مونته",
      "name_default": "Jesús del Monte",
      "native": "Jesús del Monte",
      "type": "city",
      "level": null,
      "parent_id": null,
      "population": 1230,
      "latitude": "20.91504000",
      "longitude": "-101.74129000",
      "timezone": "America/Mexico_City",
      "wikiDataId": "Q20149010",
      "country_code": "MX",
      "state_code": "GUA",
      "state_id": 3469,
      "country_id": 142
    },
    {
      "id": 71149,
      "name": "جیکاماس",
      "name_default": "Jícamas",
      "native": "Esófasma",
      "type": "city",
      "level": null,
      "parent_id": null,
      "population": 1623,
      "latitude": "20.27602000",
      "longitude": "-101.35916000",
      "timezone": "America/Mexico_City",
      "wikiDataId": "Q20230341",
      "country_code": "MX",
      "state_code": "GUA",
      "state_id": 3469,
      "country_id": 142
    },
    {
      "id": 71066,
      "name": "جوکوکی",
      "name_default": "Jocoqui",
      "native": "Jocoqui",
      "type": "city",
      "level": null,
      "parent_id": null,
      "population": 3056,
      "latitude": "20.58201000",
      "longitude": "-100.69870000",
      "timezone": "America/Mexico_City",
      "wikiDataId": "Q20284346",
      "country_code": "MX",
      "state_code": "GUA",
      "state_id": 3469,
      "country_id": 142
    },
    {
      "id": 71123,
      "name": "خوان مارتین",
      "name_default": "Juan Martín",
      "native": "Juan Martín",
      "type": "city",
      "level": null,
      "parent_id": null,
      "population": 2791,
      "latitude": "20.47301000",
      "longitude": "-100.74691000",
      "timezone": "America/Mexico_City",
      "wikiDataId": "Q20269406",
      "country_code": "MX",
      "state_code": "GUA",
      "state_id": 3469,
      "country_id": 142
    },
    {
      "id": 71144,
      "name": "یوونتینو روساس",
      "name_default": "Juventino Rosas",
      "native": "Juventino Rosas",
      "type": "adm2",
      "level": null,
      "parent_id": null,
      "population": 42264,
      "latitude": "20.64337000",
      "longitude": "-100.99286000",
      "timezone": "America/Mexico_City",
      "wikiDataId": "Q20207490",
      "country_code": "MX",
      "state_code": "GUA",
      "state_id": 3469,
      "country_id": 142
    },
    {
      "id": 71170,
      "name": "لا آلدیا",
      "name_default": "La Aldea",
      "native": "La Aldea",
      "type": "city",
      "level": null,
      "parent_id": null,
      "population": 5615,
      "latitude": "20.90166000",
      "longitude": "-101.47852000",
      "timezone": "America/Mexico_City",
      "wikiDataId": "Q20285593",
      "country_code": "MX",
      "state_code": "GUA",
      "state_id": 3469,
      "country_id": 142
    },
    {
      "id": 71174,
      "name": "لا آنگوستورا",
      "name_default": "La Angostura",
      "native": "La Angostura",
      "type": "city",
      "level": null,
      "parent_id": null,
      "population": 1410,
      "latitude": "20.27733000",
      "longitude": "-101.11005000",
      "timezone": "America/Mexico_City",
      "wikiDataId": "Q20285739",
      "country_code": "MX",
      "state_code": "GUA",
      "state_id": 3469,
      "country_id": 142
    },
    {
      "id": 71178,
      "name": "لا آرورا",
      "name_default": "La Aurora",
      "native": "La aurora",
      "type": "city",
      "level": null,
      "parent_id": null,
      "population": 2605,
      "latitude": "20.62667000",
      "longitude": "-100.75750000",
      "timezone": "America/Mexico_City",
      "wikiDataId": "Q20285931",
      "country_code": "MX",
      "state_code": "GUA",
      "state_id": 3469,
      "country_id": 142
    },
    {
      "id": 71189,
      "name": "لا کاجا",
      "name_default": "La Caja",
      "native": "La Caja",
      "type": "city",
      "level": null,
      "parent_id": null,
      "population": 1554,
      "latitude": "20.71146000",
      "longitude": "-101.43769000",
      "timezone": "America/Mexico_City",
      "wikiDataId": "Q20286483",
      "country_code": "MX",
      "state_code": "GUA",
      "state_id": 3469,
      "country_id": 142
    },
    {
      "id": 71190,
      "name": "لا کالرا",
      "name_default": "La Calera",
      "native": "La Calera",
      "type": "city",
      "level": null,
      "parent_id": null,
      "population": 4665,
      "latitude": "20.80119000",
      "longitude": "-101.33207000",
      "timezone": "America/Mexico_City",
      "wikiDataId": "Q20207583",
      "country_code": "MX",
      "state_code": "GUA",
      "state_id": 3469,
      "country_id": 142
    },
    {
      "id": 71203,
      "name": "لا کاپیلا",
      "name_default": "La Capilla",
      "native": "La Capilla",
      "type": "city",
      "level": null,
      "parent_id": null,
      "population": 1541,
      "latitude": "20.55655000",
      "longitude": "-101.30019000",
      "timezone": "America/Mexico_City",
      "wikiDataId": "Q20207631",
      "country_code": "MX",
      "state_code": "GUA",
      "state_id": 3469,
      "country_id": 142
    },
    {
      "id": 71216,
      "name": "لا سینه‌گا",
      "name_default": "La Ciénega",
      "native": "La Ciénega",
      "type": "city",
      "level": null,
      "parent_id": null,
      "population": 1673,
      "latitude": "21.30050000",
      "longitude": "-100.48027000",
      "timezone": "America/Mexico_City",
      "wikiDataId": "Q20219425",
      "country_code": "MX",
      "state_code": "GUA",
      "state_id": 3469,
      "country_id": 142
    },
    {
      "id": 71214,
      "name": "لا چینه‌گیتا",
      "name_default": "La Cieneguita",
      "native": "La Cieneguita",
      "type": "city",
      "level": null,
      "parent_id": null,
      "population": 1241,
      "latitude": "20.94630000",
      "longitude": "-100.78966000",
      "timezone": "America/Mexico_City",
      "wikiDataId": "Q20264429",
      "country_code": "MX",
      "state_code": "GUA",
      "state_id": 3469,
      "country_id": 142
    },
    {
      "id": 71224,
      "name": "لا کومپانیا",
      "name_default": "La Compañía",
      "native": "La Compañía",
      "type": "city",
      "level": null,
      "parent_id": null,
      "population": 1078,
      "latitude": "20.37760000",
      "longitude": "-101.15852000",
      "timezone": "America/Mexico_City",
      "wikiDataId": "Q1798725",
      "country_code": "MX",
      "state_code": "GUA",
      "state_id": 3469,
      "country_id": 142
    },
    {
      "id": 71251,
      "name": "لا کروز",
      "name_default": "La Cruz",
      "native": "La Cruz",
      "type": "city",
      "level": null,
      "parent_id": null,
      "population": 1756,
      "latitude": "20.45694000",
      "longitude": "-100.79583000",
      "timezone": "America/Mexico_City",
      "wikiDataId": "Q20207715",
      "country_code": "MX",
      "state_code": "GUA",
      "state_id": 3469,
      "country_id": 142
    },
    {
      "id": 71252,
      "name": "لا کروز دل پالمار",
      "name_default": "La Cruz del Palmar",
      "native": "La Cruz del Palmar",
      "type": "city",
      "level": null,
      "parent_id": null,
      "population": 1009,
      "latitude": "20.96973000",
      "longitude": "-100.84354000",
      "timezone": "America/Mexico_City",
      "wikiDataId": "Q20207715",
      "country_code": "MX",
      "state_code": "GUA",
      "state_id": 3469,
      "country_id": 142
    },
    {
      "id": 71255,
      "name": "لا کوئیتا",
      "name_default": "La Cuevita",
      "native": "La Cuevita",
      "type": "city",
      "level": null,
      "parent_id": null,
      "population": 1952,
      "latitude": "20.33872000",
      "longitude": "-100.57891000",
      "timezone": "America/Mexico_City",
      "wikiDataId": "Q20269663",
      "country_code": "MX",
      "state_code": "GUA",
      "state_id": 3469,
      "country_id": 142
    },
    {
      "id": 71262,
      "name": "لا ارمیتا",
      "name_default": "La Ermita",
      "native": "La Ermita",
      "type": "city",
      "level": null,
      "parent_id": null,
      "population": 19703,
      "latitude": "21.15194000",
      "longitude": "-101.73306000",
      "timezone": "America/Mexico_City",
      "wikiDataId": "Q20207750",
      "country_code": "MX",
      "state_code": "GUA",
      "state_id": 3469,
      "country_id": 142
    },
    {
      "id": 71266,
      "name": "لا اسکوندیدا",
      "name_default": "La Escondida",
      "native": "La Escondida",
      "type": "city",
      "level": null,
      "parent_id": null,
      "population": 2040,
      "latitude": "21.68723000",
      "longitude": "-101.53446000",
      "timezone": "America/Mexico_City",
      "wikiDataId": "Q20228063",
      "country_code": "MX",
      "state_code": "GUA",
      "state_id": 3469,
      "country_id": 142
    },
    {
      "id": 71285,
      "name": "La Estancia de San José del Carmen",
      "name_default": "La Estancia de San José del Carmen",
      "native": "La Estancia de San José del Carmen",
      "type": "city",
      "level": null,
      "parent_id": null,
      "population": 1218,
      "latitude": "20.29555000",
      "longitude": "-100.86083000",
      "timezone": "America/Mexico_City",
      "wikiDataId": "Q20289643",
      "country_code": "MX",
      "state_code": "GUA",
      "state_id": 3469,
      "country_id": 142
    },
    {
      "id": 71288,
      "name": "لا استرلا",
      "name_default": "La Estrella",
      "native": "La Estrella",
      "type": "city",
      "level": null,
      "parent_id": null,
      "population": 2389,
      "latitude": "20.39050000",
      "longitude": "-101.92109000",
      "timezone": "America/Mexico_City",
      "wikiDataId": "Q20289643",
      "country_code": "MX",
      "state_code": "GUA",
      "state_id": 3469,
      "country_id": 142
    },
    {
      "id": 71299,
      "name": "لا گاویا",
      "name_default": "La Gavia",
      "native": "La Gavia",
      "type": "city",
      "level": null,
      "parent_id": null,
      "population": 1432,
      "latitude": "20.39431000",
      "longitude": "-100.88122000",
      "timezone": "America/Mexico_City",
      "wikiDataId": "Q15241114",
      "country_code": "MX",
      "state_code": "GUA",
      "state_id": 3469,
      "country_id": 142
    },
    {
      "id": 71334,
      "name": "لا جویا د کالویلو",
      "name_default": "La Joya de Calvillo",
      "native": "La Joya de Calvillo",
      "type": "city",
      "level": null,
      "parent_id": null,
      "population": 1215,
      "latitude": "20.74883000",
      "longitude": "-101.60847000",
      "timezone": "America/Mexico_City",
      "wikiDataId": "Q20238842",
      "country_code": "MX",
      "state_code": "GUA",
      "state_id": 3469,
      "country_id": 142
    },
    {
      "id": 71338,
      "name": "لا لیبر",
      "name_default": "La Labor",
      "native": "La Labor",
      "type": "city",
      "level": null,
      "parent_id": null,
      "population": 1579,
      "latitude": "20.53388000",
      "longitude": "-100.70200000",
      "timezone": "America/Mexico_City",
      "wikiDataId": "Q20251616",
      "country_code": "MX",
      "state_code": "GUA",
      "state_id": 3469,
      "country_id": 142
    },
    {
      "id": 71341,
      "name": "لا لیبرسیتا",
      "name_default": "La Laborcita",
      "native": "El desgastado",
      "type": "city",
      "level": null,
      "parent_id": null,
      "population": 1567,
      "latitude": "21.10636000",
      "longitude": "-101.55170000",
      "timezone": "America/Mexico_City",
      "wikiDataId": "Q20251621",
      "country_code": "MX",
      "state_code": "GUA",
      "state_id": 3469,
      "country_id": 142
    },
    {
      "id": 71350,
      "name": "لا لاجا",
      "name_default": "La Laja",
      "native": "La Laja",
      "type": "city",
      "level": null,
      "parent_id": null,
      "population": 2075,
      "latitude": "20.52946000",
      "longitude": "-100.76170000",
      "timezone": "America/Mexico_City",
      "wikiDataId": "Q20226680",
      "country_code": "MX",
      "state_code": "GUA",
      "state_id": 3469,
      "country_id": 142
    },
    {
      "id": 71362,
      "name": "لا لوبرا",
      "name_default": "La Lobera",
      "native": "La Lobera",
      "type": "city",
      "level": null,
      "parent_id": null,
      "population": 1631,
      "latitude": "20.35815000",
      "longitude": "-101.54030000",
      "timezone": "America/Mexico_City",
      "wikiDataId": "Q20246456",
      "country_code": "MX",
      "state_code": "GUA",
      "state_id": 3469,
      "country_id": 142
    },
    {
      "id": 71376,
      "name": "لا لوز",
      "name_default": "La Luz",
      "native": "La Luz",
      "type": "city",
      "level": null,
      "parent_id": null,
      "population": 2345,
      "latitude": "20.55386000",
      "longitude": "-101.18097000",
      "timezone": "America/Mexico_City",
      "wikiDataId": "Q20221430",
      "country_code": "MX",
      "state_code": "GUA",
      "state_id": 3469,
      "country_id": 142
    },
    {
      "id": 71402,
      "name": "لا مونکادا",
      "name_default": "La Moncada",
      "native": "La Moncada",
      "type": "city",
      "level": null,
      "parent_id": null,
      "population": 4377,
      "latitude": "20.28348000",
      "longitude": "-100.80502000",
      "timezone": "America/Mexico_City",
      "wikiDataId": "Q4251713",
      "country_code": "MX",
      "state_code": "GUA",
      "state_id": 3469,
      "country_id": 142
    },
    {
      "id": 71409,
      "name": "لا نوریتا",
      "name_default": "La Norita",
      "native": "El norit",
      "type": "city",
      "level": null,
      "parent_id": null,
      "population": 1701,
      "latitude": "20.55409000",
      "longitude": "-100.51660000",
      "timezone": "America/Mexico_City",
      "wikiDataId": "Q20264981",
      "country_code": "MX",
      "state_code": "GUA",
      "state_id": 3469,
      "country_id": 142
    },
    {
      "id": 71412,
      "name": "لا اوردنیا",
      "name_default": "La Ordeña",
      "native": "La Ordeña",
      "type": "city",
      "level": null,
      "parent_id": null,
      "population": 1248,
      "latitude": "20.68988000",
      "longitude": "-101.11830000",
      "timezone": "America/Mexico_City",
      "wikiDataId": "Q20129072",
      "country_code": "MX",
      "state_code": "GUA",
      "state_id": 3469,
      "country_id": 142
    },
    {
      "id": 71415,
      "name": "لا اورتیگا",
      "name_default": "La Ortiga",
      "native": "La Ortiga",
      "type": "city",
      "level": null,
      "parent_id": null,
      "population": 1244,
      "latitude": "19.96222000",
      "longitude": "-101.00056000",
      "timezone": "America/Mexico_City",
      "wikiDataId": "Q20129271",
      "country_code": "MX",
      "state_code": "GUA",
      "state_id": 3469,
      "country_id": 142
    },
    {
      "id": 71421,
      "name": "لا پالما",
      "name_default": "La Palma",
      "native": "La Palma",
      "type": "city",
      "level": null,
      "parent_id": null,
      "population": 2392,
      "latitude": "20.51560000",
      "longitude": "-100.69787000",
      "timezone": "America/Mexico_City",
      "wikiDataId": "Q20246488",
      "country_code": "MX",
      "state_code": "GUA",
      "state_id": 3469,
      "country_id": 142
    },
    {
      "id": 71429,
      "name": "لا پالمیتا (La Palmita de San Gabriel)",
      "name_default": "La Palmita (La Palmita de San Gabriel)",
      "native": "La Palmita (La Palmita de San Gabriel)",
      "type": "city",
      "level": null,
      "parent_id": null,
      "population": 1167,
      "latitude": "20.49806000",
      "longitude": "-100.87806000",
      "timezone": "America/Mexico_City",
      "wikiDataId": "Q20208146",
      "country_code": "MX",
      "state_code": "GUA",
      "state_id": 3469,
      "country_id": 142
    },
    {
      "id": 71470,
      "name": "پوریسیما",
      "name_default": "La Purísima",
      "native": "La Purísima",
      "type": "city",
      "level": null,
      "parent_id": null,
      "population": 1215,
      "latitude": "20.51444000",
      "longitude": "-100.67250000",
      "timezone": "America/Mexico_City",
      "wikiDataId": "Q20134250",
      "country_code": "MX",
      "state_code": "GUA",
      "state_id": 3469,
      "country_id": 142
    },
    {
      "id": 71481,
      "name": "لا سابانا",
      "name_default": "La Sabana",
      "native": "La Sabana",
      "type": "city",
      "level": null,
      "parent_id": null,
      "population": 1193,
      "latitude": "21.19956000",
      "longitude": "-100.68956000",
      "timezone": "America/Mexico_City",
      "wikiDataId": "Q20293754",
      "country_code": "MX",
      "state_code": "GUA",
      "state_id": 3469,
      "country_id": 142
    },
    {
      "id": 71484,
      "name": "لا ساردینا",
      "name_default": "La Sardina",
      "native": "Sardina",
      "type": "city",
      "level": null,
      "parent_id": null,
      "population": 1303,
      "latitude": "20.88118000",
      "longitude": "-101.66440000",
      "timezone": "America/Mexico_City",
      "wikiDataId": "Q20135754",
      "country_code": "MX",
      "state_code": "GUA",
      "state_id": 3469,
      "country_id": 142
    },
    {
      "id": 71485,
      "name": "لا سسدا",
      "name_default": "La Sauceda",
      "native": "La Sauceda",
      "type": "city",
      "level": null,
      "parent_id": null,
      "population": 3478,
      "latitude": "20.89831000",
      "longitude": "-101.19124000",
      "timezone": "America/Mexico_City",
      "wikiDataId": "Q20135754",
      "country_code": "MX",
      "state_code": "GUA",
      "state_id": 3469,
      "country_id": 142
    },
    {
      "id": 71491,
      "name": "لا سولداد",
      "name_default": "La Soledad",
      "native": "La Soledad",
      "type": "city",
      "level": null,
      "parent_id": null,
      "population": 1261,
      "latitude": "20.60792000",
      "longitude": "-101.41558000",
      "timezone": "America/Mexico_City",
      "wikiDataId": "Q20264282",
      "country_code": "MX",
      "state_code": "GUA",
      "state_id": 3469,
      "country_id": 142
    },
    {
      "id": 71504,
      "name": "لا تینجا",
      "name_default": "La Tinaja",
      "native": "La Tinaja",
      "type": "city",
      "level": null,
      "parent_id": null,
      "population": 1059,
      "latitude": "20.49028000",
      "longitude": "-101.21556000",
      "timezone": "America/Mexico_City",
      "wikiDataId": "Q20208282",
      "country_code": "MX",
      "state_code": "GUA",
      "state_id": 3469,
      "country_id": 142
    },
    {
      "id": 71511,
      "name": "لا ترینیداد",
      "name_default": "La Trinidad",
      "native": "La Trinidad",
      "type": "city",
      "level": null,
      "parent_id": null,
      "population": 1065,
      "latitude": "20.56333000",
      "longitude": "-100.78361000",
      "timezone": "America/Mexico_City",
      "wikiDataId": "Q20137782",
      "country_code": "MX",
      "state_code": "GUA",
      "state_id": 3469,
      "country_id": 142
    },