{
  "locale": "fa",
  "country": {
    "id": 177,
    "code": "PT",
    "iso3": "PRT",
    "numeric_code": "620",
    "name": "پرتغال",
    "name_default": "Portugal",
    "native": "Portugal",
    "capital": "Lisbon",
    "phonecode": "351",
    "currency": "EUR",
    "currency_name": "Euro",
    "currency_symbol": "€",
    "tld": ".pt",
    "population": 10749635,
    "gdp": 321440,
    "region": "Europe",
    "region_id": 4,
    "subregion": "Southern Europe",
    "subregion_id": 16,
    "nationality": "Portuguese",
    "timezones": [
      {
        "zoneName": "Atlantic/Azores",
        "gmtOffset": -3600,
        "gmtOffsetName": "UTC-01:00",
        "abbreviation": "AZOT",
        "tzName": "Azores Standard Time"
      },
      {
        "zoneName": "Atlantic/Madeira",
        "gmtOffset": 0,
        "gmtOffsetName": "UTC±00",
        "abbreviation": "WET",
        "tzName": "Western European Time"
      },
      {
        "zoneName": "Europe/Lisbon",
        "gmtOffset": 0,
        "gmtOffsetName": "UTC±00",
        "abbreviation": "WET",
        "tzName": "Western European Time"
      }
    ],
    "latitude": "39.50000000",
    "longitude": "-8.00000000",
    "emoji": "🇵🇹",
    "emojiU": "U+1F1F5 U+1F1F9"
  },
  "state": {
    "id": 4859,
    "code": "09",
    "iso2": "09",
    "iso3166_2": "PT-09",
    "fips_code": "11",
    "name": "گواردا",
    "name_default": "Guarda",
    "native": "Guarda",
    "type": "district",
    "level": null,
    "parent_id": null,
    "population": null,
    "latitude": "40.53859720",
    "longitude": "-7.26757720",
    "timezone": "Europe/Lisbon",
    "wikiDataId": "Q273533",
    "country_code": "PT"
  },
  "cities": [
    {
      "id": 143297,
      "name": "آکورس",
      "name_default": "Açores",
      "native": "Açores",
      "type": "city",
      "level": null,
      "parent_id": null,
      "population": null,
      "latitude": "40.64500000",
      "longitude": "-7.30527778",
      "timezone": "Europe/Lisbon",
      "wikiDataId": "Q23978",
      "country_code": "PT",
      "state_code": "09",
      "state_id": 4859,
      "country_id": 177
    },
    {
      "id": 143238,
      "name": "آدائو",
      "name_default": "Adão",
      "native": "Adão",
      "type": "adm2",
      "level": null,
      "parent_id": null,
      "population": null,
      "latitude": "40.45916667",
      "longitude": "-7.16500000",
      "timezone": "Europe/Lisbon",
      "wikiDataId": "Q32652",
      "country_code": "PT",
      "state_code": "09",
      "state_id": 4859,
      "country_id": 177
    },
    {
      "id": 143239,
      "name": "آگوالوا",
      "name_default": "Agualva",
      "native": "Agualva",
      "type": "city",
      "level": null,
      "parent_id": null,
      "population": 93982,
      "latitude": "38.77004444",
      "longitude": "-9.29881111",
      "timezone": "Europe/Lisbon",
      "wikiDataId": "Q397872",
      "country_code": "PT",
      "state_code": "09",
      "state_id": 4859,
      "country_id": 177
    },
    {
      "id": 143760,
      "name": "آگواس بلاس",
      "name_default": "Águas Belas",
      "native": "Águas Belas",
      "type": "city",
      "level": null,
      "parent_id": null,
      "population": 167,
      "latitude": "40.37472222",
      "longitude": "-7.16694444",
      "timezone": "Europe/Lisbon",
      "wikiDataId": "Q249788",
      "country_code": "PT",
      "state_code": "09",
      "state_id": 4859,
      "country_id": 177
    },
    {
      "id": 143240,
      "name": "آگیار دا بیرا",
      "name_default": "Aguiar da Beira",
      "native": "Aguiar da Beira",
      "type": "adm2",
      "level": null,
      "parent_id": null,
      "population": 5473,
      "latitude": "40.81726000",
      "longitude": "-7.54431000",
      "timezone": "Europe/Lisbon",
      "wikiDataId": "Q175373",
      "country_code": "PT",
      "state_code": "09",
      "state_id": 4859,
      "country_id": 177
    },
    {
      "id": 143241,
      "name": "آجودا",
      "name_default": "Ajuda",
      "native": "Ajuda",
      "type": "city",
      "level": null,
      "parent_id": null,
      "population": 14306,
      "latitude": "38.70750000",
      "longitude": "-9.19833333",
      "timezone": "Europe/Lisbon",
      "wikiDataId": "Q413311",
      "country_code": "PT",
      "state_code": "09",
      "state_id": 4859,
      "country_id": 177
    },
    {
      "id": 143242,
      "name": "آلباردو",
      "name_default": "Albardo",
      "native": "Albardo",
      "type": "city",
      "level": null,
      "parent_id": null,
      "population": null,
      "latitude": "40.51145000",
      "longitude": "-7.13028000",
      "timezone": "Europe/Lisbon",
      "wikiDataId": "Q32676",
      "country_code": "PT",
      "state_code": "09",
      "state_id": 4859,
      "country_id": 177
    },
    {
      "id": 143243,
      "name": "آلکابدچه",
      "name_default": "Alcabideche",
      "native": "Alcabideche",
      "type": "city",
      "level": null,
      "parent_id": null,
      "population": 33315,
      "latitude": "38.73361111",
      "longitude": "-9.40916667",
      "timezone": "Europe/Lisbon",
      "wikiDataId": "Q31877422",
      "country_code": "PT",
      "state_code": "09",
      "state_id": 4859,
      "country_id": 177
    },
    {
      "id": 143244,
      "name": "آلکین‌ها",
      "name_default": "Alcains",
      "native": "Alcains",
      "type": "city",
      "level": null,
      "parent_id": null,
      "population": 4615,
      "latitude": "39.91540278",
      "longitude": "-7.46107778",
      "timezone": "Europe/Lisbon",
      "wikiDataId": "Q1024258",
      "country_code": "PT",
      "state_code": "09",
      "state_id": 4859,
      "country_id": 177
    },
    {
      "id": 143246,
      "name": "آلکانتارا",
      "name_default": "Alcântara",
      "native": "Alcântara",
      "type": "section",
      "level": null,
      "parent_id": null,
      "population": 14443,
      "latitude": "38.70638889",
      "longitude": "-9.17416667",
      "timezone": "Europe/Lisbon",
      "wikiDataId": "Q1017927",
      "country_code": "PT",
      "state_code": "09",
      "state_id": 4859,
      "country_id": 177
    },
    {
      "id": 143245,
      "name": "آلکوانتر",
      "name_default": "Alcoentre",
      "native": "Alcoentre",
      "type": "city",
      "level": null,
      "parent_id": null,
      "population": 3923,
      "latitude": "39.20861111",
      "longitude": "-8.95944444",
      "timezone": "Europe/Lisbon",
      "wikiDataId": "Q31877572",
      "country_code": "PT",
      "state_code": "09",
      "state_id": 4859,
      "country_id": 177
    },
    {
      "id": 143252,
      "name": "آلدیا دا پونته",
      "name_default": "Aldeia da Ponte",
      "native": "Aldeia da Ponte",
      "type": "city",
      "level": null,
      "parent_id": null,
      "population": 0,
      "latitude": "40.41348889",
      "longitude": "-6.86908333",
      "timezone": "Europe/Lisbon",
      "wikiDataId": "Q1523604",
      "country_code": "PT",
      "state_code": "09",
      "state_id": 4859,
      "country_id": 177
    },
    {
      "id": 143253,
      "name": "آلدیا دا ریبیرا",
      "name_default": "Aldeia da Ribeira",
      "native": "Aldeia da Ribeira",
      "type": "city",
      "level": null,
      "parent_id": null,
      "population": null,
      "latitude": "40.45666667",
      "longitude": "-6.89777778",
      "timezone": "Europe/Lisbon",
      "wikiDataId": "Q2120278",
      "country_code": "PT",
      "state_code": "09",
      "state_id": 4859,
      "country_id": 177
    },
    {
      "id": 143254,
      "name": "آلدیا د سانتو آنتونیو",
      "name_default": "Aldeia de Santo António",
      "native": "Aldeia de Santo António",
      "type": "city",
      "level": null,
      "parent_id": null,
      "population": null,
      "latitude": "40.34305556",
      "longitude": "-7.13638889",
      "timezone": "Europe/Lisbon",
      "wikiDataId": "Q1507986",
      "country_code": "PT",
      "state_code": "09",
      "state_id": 4859,
      "country_id": 177
    },
    {
      "id": 143255,
      "name": "آلدیا دو بیسپو",
      "name_default": "Aldeia do Bispo",
      "native": "Aldeia do Bispo",
      "type": "city",
      "level": null,
      "parent_id": null,
      "population": 198,
      "latitude": "40.32333333",
      "longitude": "-6.84805556",
      "timezone": "Europe/Lisbon",
      "wikiDataId": "Q664597",
      "country_code": "PT",
      "state_code": "09",
      "state_id": 4859,
      "country_id": 177
    },
    {
      "id": 143247,
      "name": "آلدیا گالگا دا مرچانا",
      "name_default": "Aldeia Galega da Merceana",
      "native": "Aldeia Galega da Merceana",
      "type": "city",
      "level": null,
      "parent_id": null,
      "population": 591,
      "latitude": "39.08222222",
      "longitude": "-9.11194444",
      "timezone": "Europe/Lisbon",
      "wikiDataId": "Q2119101",
      "country_code": "PT",
      "state_code": "09",
      "state_id": 4859,
      "country_id": 177
    },
    {
      "id": 143248,
      "name": "آلدیا گاوینها",
      "name_default": "Aldeia Gavinha",
      "native": "Aldeia Gavinha",
      "type": "city",
      "level": null,
      "parent_id": null,
      "population": null,
      "latitude": "39.08444444",
      "longitude": "-9.09638889",
      "timezone": "Europe/Lisbon",
      "wikiDataId": "Q2119745",
      "country_code": "PT",
      "state_code": "09",
      "state_id": 4859,
      "country_id": 177
    },
    {
      "id": 143249,
      "name": "آلدیا نوا میراندا دو دورو",
      "name_default": "Aldeia Nova Miranda do Douro",
      "native": "Aldeia Nova Miranda do Douro",
      "type": "city",
      "level": null,
      "parent_id": null,
      "population": null,
      "latitude": "40.72584000",
      "longitude": "-7.42384000",
      "timezone": "Europe/Lisbon",
      "wikiDataId": "Q61742386",
      "country_code": "PT",
      "state_code": "09",
      "state_id": 4859,
      "country_id": 177
    },
    {
      "id": 143250,
      "name": "آلدیا وله",
      "name_default": "Aldeia Velha",
      "native": "Aldeia Velha",
      "type": "city",
      "level": null,
      "parent_id": null,
      "population": 413,
      "latitude": "40.34333333",
      "longitude": "-6.86750000",
      "timezone": "Europe/Lisbon",
      "wikiDataId": "Q1759365",
      "country_code": "PT",
      "state_code": "09",
      "state_id": 4859,
      "country_id": 177
    },
    {
      "id": 143251,
      "name": "آلدیا ویچوسا",
      "name_default": "Aldeia Viçosa",
      "native": "Aldeia Viçosa",
      "type": "city",
      "level": null,
      "parent_id": null,
      "population": 267,
      "latitude": "40.57888889",
      "longitude": "-7.31777778",
      "timezone": "Europe/Lisbon",
      "wikiDataId": "Q32581",
      "country_code": "PT",
      "state_code": "09",
      "state_id": 4859,
      "country_id": 177
    },
    {
      "id": 143256,
      "name": "آلدیاس",
      "name_default": "Aldeias",
      "native": "Aldeias",
      "type": "city",
      "level": null,
      "parent_id": null,
      "population": 307,
      "latitude": "40.46861111",
      "longitude": "-7.59805556",
      "timezone": "Europe/Lisbon",
      "wikiDataId": "Q32638",
      "country_code": "PT",
      "state_code": "09",
      "state_id": 4859,
      "country_id": 177
    },
    {
      "id": 143257,
      "name": "آلنکر",
      "name_default": "Alenquer",
      "native": "Alenquer",
      "type": "adm2",
      "level": null,
      "parent_id": null,
      "population": 43267,
      "latitude": "39.05000000",
      "longitude": "-9.01666667",
      "timezone": "Europe/Lisbon",
      "wikiDataId": "Q988830",
      "country_code": "PT",
      "state_code": "09",
      "state_id": 4859,
      "country_id": 177
    },
    {
      "id": 143258,
      "name": "آلفایتس",
      "name_default": "Alfaiates",
      "native": "Alfaiates",
      "type": "city",
      "level": null,
      "parent_id": null,
      "population": 360,
      "latitude": "40.39111111",
      "longitude": "-6.91333333",
      "timezone": "Europe/Lisbon",
      "wikiDataId": "Q2120310",
      "country_code": "PT",
      "state_code": "09",
      "state_id": 4859,
      "country_id": 177
    },
    {
      "id": 143259,
      "name": "آلفورنلوس",
      "name_default": "Alfornelos",
      "native": "Alfornenos",
      "type": "city",
      "level": null,
      "parent_id": null,
      "population": 27093,
      "latitude": "38.76333333",
      "longitude": "-9.20638889",
      "timezone": "Europe/Lisbon",
      "wikiDataId": "Q1021359",
      "country_code": "PT",
      "state_code": "09",
      "state_id": 4859,
      "country_id": 177
    },
    {
      "id": 143265,
      "name": "آلگس",
      "name_default": "Algés",
      "native": "Algés",
      "type": "city",
      "level": null,
      "parent_id": null,
      "population": 19327,
      "latitude": "38.69949722",
      "longitude": "-9.22927222",
      "timezone": "Europe/Lisbon",
      "wikiDataId": "Q1975409",
      "country_code": "PT",
      "state_code": "09",
      "state_id": 4859,
      "country_id": 177
    },
    {
      "id": 143261,
      "name": "الگودرس",
      "name_default": "Algodres",
      "native": "Algodres",
      "type": "city",
      "level": null,
      "parent_id": null,
      "population": 290,
      "latitude": "40.95250000",
      "longitude": "-7.05472222",
      "timezone": "Europe/Lisbon",
      "wikiDataId": "Q23989",
      "country_code": "PT",
      "state_code": "09",
      "state_id": 4859,
      "country_id": 177
    },
    {
      "id": 143262,
      "name": "الگوبر",
      "name_default": "Alguber",
      "native": "Primeiro",
      "type": "city",
      "level": null,
      "parent_id": null,
      "population": 833,
      "latitude": "39.27583333",
      "longitude": "-9.01888889",
      "timezone": "Europe/Lisbon",
      "wikiDataId": "Q2119125",
      "country_code": "PT",
      "state_code": "09",
      "state_id": 4859,
      "country_id": 177
    },
    {
      "id": 143264,
      "name": "آلگوئیرائو - مم مارتینز",
      "name_default": "Algueirão–Mem Martins",
      "native": "Algueirão–Mem Martins",
      "type": "city",
      "level": null,
      "parent_id": null,
      "population": 9000,
      "latitude": "38.79411389",
      "longitude": "-9.34510833",
      "timezone": "Europe/Lisbon",
      "wikiDataId": "Q180972",
      "country_code": "PT",
      "state_code": "09",
      "state_id": 4859,
      "country_id": 177
    },
    {
      "id": 143267,
      "name": "آلمارگم",
      "name_default": "Almargem",
      "native": "Almargem",
      "type": "city",
      "level": null,
      "parent_id": null,
      "population": 8271,
      "latitude": "38.84472222",
      "longitude": "-9.27305556",
      "timezone": "Europe/Lisbon",
      "wikiDataId": "Q31879382",
      "country_code": "PT",
      "state_code": "09",
      "state_id": 4859,
      "country_id": 177
    },
    {
      "id": 143268,
      "name": "آلمارگم دو بیسپو",
      "name_default": "Almargem do Bispo",
      "native": "Almargem do Bispo",
      "type": "city",
      "level": null,
      "parent_id": null,
      "population": 8271,
      "latitude": "38.84750000",
      "longitude": "-9.27138889",
      "timezone": "Europe/Lisbon",
      "wikiDataId": "Q2119224",
      "country_code": "PT",
      "state_code": "09",
      "state_id": 4859,
      "country_id": 177
    },
    {
      "id": 143269,
      "name": "آلمیدا",
      "name_default": "Almeida",
      "native": "Almeida",
      "type": "city",
      "level": null,
      "parent_id": null,
      "population": 7242,
      "latitude": "40.73070000",
      "longitude": "-6.90594000",
      "timezone": "Europe/Lisbon",
      "wikiDataId": "Q617889",
      "country_code": "PT",
      "state_code": "09",
      "state_id": 4859,
      "country_id": 177
    },
    {
      "id": 143270,
      "name": "آلمندرا",
      "name_default": "Almendra",
      "native": "Amêndoa",
      "type": "adm2",
      "level": null,
      "parent_id": null,
      "population": 457,
      "latitude": "40.99284444",
      "longitude": "-7.05756944",
      "timezone": "Europe/Lisbon",
      "wikiDataId": "Q2120319",
      "country_code": "PT",
      "state_code": "09",
      "state_id": 4859,
      "country_id": 177
    },
    {
      "id": 143271,
      "name": "الموفلا",
      "name_default": "Almofala",
      "native": "Almofala",
      "type": "city",
      "level": null,
      "parent_id": null,
      "population": 222,
      "latitude": "40.86027778",
      "longitude": "-6.84861111",
      "timezone": "Europe/Lisbon",
      "wikiDataId": "Q24018",
      "country_code": "PT",
      "state_code": "09",
      "state_id": 4859,
      "country_id": 177
    },
    {
      "id": 143272,
      "name": "آلتو دو پینا",
      "name_default": "Alto do Pina",
      "native": "Alto do Pina",
      "type": "city",
      "level": null,
      "parent_id": null,
      "population": 13956,
      "latitude": "38.74027778",
      "longitude": "-9.12805556",
      "timezone": "Europe/Lisbon",
      "wikiDataId": "Q443627",
      "country_code": "PT",
      "state_code": "09",
      "state_id": 4859,
      "country_id": 177
    },
    {
      "id": 143273,
      "name": "آلوالاده",
      "name_default": "Alvalade",
      "native": "Alvalade",
      "type": "city",
      "level": null,
      "parent_id": null,
      "population": 21160,
      "latitude": "38.74694444",
      "longitude": "-9.13611111",
      "timezone": "Europe/Lisbon",
      "wikiDataId": "Q448231",
      "country_code": "PT",
      "state_code": "09",
      "state_id": 4859,
      "country_id": 177
    },
    {
      "id": 143274,
      "name": "آلوندره",
      "name_default": "Alvendre",
      "native": "Allevante",
      "type": "adm1",
      "level": null,
      "parent_id": null,
      "population": 186,
      "latitude": "40.58500000",
      "longitude": "-7.25833333",
      "timezone": "Europe/Lisbon",
      "wikiDataId": "Q32565",
      "country_code": "PT",
      "state_code": "09",
      "state_id": 4859,
      "country_id": 177
    },
    {
      "id": 143275,
      "name": "آلورکا دا بیرا",
      "name_default": "Alverca da Beira",
      "native": "Alverca da Beira",
      "type": "city",
      "level": null,
      "parent_id": null,
      "population": null,
      "latitude": "40.70055556",
      "longitude": "-7.21750000",
      "timezone": "Europe/Lisbon",
      "wikiDataId": "Q1430189",
      "country_code": "PT",
      "state_code": "09",
      "state_id": 4859,
      "country_id": 177
    },
    {
      "id": 143276,
      "name": "آلورکا دو ریباتخو",
      "name_default": "Alverca do Ribatejo",
      "native": "Alverca do Ribatejo",
      "type": "city",
      "level": null,
      "parent_id": null,
      "population": null,
      "latitude": "38.89866111",
      "longitude": "-9.03947778",
      "timezone": "Europe/Lisbon",
      "wikiDataId": "Q431690",
      "country_code": "PT",
      "state_code": "09",
      "state_id": 4859,
      "country_id": 177
    },
    {
      "id": 143277,
      "name": "آلووکو دا سرا",
      "name_default": "Alvoco da Serra",
      "native": "Alvoco da Serra",
      "type": "city",
      "level": null,
      "parent_id": null,
      "population": 331,
      "latitude": "40.29555556",
      "longitude": "-7.67027778",
      "timezone": "Europe/Lisbon",
      "wikiDataId": "Q449532",
      "country_code": "PT",
      "state_code": "09",
      "state_id": 4859,
      "country_id": 177
    },
    {
      "id": 143278,
      "name": "آمادورا",
      "name_default": "Amadora",
      "native": "Amadora",
      "type": "city",
      "level": null,
      "parent_id": null,
      "population": 5603,
      "latitude": "38.75000000",
      "longitude": "-9.23333333",
      "timezone": "Europe/Lisbon",
      "wikiDataId": "Q189166",
      "country_code": "PT",
      "state_code": "09",
      "state_id": 4859,
      "country_id": 177
    },
    {
      "id": 143279,
      "name": "آمیکسوئیرا",
      "name_default": "Ameixoeira",
      "native": "Ameixoeira",
      "type": "section",
      "level": null,
      "parent_id": null,
      "population": 9658,
      "latitude": "38.78777778",
      "longitude": "-9.15250000",
      "timezone": "Europe/Lisbon",
      "wikiDataId": "Q461261",
      "country_code": "PT",
      "state_code": "09",
      "state_id": 4859,
      "country_id": 177
    },
    {
      "id": 143280,
      "name": "آموریرا",
      "name_default": "Amoreira",
      "native": "Amoreira",
      "type": "city",
      "level": null,
      "parent_id": null,
      "population": 985,
      "latitude": "40.58805556",
      "longitude": "-7.01555556",
      "timezone": "Europe/Lisbon",
      "wikiDataId": "Q23993",
      "country_code": "PT",
      "state_code": "09",
      "state_id": 4859,
      "country_id": 177
    },
    {
      "id": 143281,
      "name": "آنجوس",
      "name_default": "Anjos",
      "native": "Anjos",
      "type": "section",
      "level": null,
      "parent_id": null,
      "population": 9361,
      "latitude": "38.72388889",
      "longitude": "-9.13638889",
      "timezone": "Europe/Lisbon",
      "wikiDataId": "Q551464",
      "country_code": "PT",
      "state_code": "09",
      "state_id": 4859,
      "country_id": 177
    },
    {
      "id": 143282,
      "name": "آپلاسائو",
      "name_default": "Apelação",
      "native": "Apelação",
      "type": "city",
      "level": null,
      "parent_id": null,
      "population": 7182,
      "latitude": "38.81500000",
      "longitude": "-9.13249000",
      "timezone": "Europe/Lisbon",
      "wikiDataId": "Q618141",
      "country_code": "PT",
      "state_code": "09",
      "state_id": 4859,
      "country_id": 177
    },
    {
      "id": 143283,
      "name": "آرکوزلو",
      "name_default": "Arcozelo",
      "native": "Arcozelo",
      "type": "city",
      "level": null,
      "parent_id": null,
      "population": 3932,
      "latitude": "40.54055556",
      "longitude": "-7.62722222",
      "timezone": "Europe/Lisbon",
      "wikiDataId": "Q32628",
      "country_code": "PT",
      "state_code": "09",
      "state_id": 4859,
      "country_id": 177
    },
    {
      "id": 143284,
      "name": "آرانهو",
      "name_default": "Arranhó",
      "native": "Arranhó",
      "type": "city",
      "level": null,
      "parent_id": null,
      "population": 2584,
      "latitude": "38.95371667",
      "longitude": "-9.13497778",
      "timezone": "Europe/Lisbon",
      "wikiDataId": "Q699206",
      "country_code": "PT",
      "state_code": "09",
      "state_id": 4859,
      "country_id": 177
    },
    {
      "id": 143285,
      "name": "آریفانا",
      "name_default": "Arrifana",
      "native": "Arrifana",
      "type": "city",
      "level": null,
      "parent_id": null,
      "population": 1219,
      "latitude": "40.56972222",
      "longitude": "-7.21027778",
      "timezone": "Europe/Lisbon",
      "wikiDataId": "Q32672",
      "country_code": "PT",
      "state_code": "09",
      "state_id": 4859,
      "country_id": 177
    },
    {
      "id": 143287,
      "name": "آتالیا",
      "name_default": "Atalaia",
      "native": "Seção",
      "type": "city",
      "level": null,
      "parent_id": null,
      "population": 1734,
      "latitude": "40.66000000",
      "longitude": "-7.03305556",
      "timezone": "Europe/Lisbon",
      "wikiDataId": "Q753268",
      "country_code": "PT",
      "state_code": "09",
      "state_id": 4859,
      "country_id": 177
    },
    {
      "id": 143288,
      "name": "آویراس د بایشو",
      "name_default": "Aveiras de Baixo",
      "native": "Aveiras de Baixo",
      "type": "city",
      "level": null,
      "parent_id": null,
      "population": 1355,
      "latitude": "39.11138889",
      "longitude": "-8.86916667",
      "timezone": "Europe/Lisbon",
      "wikiDataId": "Q790339",
      "country_code": "PT",
      "state_code": "09",
      "state_id": 4859,
      "country_id": 177
    },
    {
      "id": 143289,
      "name": "آویراس د سیما",
      "name_default": "Aveiras de Cima",
      "native": "Aveiras de Cima",
      "type": "city",
      "level": null,
      "parent_id": null,
      "population": 4669,
      "latitude": "39.13769444",
      "longitude": "-8.89995556",
      "timezone": "Europe/Lisbon",
      "wikiDataId": "Q790340",
      "country_code": "PT",
      "state_code": "09",
      "state_id": 4859,
      "country_id": 177
    },
    {
      "id": 143291,
      "name": "آولاس دا ریبیرا",
      "name_default": "Avelãs da Ribeira",
      "native": "Avelãs da Ribeira",
      "type": "city",
      "level": null,
      "parent_id": null,
      "population": 142,
      "latitude": "40.67773000",
      "longitude": "-7.21492000",
      "timezone": "Europe/Lisbon",
      "wikiDataId": "Q32654",
      "country_code": "PT",
      "state_code": "09",
      "state_id": 4859,
      "country_id": 177
    },
    {
      "id": 143290,
      "name": "آولوسو",
      "name_default": "Aveloso",
      "native": "Aveloso",
      "type": "adm2",
      "level": null,
      "parent_id": null,
      "population": 184,
      "latitude": "40.93111111",
      "longitude": "-7.31666667",
      "timezone": "Europe/Lisbon",
      "wikiDataId": "Q790400",
      "country_code": "PT",
      "state_code": "09",
      "state_id": 4859,
      "country_id": 177
    },
    {
      "id": 143292,
      "name": "آزامبوجا",
      "name_default": "Azambuja",
      "native": "Azambuja",
      "type": "adm2",
      "level": null,
      "parent_id": null,
      "population": 21814,
      "latitude": "39.06666667",
      "longitude": "-8.86666667",
      "timezone": "Europe/Lisbon",
      "wikiDataId": "Q634164",
      "country_code": "PT",
      "state_code": "09",
      "state_id": 4859,
      "country_id": 177
    },
    {
      "id": 143293,
      "name": "آزامبوجا (شهر)",
      "name_default": "Azambuja (town)",
      "native": "Azumbuja (cidade)",
      "type": "city",
      "level": null,
      "parent_id": null,
      "population": null,
      "latitude": "39.07027778",
      "longitude": "-8.86833333",
      "timezone": "Europe/Lisbon",
      "wikiDataId": "Q31894609",
      "country_code": "PT",
      "state_code": "09",
      "state_id": 4859,
      "country_id": 177
    },
    {
      "id": 143294,
      "name": "آزنهاس دو مار",
      "name_default": "Azenhas do Mar",
      "native": "Azenhas do Mar",
      "type": "city",
      "level": null,
      "parent_id": null,
      "population": 800,
      "latitude": "38.84055556",
      "longitude": "-9.46000000",
      "timezone": "Europe/Lisbon",
      "wikiDataId": "Q1648341",
      "country_code": "PT",
      "state_code": "09",
      "state_id": 4859,
      "country_id": 177
    },
    {
      "id": 143295,
      "name": "آزوو",
      "name_default": "Azevo",
      "native": "Azevo",
      "type": "adm2",
      "level": null,
      "parent_id": null,
      "population": null,
      "latitude": "40.85166667",
      "longitude": "-7.13138889",
      "timezone": "Europe/Lisbon",
      "wikiDataId": "Q651803",
      "country_code": "PT",
      "state_code": "09",
      "state_id": 4859,
      "country_id": 177
    },
    {
      "id": 143296,
      "name": "آزویرا",
      "name_default": "Azueira",
      "native": "Azueira",
      "type": "city",
      "level": null,
      "parent_id": null,
      "population": 4434,
      "latitude": "39.00653000",
      "longitude": "-9.27475000",
      "timezone": "Europe/Lisbon",
      "wikiDataId": "Q31894809",
      "country_code": "PT",
      "state_code": "09",
      "state_id": 4859,
      "country_id": 177
    },
    {
      "id": 143298,
      "name": "باراکال",
      "name_default": "Baraçal",
      "native": "Baraçal",
      "type": "adm2",
      "level": null,
      "parent_id": null,
      "population": 194,
      "latitude": "40.39357000",
      "longitude": "-7.08522000",
      "timezone": "Europe/Lisbon",
      "wikiDataId": "Q807296",
      "country_code": "PT",
      "state_code": "09",
      "state_id": 4859,
      "country_id": 177
    },
    {
      "id": 143299,
      "name": "بارکارنا",
      "name_default": "Barcarena",
      "native": "Barcarena",
      "type": "city",
      "level": null,
      "parent_id": null,
      "population": 11968,
      "latitude": "38.73250000",
      "longitude": "-9.28000000",
      "timezone": "Europe/Lisbon",
      "wikiDataId": "Q31910854",
      "country_code": "PT",
      "state_code": "09",
      "state_id": 4859,
      "country_id": 177
    },
    {
      "id": 143300,
      "name": "باریرا",
      "name_default": "Barreira",
      "native": "Barreira",
      "type": "city",
      "level": null,
      "parent_id": null,
      "population": 165,
      "latitude": "40.91111111",
      "longitude": "-7.18638889",
      "timezone": "Europe/Lisbon",
      "wikiDataId": "Q808848",
      "country_code": "PT",
      "state_code": "09",
      "state_id": 4859,
      "country_id": 177
    },
    {
      "id": 143301,
      "name": "بیتو",
      "name_default": "Beato",
      "native": "Abençoado",
      "type": "city",
      "level": null,
      "parent_id": null,
      "population": 12183,
      "latitude": "38.73472222",
      "longitude": "-9.10583333",
      "timezone": "Europe/Lisbon",
      "wikiDataId": "Q686717",
      "country_code": "PT",
      "state_code": "09",
      "state_id": 4859,
      "country_id": 177
    },
    {
      "id": 143302,
      "name": "بلاس",
      "name_default": "Belas",
      "native": "Doze",
      "type": "city",
      "level": null,
      "parent_id": null,
      "population": 21019,
      "latitude": "38.76666667",
      "longitude": "-9.26666667",
      "timezone": "Europe/Lisbon",
      "wikiDataId": "Q815283",
      "country_code": "PT",
      "state_code": "09",
      "state_id": 4859,
      "country_id": 177
    },
    {
      "id": 143303,
      "name": "بندادا",
      "name_default": "Bendada",
      "native": "Bendda",
      "type": "adm1",
      "level": null,
      "parent_id": null,
      "population": 677,
      "latitude": "40.37083333",
      "longitude": "-7.25472222",
      "timezone": "Europe/Lisbon",
      "wikiDataId": "Q816746",
      "country_code": "PT",
      "state_code": "09",
      "state_id": 4859,
      "country_id": 177
    },
    {
      "id": 143304,
      "name": "بنسپرا",
      "name_default": "Benespera",
      "native": "Bem -estar",
      "type": "city",
      "level": null,
      "parent_id": null,
      "population": 281,
      "latitude": "40.44027778",
      "longitude": "-7.27638889",
      "timezone": "Europe/Lisbon",
      "wikiDataId": "Q32612",
      "country_code": "PT",
      "state_code": "09",
      "state_id": 4859,
      "country_id": 177
    },
    {
      "id": 143305,
      "name": "بنفیکا",
      "name_default": "Benfica",
      "native": "Benfica",
      "type": "city",
      "level": null,
      "parent_id": null,
      "population": 38523,
      "latitude": "38.75111111",
      "longitude": "-9.20222222",
      "timezone": "Europe/Lisbon",
      "wikiDataId": "Q534230",
      "country_code": "PT",
      "state_code": "09",
      "state_id": 4859,
      "country_id": 177
    },
    {
      "id": 143306,
      "name": "بیسمولا",
      "name_default": "Bismula",
      "native": "Bismula",
      "type": "adm2",
      "level": null,
      "parent_id": null,
      "population": 190,
      "latitude": "40.44694444",
      "longitude": "-6.96444444",
      "timezone": "Europe/Lisbon",
      "wikiDataId": "Q866595",
      "country_code": "PT",
      "state_code": "09",
      "state_id": 4859,
      "country_id": 177
    },
    {
      "id": 143307,
      "name": "بوبادلا",
      "name_default": "Bobadela",
      "native": "Bobadel",
      "type": "city",
      "level": null,
      "parent_id": null,
      "population": 8399,
      "latitude": "38.80663000",
      "longitude": "-9.09731000",
      "timezone": "Europe/Lisbon",
      "wikiDataId": "Q888361",
      "country_code": "PT",
      "state_code": "09",
      "state_id": 4859,
      "country_id": 177
    },
    {
      "id": 143308,
      "name": "بوچا کووا",
      "name_default": "Bouça Cova",
      "native": "Bouça Cova",
      "type": "city",
      "level": null,
      "parent_id": null,
      "population": null,
      "latitude": "40.70464000",
      "longitude": "-7.23830000",
      "timezone": "Europe/Lisbon",
      "wikiDataId": "Q895329",
      "country_code": "PT",
      "state_code": "09",
      "state_id": 4859,
      "country_id": 177
    },
    {
      "id": 143309,
      "name": "برندوا",
      "name_default": "Brandoa",
      "native": "Brandoa",
      "type": "city",
      "level": null,
      "parent_id": null,
      "population": 37607,
      "latitude": "38.76611111",
      "longitude": "-9.21444444",
      "timezone": "Europe/Lisbon",
      "wikiDataId": "Q266202",
      "country_code": "PT",
      "state_code": "09",
      "state_id": 4859,
      "country_id": 177
    },
    {
      "id": 143310,
      "name": "بوسلاس",
      "name_default": "Bucelas",
      "native": "BUCEL",
      "type": "city",
      "level": null,
      "parent_id": null,
      "population": 4663,
      "latitude": "38.90000000",
      "longitude": "-9.11666667",
      "timezone": "Europe/Lisbon",
      "wikiDataId": "Q997658",
      "country_code": "PT",
      "state_code": "09",
      "state_id": 4859,
      "country_id": 177
    },
    {
      "id": 143311,
      "name": "بوراکا",
      "name_default": "Buraca",
      "native": "Buraca",
      "type": "section",
      "level": null,
      "parent_id": null,
      "population": 14306,
      "latitude": "38.74222222",
      "longitude": "-9.20944444",
      "timezone": "Europe/Lisbon",
      "wikiDataId": "Q1010176",
      "country_code": "PT",
      "state_code": "09",
      "state_id": 4859,
      "country_id": 177
    },
    {
      "id": 143312,
      "name": "کاباناس د تورس",
      "name_default": "Cabanas de Torres",
      "native": "Cabanas de Torres",
      "type": "city",
      "level": null,
      "parent_id": null,
      "population": 1018,
      "latitude": "39.15631000",
      "longitude": "-9.06328000",
      "timezone": "Europe/Lisbon",
      "wikiDataId": "Q1024717",
      "country_code": "PT",
      "state_code": "09",
      "state_id": 4859,
      "country_id": 177
    },
    {
      "id": 143313,
      "name": "کابسا",
      "name_default": "Cabeça",
      "native": "Cabeça",
      "type": "city",
      "level": null,
      "parent_id": null,
      "population": null,
      "latitude": "40.31916667",
      "longitude": "-7.73527778",
      "timezone": "Europe/Lisbon",
      "wikiDataId": "Q1024799",
      "country_code": "PT",
      "state_code": "09",
      "state_id": 4859,
      "country_id": 177
    },
    {
      "id": 143314,
      "name": "کاسم",
      "name_default": "Cacem",
      "native": "Tanque",
      "type": "city",
      "level": null,
      "parent_id": null,
      "population": 93982,
      "latitude": "38.77042000",
      "longitude": "-9.30809000",
      "timezone": "Europe/Lisbon",
      "wikiDataId": "Q1025066",
      "country_code": "PT",
      "state_code": "09",
      "state_id": 4859,
      "country_id": 177
    },
    {
      "id": 143315,
      "name": "کاچیراس",
      "name_default": "Cachoeiras",
      "native": "Cachoeiras",
      "type": "city",
      "level": null,
      "parent_id": null,
      "population": null,
      "latitude": "38.98583333",
      "longitude": "-9.01638889",
      "timezone": "Europe/Lisbon",
      "wikiDataId": "Q1025044",
      "country_code": "PT",
      "state_code": "09",
      "state_id": 4859,
      "country_id": 177
    },
    {
      "id": 143316,
      "name": "کادافایس",
      "name_default": "Cadafais",
      "native": "CADAFAIS",
      "type": "city",
      "level": null,
      "parent_id": null,
      "population": 1687,
      "latitude": "39.00444444",
      "longitude": "-9.00416667",
      "timezone": "Europe/Lisbon",
      "wikiDataId": "Q687504",
      "country_code": "PT",
      "state_code": "09",
      "state_id": 4859,
      "country_id": 177
    },
    {
      "id": 143317,
      "name": "کادافاز",
      "name_default": "Cadafaz",
      "native": "Padfaz",
      "type": "city",
      "level": null,
      "parent_id": null,
      "population": null,
      "latitude": "40.58472222",
      "longitude": "-7.36194444",
      "timezone": "Europe/Lisbon",
      "wikiDataId": "Q24020",
      "country_code": "PT",
      "state_code": "09",
      "state_id": 4859,
      "country_id": 177
    },
    {
      "id": 143318,
      "name": "کاداوال",
      "name_default": "Cadaval",
      "native": "Cadaval",
      "type": "city",
      "level": null,
      "parent_id": null,
      "population": 14228,
      "latitude": "38.15859700",
      "longitude": "-6.96984380",
      "timezone": "Europe/Lisbon",
      "wikiDataId": "Q33661928",
      "country_code": "PT",
      "state_code": "09",
      "state_id": 4859,
      "country_id": 177
    },
    {
      "id": 143319,
      "name": "کالهاندریز",
      "name_default": "Calhandriz",
      "native": "Calhandriz",
      "type": "city",
      "level": null,
      "parent_id": null,
      "population": null,
      "latitude": "38.92500000",
      "longitude": "-9.06777778",
      "timezone": "Europe/Lisbon",
      "wikiDataId": "Q748055",
      "country_code": "PT",
      "state_code": "09",
      "state_id": 4859,
      "country_id": 177
    },
    {
      "id": 143321,
      "name": "کامپلوس",
      "name_default": "Campelos",
      "native": "Campes",
      "type": "city",
      "level": null,
      "parent_id": null,
      "population": 3667,
      "latitude": "39.20000000",
      "longitude": "-9.23333333",
      "timezone": "Europe/Lisbon",
      "wikiDataId": "Q582153",
      "country_code": "PT",
      "state_code": "09",
      "state_id": 4859,
      "country_id": 177
    },
    {
      "id": 143322,
      "name": "کامپو گرانده",
      "name_default": "Campo Grande",
      "native": "Campo Grande",
      "type": "section",
      "level": null,
      "parent_id": null,
      "population": 9658,
      "latitude": "38.75694444",
      "longitude": "-9.15361111",
      "timezone": "Europe/Lisbon",
      "wikiDataId": "Q963573",
      "country_code": "PT",
      "state_code": "09",
      "state_id": 4859,
      "country_id": 177
    },
    {
      "id": 143323,
      "name": "کامپولید",
      "name_default": "Campolide",
      "native": "Campolide",
      "type": "city",
      "level": null,
      "parent_id": null,
      "population": 15928,
      "latitude": "38.72638889",
      "longitude": "-9.16333333",
      "timezone": "Europe/Lisbon",
      "wikiDataId": "Q1031527",
      "country_code": "PT",
      "state_code": "09",
      "state_id": 4859,
      "country_id": 177
    },
    {
      "id": 143324,
      "name": "کانِکاس",
      "name_default": "Caneças",
      "native": "Caneças",
      "type": "city",
      "level": null,
      "parent_id": null,
      "population": 10978,
      "latitude": "38.81666667",
      "longitude": "-9.23333333",
      "timezone": "Europe/Lisbon",
      "wikiDataId": "Q1026716",
      "country_code": "PT",
      "state_code": "09",
      "state_id": 4859,
      "country_id": 177
    },
    {
      "id": 143325,
      "name": "کاراپیتو",
      "name_default": "Carapito",
      "native": "Carapito",
      "type": "city",
      "level": null,
      "parent_id": null,
      "population": 423,
      "latitude": "40.76759000",
      "longitude": "-7.45447000",
      "timezone": "Europe/Lisbon",
      "wikiDataId": "Q1035417",
      "country_code": "PT",
      "state_code": "09",
      "state_id": 4859,
      "country_id": 177
    },
    {
      "id": 143326,
      "name": "کارکاولوس",
      "name_default": "Carcavelos",
      "native": "Carcavelos",
      "type": "city",
      "level": null,
      "parent_id": null,
      "population": 20366,
      "latitude": "38.69220000",
      "longitude": "-9.33327000",
      "timezone": "Europe/Lisbon",
      "wikiDataId": "Q663893",
      "country_code": "PT",
      "state_code": "09",
      "state_id": 4859,
      "country_id": 177
    },
    {
      "id": 143327,
      "name": "کاردوزا",
      "name_default": "Cardosas",
      "native": "Cardosas",
      "type": "city",
      "level": null,
      "parent_id": null,
      "population": 819,
      "latitude": "38.97722222",
      "longitude": "-9.04083333",
      "timezone": "Europe/Lisbon",
      "wikiDataId": "Q430228",
      "country_code": "PT",
      "state_code": "09",
      "state_id": 4859,
      "country_id": 177
    },
    {
      "id": 143328,
      "name": "کارموئس",
      "name_default": "Carmões",
      "native": "Carmões",
      "type": "adm2",
      "level": null,
      "parent_id": null,
      "population": null,
      "latitude": "39.05777778",
      "longitude": "-9.13416667",
      "timezone": "Europe/Lisbon",
      "wikiDataId": "Q119690",
      "country_code": "PT",
      "state_code": "09",
      "state_id": 4859,
      "country_id": 177
    },
    {
      "id": 143329,
      "name": "کارناکسید",
      "name_default": "Carnaxide",
      "native": "Carnaxide",
      "type": "city",
      "level": null,
      "parent_id": null,
      "population": 23698,
      "latitude": "38.72666667",
      "longitude": "-9.24166667",
      "timezone": "Europe/Lisbon",
      "wikiDataId": "Q1013271",
      "country_code": "PT",
      "state_code": "09",
      "state_id": 4859,
      "country_id": 177
    },
    {
      "id": 143330,
      "name": "کارنیکاس",
      "name_default": "Carnicães",
      "native": "Açougueiros",
      "type": "city",
      "level": null,
      "parent_id": null,
      "population": null,
      "latitude": "40.73333333",
      "longitude": "-7.31833333",
      "timezone": "Europe/Lisbon",
      "wikiDataId": "Q611889",
      "country_code": "PT",
      "state_code": "09",
      "state_id": 4859,
      "country_id": 177
    },
    {
      "id": 143331,
      "name": "کارنید",
      "name_default": "Carnide",
      "native": "Carnide",
      "type": "city",
      "level": null,
      "parent_id": null,
      "population": 18028,
      "latitude": "38.76083333",
      "longitude": "-9.18361111",
      "timezone": "Europe/Lisbon",
      "wikiDataId": "Q1044020",
      "country_code": "PT",
      "state_code": "09",
      "state_id": 4859,
      "country_id": 177
    },
    {
      "id": 143332,
      "name": "کارنوتا",
      "name_default": "Carnota",
      "native": "Carnota",
      "type": "city",
      "level": null,
      "parent_id": null,
      "population": 1565,
      "latitude": "39.03361111",
      "longitude": "-9.07166667",
      "timezone": "Europe/Lisbon",
      "wikiDataId": "Q224591",
      "country_code": "PT",
      "state_code": "09",
      "state_id": 4859,
      "country_id": 177
    },
    {
      "id": 143333,
      "name": "کاراگوزلا",
      "name_default": "Carragozela",
      "native": "CARRAGAGEZELA",
      "type": "adm2",
      "level": null,
      "parent_id": null,
      "population": null,
      "latitude": "40.40572000",
      "longitude": "-7.76077000",
      "timezone": "Europe/Lisbon",
      "wikiDataId": "Q1044862",
      "country_code": "PT",
      "state_code": "09",
      "state_id": 4859,
      "country_id": 177
    },
    {
      "id": 143334,
      "name": "کاراپیچانا",
      "name_default": "Carrapichana",
      "native": "Carrapichana",
      "type": "city",
      "level": null,
      "parent_id": null,
      "population": 180,
      "latitude": "40.56194444",
      "longitude": "-7.48694444",
      "timezone": "Europe/Lisbon",
      "wikiDataId": "Q24147",
      "country_code": "PT",
      "state_code": "09",
      "state_id": 4859,
      "country_id": 177
    },
    {
      "id": 143335,
      "name": "کارگادو",
      "name_default": "Carregado",
      "native": "Carregado",
      "type": "city",
      "level": null,
      "parent_id": null,
      "population": 10474,
      "latitude": "39.02334000",
      "longitude": "-8.96450000",
      "timezone": "Europe/Lisbon",
      "wikiDataId": "Q1044914",
      "country_code": "PT",
      "state_code": "09",
      "state_id": 4859,
      "country_id": 177
    },
    {
      "id": 143336,
      "name": "کاروالهال",
      "name_default": "Carvalhal",
      "native": "Carvalhal",
      "type": "adm2",
      "level": null,
      "parent_id": null,
      "population": 2393,
      "latitude": "40.88361111",
      "longitude": "-7.28361111",
      "timezone": "Europe/Lisbon",
      "wikiDataId": "Q1046073",
      "country_code": "PT",
      "state_code": "09",
      "state_id": 4859,
      "country_id": 177
    },
    {
      "id": 143337,
      "name": "کاروایرا",
      "name_default": "Carvoeira",
      "native": "Carvoeira",
      "type": "adm2",
      "level": null,
      "parent_id": null,
      "population": 2848,
      "latitude": "39.08055556",
      "longitude": "-9.16222222",
      "timezone": "Europe/Lisbon",
      "wikiDataId": "Q388896",
      "country_code": "PT",
      "state_code": "09",
      "state_id": 4859,
      "country_id": 177
    },
    {
      "id": 143339,
      "name": "کاسال د کامبرا",
      "name_default": "Casal de Cambra",
      "native": "Casa de câmara",
      "type": "city",
      "level": null,
      "parent_id": null,
      "population": 13347,
      "latitude": "38.80236000",
      "longitude": "-9.23188000",
      "timezone": "Europe/Lisbon",
      "wikiDataId": "Q1046749",
      "country_code": "PT",
      "state_code": "09",
      "state_id": 4859,
      "country_id": 177
    },
    {
      "id": 143340,
      "name": "کاسال د سینزا",
      "name_default": "Casal de Cinza",
      "native": "Casal de Cinza",
      "type": "city",
      "level": null,
      "parent_id": null,
      "population": 483,
      "latitude": "40.54416667",
      "longitude": "-7.16416667",
      "timezone": "Europe/Lisbon",
      "wikiDataId": "Q32563",
      "country_code": "PT",
      "state_code": "09",
      "state_id": 4859,
      "country_id": 177
    },
    {
      "id": 143338,
      "name": "کازال واسکو",
      "name_default": "Casal Vasco",
      "native": "Casal Vasco",
      "type": "adm2",
      "level": null,
      "parent_id": null,
      "population": 218,
      "latitude": "40.63792000",
      "longitude": "-7.55538000",
      "timezone": "Europe/Lisbon",
      "wikiDataId": "Q33796618",
      "country_code": "PT",
      "state_code": "09",
      "state_id": 4859,
      "country_id": 177
    },
    {
      "id": 143341,
      "name": "کاساس دو سویرو",
      "name_default": "Casas do Soeiro",
      "native": "Casas do Soeiro",
      "type": "city",
      "level": null,
      "parent_id": null,
      "population": 468,
      "latitude": "40.61888889",
      "longitude": "-7.40638889",
      "timezone": "Europe/Lisbon",
      "wikiDataId": "Q24207",
      "country_code": "PT",
      "state_code": "09",
      "state_id": 4859,
      "country_id": 177
    },
    {
      "id": 143343,
      "name": "کاستانهیرا",
      "name_default": "Castanheira",
      "native": "Castanheira",
      "type": "adm2",
      "level": null,
      "parent_id": null,
      "population": 298,
      "latitude": "40.57472222",
      "longitude": "-7.07944444",
      "timezone": "Europe/Lisbon",
      "wikiDataId": "Q32582",
      "country_code": "PT",
      "state_code": "09",
      "state_id": 4859,
      "country_id": 177
    },
    {
      "id": 143344,
      "name": "کاستانهیرا دو ریباتخو",
      "name_default": "Castanheira do Ribatejo",
      "native": "Castanheira do Ribatejo",
      "type": "city",
      "level": null,
      "parent_id": null,
      "population": 7651,
      "latitude": "38.98333333",
      "longitude": "-8.96666667",
      "timezone": "Europe/Lisbon",
      "wikiDataId": "Q1048511",
      "country_code": "PT",
      "state_code": "09",
      "state_id": 4859,
      "country_id": 177
    },
    {
      "id": 143345,
      "name": "کاستیچائو",
      "name_default": "Casteição",
      "native": "Casteição",
      "type": "adm2",
      "level": null,
      "parent_id": null,
      "population": null,
      "latitude": "40.88083333",
      "longitude": "-7.32583333",
      "timezone": "Europe/Lisbon",
      "wikiDataId": "Q1048590",
      "country_code": "PT",
      "state_code": "09",
      "state_id": 4859,
      "country_id": 177
    },
    {
      "id": 143346,
      "name": "کاستلیرو",
      "name_default": "Casteleiro",
      "native": "Espanhol",
      "type": "city",
      "level": null,
      "parent_id": null,
      "population": 311,
      "latitude": "40.30222222",
      "longitude": "-7.23166667",
      "timezone": "Europe/Lisbon",
      "wikiDataId": "Q1048661",
      "country_code": "PT",
      "state_code": "09",
      "state_id": 4859,
      "country_id": 177
    },
    {
      "id": 143347,
      "name": "کاستلو (لیسبون)",
      "name_default": "Castelo (Lisbon)",
      "native": "Castelo (Lisbon)",
      "type": "section",
      "level": null,
      "parent_id": null,
      "population": null,
      "latitude": "38.71361111",
      "longitude": "-9.13333333",
      "timezone": "Europe/Lisbon",
      "wikiDataId": "Q978535",
      "country_code": "PT",
      "state_code": "09",
      "state_id": 4859,
      "country_id": 177
    },
    {
      "id": 143348,
      "name": "کاستلو بوم",
      "name_default": "Castelo Bom",
      "native": "Castelo Bom",
      "type": "city",
      "level": null,
      "parent_id": null,
      "population": 172,
      "latitude": "40.62027778",
      "longitude": "-6.90055556",
      "timezone": "Europe/Lisbon",
      "wikiDataId": "Q24191",
      "country_code": "PT",
      "state_code": "09",
      "state_id": 4859,
      "country_id": 177
    },
    {
      "id": 143349,
      "name": "کاستلو ملهور",
      "name_default": "Castelo Melhor",
      "native": "Castelo Melhor",
      "type": "city",
      "level": null,
      "parent_id": null,
      "population": 168,
      "latitude": "41.02750000",
      "longitude": "-7.06500000",
      "timezone": "Europe/Lisbon",
      "wikiDataId": "Q1048970",
      "country_code": "PT",
      "state_code": "09",
      "state_id": 4859,
      "country_id": 177
    },
    {
      "id": 143350,
      "name": "کاستلو رودریگو",
      "name_default": "Castelo Rodrigo",
      "native": "Castelo Rodrigo",
      "type": "adm2",
      "level": null,
      "parent_id": null,
      "population": 0,
      "latitude": "40.87555556",
      "longitude": "-6.96388889",
      "timezone": "Europe/Lisbon",
      "wikiDataId": "Q1048976",
      "country_code": "PT",
      "state_code": "09",
      "state_id": 4859,
      "country_id": 177
    },
    {
      "id": 143351,
      "name": "کاتیلوس",
      "name_default": "Cativelos",
      "native": "Cativelos",
      "type": "city",
      "level": null,
      "parent_id": null,
      "population": 610,
      "latitude": "40.53083333",
      "longitude": "-7.68194444",
      "timezone": "Europe/Lisbon",
      "wikiDataId": "Q1018782",
      "country_code": "PT",
      "state_code": "09",
      "state_id": 4859,
      "country_id": 177
    },
    {
      "id": 143352,
      "name": "کاوادود",
      "name_default": "Cavadoude",
      "native": "Cavadoude",
      "type": "adm1",
      "level": null,
      "parent_id": null,
      "population": 243,
      "latitude": "40.58472222",
      "longitude": "-7.28666667",
      "timezone": "Europe/Lisbon",
      "wikiDataId": "Q32576",
      "country_code": "PT",
      "state_code": "09",
      "state_id": 4859,
      "country_id": 177
    },
    {
      "id": 143353,
      "name": "کاکسیاس",
      "name_default": "Caxias",
      "native": "Caxias",
      "type": "city",
      "level": null,
      "parent_id": null,
      "population": null,
      "latitude": "38.70000000",
      "longitude": "-9.28333333",
      "timezone": "Europe/Lisbon",
      "wikiDataId": "Q33210",
      "country_code": "PT",
      "state_code": "09",
      "state_id": 4859,
      "country_id": 177
    },
    {
      "id": 143354,
      "name": "سدوویم",
      "name_default": "Cedovim",
      "native": "Cedova",
      "type": "city",
      "level": null,
      "parent_id": null,
      "population": 284,
      "latitude": "41.03333333",
      "longitude": "-7.31666667",
      "timezone": "Europe/Lisbon",
      "wikiDataId": "Q1030123",
      "country_code": "PT",
      "state_code": "09",
      "state_id": 4859,
      "country_id": 177
    },
    {
      "id": 143355,
      "name": "سلوریکو دا بیرا",
      "name_default": "Celorico da Beira",
      "native": "Celorico da Beira",
      "type": "adm2",
      "level": null,
      "parent_id": null,
      "population": 7693,
      "latitude": "40.63333333",
      "longitude": "-7.40000000",
      "timezone": "Europe/Lisbon",
      "wikiDataId": "Q523596",
      "country_code": "PT",
      "state_code": "09",
      "state_id": 4859,
      "country_id": 177
    },
    {
      "id": 143356,
      "name": "سرکال",
      "name_default": "Cercal",
      "native": "Cercal",
      "type": "city",
      "level": null,
      "parent_id": null,
      "population": 3772,
      "latitude": "39.23388889",
      "longitude": "-8.99833333",
      "timezone": "Europe/Lisbon",
      "wikiDataId": "Q377823",
      "country_code": "PT",
      "state_code": "09",
      "state_id": 4859,
      "country_id": 177
    },
    {
      "id": 143357,
      "name": "سردیرا",
      "name_default": "Cerdeira",
      "native": "Cereja",
      "type": "adm2",
      "level": null,
      "parent_id": null,
      "population": 188,
      "latitude": "40.51416667",
      "longitude": "-7.04666667",
      "timezone": "Europe/Lisbon",
      "wikiDataId": "Q1054894",
      "country_code": "PT",
      "state_code": "09",
      "state_id": 4859,
      "country_id": 177
    },
    {
      "id": 143358,
      "name": "سرخو",
      "name_default": "Cerejo",
      "native": "Eles podem",
      "type": "city",
      "level": null,
      "parent_id": null,
      "population": null,
      "latitude": "40.72944444",
      "longitude": "-7.22361111",
      "timezone": "Europe/Lisbon",
      "wikiDataId": "Q600284",
      "country_code": "PT",
      "state_code": "09",
      "state_id": 4859,
      "country_id": 177
    },
    {
      "id": 143359,
      "name": "چارنکا",
      "name_default": "Charneca",
      "native": "Charneca",
      "type": "city",
      "level": null,
      "parent_id": null,
      "population": 10509,
      "latitude": "38.78527778",
      "longitude": "-9.14500000",
      "timezone": "Europe/Lisbon",
      "wikiDataId": "Q1067627",
      "country_code": "PT",
      "state_code": "09",
      "state_id": 4859,
      "country_id": 177
    },
    {
      "id": 143361,
      "name": "چاس",
      "name_default": "Chãs",
      "native": "Chas",
      "type": "city",
      "level": null,
      "parent_id": null,
      "population": 234,
      "latitude": "40.98972222",
      "longitude": "-7.17027778",
      "timezone": "Europe/Lisbon",
      "wikiDataId": "Q1090906",
      "country_code": "PT",
      "state_code": "09",
      "state_id": 4859,
      "country_id": 177
    },
    {
      "id": 143360,
      "name": "چلیروس",
      "name_default": "Cheleiros",
      "native": "Cheleiros",
      "type": "city",
      "level": null,
      "parent_id": null,
      "population": null,
      "latitude": "38.88972222",
      "longitude": "-9.32888889",
      "timezone": "Europe/Lisbon",
      "wikiDataId": "Q770211",
      "country_code": "PT",
      "state_code": "09",
      "state_id": 4859,
      "country_id": 177
    },
    {
      "id": 143362,
      "name": "کدسیرو",
      "name_default": "Codesseiro",
      "native": "Codesseiro",
      "type": "city",
      "level": null,
      "parent_id": null,
      "population": 160,
      "latitude": "40.65111111",
      "longitude": "-7.20500000",
      "timezone": "Europe/Lisbon",
      "wikiDataId": "Q32651",
      "country_code": "PT",
      "state_code": "09",
      "state_id": 4859,
      "country_id": 177
    },
    {
      "id": 143363,
      "name": "کوگولا",
      "name_default": "Cogula",
      "native": "Cogula",
      "type": "adm2",
      "level": null,
      "parent_id": null,
      "population": 168,
      "latitude": "40.81277778",
      "longitude": "-7.26138889",
      "timezone": "Europe/Lisbon",
      "wikiDataId": "Q1107053",
      "country_code": "PT",
      "state_code": "09",
      "state_id": 4859,
      "country_id": 177
    },
    {
      "id": 143364,
      "name": "کولارس",
      "name_default": "Colares",
      "native": "Colares",
      "type": "city",
      "level": null,
      "parent_id": null,
      "population": 7905,
      "latitude": "38.80206000",
      "longitude": "-9.46305000",
      "timezone": "Europe/Lisbon",
      "wikiDataId": "Q1107623",
      "country_code": "PT",
      "state_code": "09",
      "state_id": 4859,
      "country_id": 177
    },
    {
      "id": 143365,
      "name": "کوراسائو دِ خسوس",
      "name_default": "Coração de Jesus",
      "native": "Coração de Jesus",
      "type": "section",
      "level": null,
      "parent_id": null,
      "population": null,
      "latitude": "38.72416667",
      "longitude": "-9.14500000",
      "timezone": "Europe/Lisbon",
      "wikiDataId": "Q1026670",
      "country_code": "PT",
      "state_code": "09",
      "state_id": 4859,
      "country_id": 177
    },
    {
      "id": 143366,
      "name": "کوریسکادا",
      "name_default": "Coriscada",
      "native": "Coriscada",
      "type": "city",
      "level": null,
      "parent_id": null,
      "population": 177,
      "latitude": "40.86197000",
      "longitude": "-7.20372000",
      "timezone": "Europe/Lisbon",
      "wikiDataId": "Q33801000",
      "country_code": "PT",
      "state_code": "09",
      "state_id": 4859,
      "country_id": 177
    },
    {
      "id": 143367,
      "name": "کورتیسادا",
      "name_default": "Cortiçada",
      "native": "Cortiçada",
      "type": "adm2",
      "level": null,
      "parent_id": null,
      "population": 5473,
      "latitude": "40.76500000",
      "longitude": "-7.54222222",
      "timezone": "Europe/Lisbon",
      "wikiDataId": "Q1135623",
      "country_code": "PT",
      "state_code": "09",
      "state_id": 4859,
      "country_id": 177
    },
    {
      "id": 143368,
      "name": "کورتیکو",
      "name_default": "Cortiçô",
      "native": "Cortiçô",
      "type": "city",
      "level": null,
      "parent_id": null,
      "population": 237,
      "latitude": "40.66305556",
      "longitude": "-7.49472222",
      "timezone": "Europe/Lisbon",
      "wikiDataId": "Q32684",
      "country_code": "PT",
      "state_code": "09",
      "state_id": 4859,
      "country_id": 177
    },
    {
      "id": 143369,
      "name": "کورتیکو دا سرا",
      "name_default": "Cortiçô da Serra",
      "native": "Cortiçô da Serra",
      "type": "city",
      "level": null,
      "parent_id": null,
      "population": null,
      "latitude": "40.60124000",
      "longitude": "-7.43426000",
      "timezone": "Europe/Lisbon",
      "wikiDataId": "Q24209",
      "country_code": "PT",
      "state_code": "09",
      "state_id": 4859,
      "country_id": 177
    },
    {
      "id": 143370,
      "name": "کروش",
      "name_default": "Coruche",
      "native": "Coruche",
      "type": "adm2",
      "level": null,
      "parent_id": null,
      "population": 19944,
      "latitude": "40.79361111",
      "longitude": "-7.54083333",
      "timezone": "Europe/Lisbon",
      "wikiDataId": "Q1135661",
      "country_code": "PT",
      "state_code": "09",
      "state_id": 4859,
      "country_id": 177
    },
    {
      "id": 143371,
      "name": "کوروجیرا",
      "name_default": "Corujeira",
      "native": "Corujeira",
      "type": "adm2",
      "level": null,
      "parent_id": null,
      "population": null,
      "latitude": "40.50609000",
      "longitude": "-7.32803000",
      "timezone": "Europe/Lisbon",
      "wikiDataId": "Q32569",
      "country_code": "PT",
      "state_code": "09",
      "state_id": 4859,
      "country_id": 177
    },
    {
      "id": 143374,
      "name": "کوتیموس",
      "name_default": "Cótimos",
      "native": "Come",
      "type": "city",
      "level": null,
      "parent_id": null,
      "population": 188,
      "latitude": "40.82750000",
      "longitude": "-7.23972222",
      "timezone": "Europe/Lisbon",
      "wikiDataId": "Q1150896",
      "country_code": "PT",
      "state_code": "09",
      "state_id": 4859,
      "country_id": 177
    },
    {
      "id": 143372,
      "name": "کروز کبرادا - دافوندو",
      "name_default": "Cruz Quebrada - Dafundo",
      "native": "Cruz Quebrada - Dafundo",
      "type": "city",
      "level": null,
      "parent_id": null,
      "population": 42961,
      "latitude": "38.70611111",
      "longitude": "-9.25055556",
      "timezone": "Europe/Lisbon",
      "wikiDataId": "Q1021364",
      "country_code": "PT",
      "state_code": "09",
      "state_id": 4859,
      "country_id": 177
    },
    {
      "id": 143373,
      "name": "کاستویاس",
      "name_default": "Custoias",
      "native": "Custoias",
      "type": "city",
      "level": null,
      "parent_id": null,
      "population": 19406,
      "latitude": "41.10527778",
      "longitude": "-7.32083333",
      "timezone": "Europe/Lisbon",
      "wikiDataId": "Q34798089",
      "country_code": "PT",
      "state_code": "09",
      "state_id": 4859,
      "country_id": 177
    },
    {
      "id": 143375,
      "name": "دامایا",
      "name_default": "Damaia",
      "native": "Senhora",
      "type": "locality",
      "level": null,
      "parent_id": null,
      "population": 17044,
      "latitude": "38.74527778",
      "longitude": "-9.21833333",
      "timezone": "Europe/Lisbon",
      "wikiDataId": "Q377919",
      "country_code": "PT",
      "state_code": "09",
      "state_id": 4859,
      "country_id": 177
    },
    {
      "id": 143376,
      "name": "دویس پورتوس",
      "name_default": "Dois Portos",
      "native": "Dois Portos",
      "type": "city",
      "level": null,
      "parent_id": null,
      "population": null,
      "latitude": "39.03840000",
      "longitude": "-9.18556000",
      "timezone": "Europe/Lisbon",
      "wikiDataId": "Q1234975",
      "country_code": "PT",
      "state_code": "09",
      "state_id": 4859,
      "country_id": 177
    },
    {
      "id": 143377,
      "name": "دورنلاس",
      "name_default": "Dornelas",
      "native": "Dornelas",
      "type": "adm2",
      "level": null,
      "parent_id": null,
      "population": 666,
      "latitude": "40.73105000",
      "longitude": "-7.55894000",
      "timezone": "Europe/Lisbon",
      "wikiDataId": "Q1245694",
      "country_code": "PT",
      "state_code": "09",
      "state_id": 4859,
      "country_id": 177
    },
    {
      "id": 143378,
      "name": "ایرادو",
      "name_default": "Eirado",
      "native": "Andar",
      "type": "city",
      "level": null,
      "parent_id": null,
      "population": 181,
      "latitude": "40.77333333",
      "longitude": "-7.49000000",
      "timezone": "Europe/Lisbon",
      "wikiDataId": "Q647956",
      "country_code": "PT",
      "state_code": "09",
      "state_id": 4859,
      "country_id": 177
    },
    {
      "id": 143379,
      "name": "انکارناسائو",
      "name_default": "Encarnação",
      "native": "Encarnação",
      "type": "city",
      "level": null,
      "parent_id": null,
      "population": 4918,
      "latitude": "39.03333333",
      "longitude": "-9.36805556",
      "timezone": "Europe/Lisbon",
      "wikiDataId": "Q1024864",
      "country_code": "PT",
      "state_code": "09",
      "state_id": 4859,
      "country_id": 177
    },
    {
      "id": 143380,
      "name": "انکسارا دو بیسپو",
      "name_default": "Enxara do Bispo",
      "native": "Enxara do Bispo",
      "type": "city",
      "level": null,
      "parent_id": null,
      "population": null,
      "latitude": "38.99194444",
      "longitude": "-9.24083333",
      "timezone": "Europe/Lisbon",
      "wikiDataId": "Q637142",
      "country_code": "PT",
      "state_code": "09",
      "state_id": 4859,
      "country_id": 177
    },
    {
      "id": 143381,
      "name": "اریکیرا",
      "name_default": "Ericeira",
      "native": "Ericeira",
      "type": "city",
      "level": null,
      "parent_id": null,
      "population": 7538,
      "latitude": "38.96277778",
      "longitude": "-9.41527778",
      "timezone": "Europe/Lisbon",
      "wikiDataId": "Q1351868",
      "country_code": "PT",
      "state_code": "09",
      "state_id": 4859,
      "country_id": 177
    },
    {
      "id": 143382,
      "name": "ارواس تنراس",
      "name_default": "Ervas Tenras",
      "native": "Ervas Tenras",
      "type": "city",
      "level": null,
      "parent_id": null,
      "population": null,
      "latitude": "40.74055556",
      "longitude": "-7.18611111",
      "timezone": "Europe/Lisbon",
      "wikiDataId": "Q1279919",
      "country_code": "PT",
      "state_code": "09",
      "state_id": 4859,
      "country_id": 177
    },
    {
      "id": 143383,
      "name": "اروِدوسا",
      "name_default": "Ervedosa",
      "native": "Evo",
      "type": "city",
      "level": null,
      "parent_id": null,
      "population": 137,
      "latitude": "40.84694444",
      "longitude": "-7.17611111",
      "timezone": "Europe/Lisbon",
      "wikiDataId": "Q1362590",
      "country_code": "PT",
      "state_code": "09",
      "state_id": 4859,
      "country_id": 177
    },
    {
      "id": 143384,
      "name": "اسکالهائو",
      "name_default": "Escalhão",
      "native": "Escalhão",
      "type": "city",
      "level": null,
      "parent_id": null,
      "population": 566,
      "latitude": "40.94944444",
      "longitude": "-6.92611111",
      "timezone": "Europe/Lisbon",
      "wikiDataId": "Q1366789",
      "country_code": "PT",
      "state_code": "09",
      "state_id": 4859,
      "country_id": 177
    },
    {
      "id": 143386,
      "name": "فایا",
      "name_default": "Faia",
      "native": "Fazer",
      "type": "city",
      "level": null,
      "parent_id": null,
      "population": 160,
      "latitude": "40.56055556",
      "longitude": "-7.31027778",
      "timezone": "Europe/Lisbon",
      "wikiDataId": "Q32675",
      "country_code": "PT",
      "state_code": "09",
      "state_id": 4859,
      "country_id": 177
    },
    {
      "id": 143387,
      "name": "فالاگوئیرا",
      "name_default": "Falagueira",
      "native": "Falagueira",
      "type": "locality",
      "level": null,
      "parent_id": null,
      "population": 17044,
      "latitude": "38.75903000",
      "longitude": "-9.21988000",
      "timezone": "Europe/Lisbon",
      "wikiDataId": "Q1024775",
      "country_code": "PT",
      "state_code": "09",
      "state_id": 4859,
      "country_id": 177
    },
    {
      "id": 143388,
      "name": "فامالیچائو",
      "name_default": "Famalicão",
      "native": "Famalicão",
      "type": "city",
      "level": null,
      "parent_id": null,
      "population": 615,
      "latitude": "40.44361111",
      "longitude": "-7.37722222",
      "timezone": "Europe/Lisbon",
      "wikiDataId": "Q32643",
      "country_code": "PT",
      "state_code": "09",
      "state_id": 4859,
      "country_id": 177
    },
    {
      "id": 143389,
      "name": "فاموئیس",
      "name_default": "Famões",
      "native": "Famões",
      "type": "city",
      "level": null,
      "parent_id": null,
      "population": 9435,
      "latitude": "38.78333333",
      "longitude": "-9.21666667",
      "timezone": "Europe/Lisbon",
      "wikiDataId": "Q375205",
      "country_code": "PT",
      "state_code": "09",
      "state_id": 4859,
      "country_id": 177
    },
    {
      "id": 143390,
      "name": "فنهوئه",
      "name_default": "Fanhões",
      "native": "Fanhões",
      "type": "city",
      "level": null,
      "parent_id": null,
      "population": 2639,
      "latitude": "38.88111111",
      "longitude": "-9.15250000",
      "timezone": "Europe/Lisbon",
      "wikiDataId": "Q1395657",
      "country_code": "PT",
      "state_code": "09",
      "state_id": 4859,
      "country_id": 177
    },
    {
      "id": 143391,
      "name": "فرنائو خوانس",
      "name_default": "Fernão Joanes",
      "native": "Fernão Joanes",
      "type": "adm2",
      "level": null,
      "parent_id": null,
      "population": 186,
      "latitude": "40.48694444",
      "longitude": "-7.35527778",
      "timezone": "Europe/Lisbon",
      "wikiDataId": "Q32673",
      "country_code": "PT",
      "state_code": "09",
      "state_id": 4859,
      "country_id": 177
    },
    {
      "id": 143397,
      "name": "فایس",
      "name_default": "Fiães",
      "native": "Fiães",
      "type": "city",
      "level": null,
      "parent_id": null,
      "population": 8708,
      "latitude": "40.73305556",
      "longitude": "-7.37305556",
      "timezone": "Europe/Lisbon",
      "wikiDataId": "Q1422129",
      "country_code": "PT",
      "state_code": "09",
      "state_id": 4859,
      "country_id": 177
    },
    {
      "id": 143392,
      "name": "فیگوئرا د کاستلو رودریگو",
      "name_default": "Figueira de Castelo Rodrigo",
      "native": "Figueira de Castelo Rodrigo",
      "type": "adm2",
      "level": null,
      "parent_id": null,
      "population": 6260,
      "latitude": "40.90000000",
      "longitude": "-6.96666667",
      "timezone": "Europe/Lisbon",
      "wikiDataId": "Q644782",
      "country_code": "PT",
      "state_code": "09",
      "state_id": 4859,
      "country_id": 177
    },
    {
      "id": 143393,
      "name": "فیگوئرا دو گینچو",
      "name_default": "Figueira do Guincho",
      "native": "Figueira do Guincho",
      "type": "city",
      "level": null,
      "parent_id": null,
      "population": 500,
      "latitude": "38.75000000",
      "longitude": "-9.46666667",
      "timezone": "Europe/Lisbon",
      "wikiDataId": "Q49350155",
      "country_code": "PT",
      "state_code": "09",
      "state_id": 4859,
      "country_id": 177
    },
    {
      "id": 143395,
      "name": "فیگوئیرو دا گرانخا",
      "name_default": "Figueiró da Granja",
      "native": "Figueiró da Granja",
      "type": "city",
      "level": null,
      "parent_id": null,
      "population": 344,
      "latitude": "40.62805556",
      "longitude": "-7.49916667",
      "timezone": "Europe/Lisbon",
      "wikiDataId": "Q32655",
      "country_code": "PT",
      "state_code": "09",
      "state_id": 4859,
      "country_id": 177
    },
    {
      "id": 143396,
      "name": "فیگوئیرو دا سرا",
      "name_default": "Figueiró da Serra",
      "native": "Figueiró da Serra",
      "type": "adm2",
      "level": null,
      "parent_id": null,
      "population": null,
      "latitude": "40.54055556",
      "longitude": "-7.48888889",
      "timezone": "Europe/Lisbon",
      "wikiDataId": "Q32575",
      "country_code": "PT",
      "state_code": "09",
      "state_id": 4859,
      "country_id": 177
    },
    {
      "id": 143394,
      "name": "فیگوئیروس",
      "name_default": "Figueiros",
      "native": "Figueiros",
      "type": "city",
      "level": null,
      "parent_id": null,
      "population": 1155,
      "latitude": "39.27946000",
      "longitude": "-9.05083000",
      "timezone": "Europe/Lisbon",
      "wikiDataId": "Q915093",
      "country_code": "PT",
      "state_code": "09",
      "state_id": 4859,
      "country_id": 177
    },
    {
      "id": 143414,
      "name": "فویوس",
      "name_default": "Fóios",
      "native": "Fóios",
      "type": "city",
      "level": null,
      "parent_id": null,
      "population": 310,
      "latitude": "40.28666667",
      "longitude": "-6.89250000",
      "timezone": "Europe/Lisbon",
      "wikiDataId": "Q1479607",
      "country_code": "PT",
      "state_code": "09",
      "state_id": 4859,
      "country_id": 177
    },
    {
      "id": 143398,
      "name": "فولگوسینیو",
      "name_default": "Folgosinho",
      "native": "Folgosinho",
      "type": "city",
      "level": null,
      "parent_id": null,
      "population": 442,
      "latitude": "40.50944444",
      "longitude": "-7.51388889",
      "timezone": "Europe/Lisbon",
      "wikiDataId": "Q32653",
      "country_code": "PT",
      "state_code": "09",
      "state_id": 4859,
      "country_id": 177
    },
    {
      "id": 143399,
      "name": "فولهادوسا",
      "name_default": "Folhadosa",
      "native": "Folhadosa",
      "type": "city",
      "level": null,
      "parent_id": null,
      "population": null,
      "latitude": "40.37944444",
      "longitude": "-7.78472222",
      "timezone": "Europe/Lisbon",
      "wikiDataId": "Q1435387",
      "country_code": "PT",
      "state_code": "09",
      "state_id": 4859,
      "country_id": 177
    },
    {
      "id": 143400,
      "name": "فونتانلاس",
      "name_default": "Fontanelas",
      "native": "Fontanelas",
      "type": "city",
      "level": null,
      "parent_id": null,
      "population": 6001,
      "latitude": "38.85000000",
      "longitude": "-9.43333333",
      "timezone": "Europe/Lisbon",
      "wikiDataId": "Q5465145",
      "country_code": "PT",
      "state_code": "09",
      "state_id": 4859,
      "country_id": 177
    },
    {
      "id": 143401,
      "name": "فونته لونگا",
      "name_default": "Fonte Longa",
      "native": "Fonte Longa",
      "type": "city",
      "level": null,
      "parent_id": null,
      "population": 301,
      "latitude": "41.01305556",
      "longitude": "-7.23361111",
      "timezone": "Europe/Lisbon",
      "wikiDataId": "Q1284330",
      "country_code": "PT",
      "state_code": "09",
      "state_id": 4859,
      "country_id": 177
    },
    {
      "id": 143402,
      "name": "فورنینیوس",
      "name_default": "Forninhos",
      "native": "Forninhos",
      "type": "adm2",
      "level": null,
      "parent_id": null,
      "population": 208,
      "latitude": "40.70472222",
      "longitude": "-7.55416667",
      "timezone": "Europe/Lisbon",
      "wikiDataId": "Q1437869",
      "country_code": "PT",
      "state_code": "09",
      "state_id": 4859,
      "country_id": 177
    },
    {
      "id": 143403,
      "name": "فورنو تلهایرو",
      "name_default": "Forno Telheiro",
      "native": "Forno Telheiro",
      "type": "adm2",
      "level": null,
      "parent_id": null,
      "population": 597,
      "latitude": "40.67333333",
      "longitude": "-7.39777778",
      "timezone": "Europe/Lisbon",
      "wikiDataId": "Q23996",
      "country_code": "PT",
      "state_code": "09",
      "state_id": 4859,
      "country_id": 177
    },
    {
      "id": 143404,
      "name": "فورنوس د آلگودرز",
      "name_default": "Fornos de Algodres",
      "native": "Fornos de Algodres",
      "type": "adm2",
      "level": null,
      "parent_id": null,
      "population": 4989,
      "latitude": "40.61666667",
      "longitude": "-7.53333333",
      "timezone": "Europe/Lisbon",
      "wikiDataId": "Q641715",
      "country_code": "PT",
      "state_code": "09",
      "state_id": 4859,
      "country_id": 177
    },
    {
      "id": 143405,
      "name": "قلعه‌ی فورته دا کاسا",
      "name_default": "Forte da Casa",
      "native": "Forte da Casa",
      "type": "city",
      "level": null,
      "parent_id": null,
      "population": null,
      "latitude": "38.87391000",
      "longitude": "-9.05216000",
      "timezone": "Europe/Lisbon",
      "wikiDataId": "Q1438943",
      "country_code": "PT",
      "state_code": "09",
      "state_id": 4859,
      "country_id": 177
    },
    {
      "id": 143406,
      "name": "فرش‌ها",
      "name_default": "Freches",
      "native": "Atrevido",
      "type": "adm2",
      "level": null,
      "parent_id": null,
      "population": null,
      "latitude": "40.73166667",
      "longitude": "-7.34638889",
      "timezone": "Europe/Lisbon",
      "wikiDataId": "Q1430269",
      "country_code": "PT",
      "state_code": "09",
      "state_id": 4859,
      "country_id": 177
    },
    {
      "id": 143407,
      "name": "فریندا",
      "name_default": "Freineda",
      "native": "Freineda",
      "type": "city",
      "level": null,
      "parent_id": null,
      "population": 188,
      "latitude": "40.58305556",
      "longitude": "-6.89111111",
      "timezone": "Europe/Lisbon",
      "wikiDataId": "Q24140",
      "country_code": "PT",
      "state_code": "09",
      "state_id": 4859,
      "country_id": 177
    },
    {
      "id": 143408,
      "name": "فریریا",
      "name_default": "Freiria",
      "native": "Freiria",
      "type": "adm2",
      "level": null,
      "parent_id": null,
      "population": 2436,
      "latitude": "39.02739000",
      "longitude": "-9.31995000",
      "timezone": "Europe/Lisbon",
      "wikiDataId": "Q1454635",
      "country_code": "PT",
      "state_code": "09",
      "state_id": 4859,
      "country_id": 177
    },
    {
      "id": 143409,
      "name": "فریکسدا دو تورائو",
      "name_default": "Freixeda do Torrão",
      "native": "Freixeda do Torrão",
      "type": "adm2",
      "level": null,
      "parent_id": null,
      "population": null,
      "latitude": "40.89027778",
      "longitude": "-7.03222222",
      "timezone": "Europe/Lisbon",
      "wikiDataId": "Q1384914",
      "country_code": "PT",
      "state_code": "09",
      "state_id": 4859,
      "country_id": 177
    },
    {
      "id": 143410,
      "name": "فریکسداس",
      "name_default": "Freixedas",
      "native": "Freixedas",
      "type": "city",
      "level": null,
      "parent_id": null,
      "population": 735,
      "latitude": "40.69194444",
      "longitude": "-7.16305556",
      "timezone": "Europe/Lisbon",
      "wikiDataId": "Q749351",
      "country_code": "PT",
      "state_code": "09",
      "state_id": 4859,
      "country_id": 177
    },
    {
      "id": 143411,
      "name": "فریکسو",
      "name_default": "Freixo",
      "native": "Moda",
      "type": "city",
      "level": null,
      "parent_id": null,
      "population": 167,
      "latitude": "40.61861111",
      "longitude": "-7.01027778",
      "timezone": "Europe/Lisbon",
      "wikiDataId": "Q24136",
      "country_code": "PT",
      "state_code": "09",
      "state_id": 4859,
      "country_id": 177
    },
    {
      "id": 143412,
      "name": "فریکسو دِ نومائو",
      "name_default": "Freixo de Numão",
      "native": "Freixo de Numão",
      "type": "city",
      "level": null,
      "parent_id": null,
      "population": 609,
      "latitude": "41.06666667",
      "longitude": "-7.21666667",
      "timezone": "Europe/Lisbon",
      "wikiDataId": "Q1454978",
      "country_code": "PT",
      "state_code": "09",
      "state_id": 4859,
      "country_id": 177
    },
    {
      "id": 143413,
      "name": "فریلاس",
      "name_default": "Frielas",
      "native": "Frielas",
      "type": "city",
      "level": null,
      "parent_id": null,
      "population": null,
      "latitude": "38.82583333",
      "longitude": "-9.14444444",
      "timezone": "Europe/Lisbon",
      "wikiDataId": "Q1024850",
      "country_code": "PT",
      "state_code": "09",
      "state_id": 4859,
      "country_id": 177
    },
    {
      "id": 143415,
      "name": "گاگوس",
      "name_default": "Gagos",
      "native": "Gagá",
      "type": "city",
      "level": null,
      "parent_id": null,
      "population": null,
      "latitude": "40.58388889",
      "longitude": "-7.11472222",
      "timezone": "Europe/Lisbon",
      "wikiDataId": "Q32567",
      "country_code": "PT",
      "state_code": "09",
      "state_id": 4859,
      "country_id": 177
    },
    {
      "id": 143416,
      "name": "گیرابولهوس",
      "name_default": "Girabolhos",
      "native": "Girabolhos",
      "type": "city",
      "level": null,
      "parent_id": null,
      "population": 241,
      "latitude": "40.50944444",
      "longitude": "-7.73666667",
      "timezone": "Europe/Lisbon",
      "wikiDataId": "Q1526603",
      "country_code": "PT",
      "state_code": "09",
      "state_id": 4859,
      "country_id": 177
    },
    {
      "id": 143417,
      "name": "گونسالو",
      "name_default": "Gonçalo",
      "native": "Gonçalo",
      "type": "adm2",
      "level": null,
      "parent_id": null,
      "population": 0,
      "latitude": "40.41666667",
      "longitude": "-7.35000000",
      "timezone": "Europe/Lisbon",
      "wikiDataId": "Q32578",
      "country_code": "PT",
      "state_code": "09",
      "state_id": 4859,
      "country_id": 177
    },
    {
      "id": 143418,
      "name": "گونسالو بوکاس",
      "name_default": "Gonçalo Bocas",
      "native": "Gonçalo Bocas",
      "type": "city",
      "level": null,
      "parent_id": null,
      "population": 204,
      "latitude": "40.57666667",
      "longitude": "-7.17750000",
      "timezone": "Europe/Lisbon",
      "wikiDataId": "Q32639",
      "country_code": "PT",
      "state_code": "09",
      "state_id": 4859,
      "country_id": 177
    },
    {
      "id": 143419,
      "name": "گوویا",
      "name_default": "Gouveia",
      "native": "Gouveia",
      "type": "city",
      "level": null,
      "parent_id": null,
      "population": 14046,
      "latitude": "40.50000000",
      "longitude": "-7.60000000",
      "timezone": "Europe/Lisbon",
      "wikiDataId": "Q599317",
      "country_code": "PT",
      "state_code": "09",
      "state_id": 4859,
      "country_id": 177
    },
    {
      "id": 143423,
      "name": "گراسا",
      "name_default": "Graça",
      "native": "Graça",
      "type": "city",
      "level": null,
      "parent_id": null,
      "population": 13956,
      "latitude": "38.71722222",
      "longitude": "-9.13083333",
      "timezone": "Europe/Lisbon",
      "wikiDataId": "Q1520260",
      "country_code": "PT",
      "state_code": "09",
      "state_id": 4859,
      "country_id": 177
    },
    {
      "id": 143420,
      "name": "گرادیل",
      "name_default": "Gradil",
      "native": "Construído",
      "type": "city",
      "level": null,
      "parent_id": null,
      "population": null,
      "latitude": "38.98222222",
      "longitude": "-9.28083333",
      "timezone": "Europe/Lisbon",
      "wikiDataId": "Q1024960",
      "country_code": "PT",
      "state_code": "09",
      "state_id": 4859,
      "country_id": 177
    },
    {
      "id": 143421,
      "name": "گرادیز",
      "name_default": "Gradiz",
      "native": "Gradiz",
      "type": "adm2",
      "level": null,
      "parent_id": null,
      "population": null,
      "latitude": "40.85944444",
      "longitude": "-7.52861111",
      "timezone": "Europe/Lisbon",
      "wikiDataId": "Q1541256",
      "country_code": "PT",
      "state_code": "09",
      "state_id": 4859,
      "country_id": 177
    },
    {
      "id": 143422,
      "name": "گرانجا",
      "name_default": "Granja",
      "native": "Fazenda",
      "type": "city",
      "level": null,
      "parent_id": null,
      "population": 514,
      "latitude": "40.75201000",
      "longitude": "-7.20428000",
      "timezone": "Europe/Lisbon",
      "wikiDataId": "Q1543139",
      "country_code": "PT",
      "state_code": "09",
      "state_id": 4859,
      "country_id": 177
    },
    {
      "id": 143424,
      "name": "گواردا",
      "name_default": "Guarda",
      "native": "Guarda",
      "type": "adm1",
      "level": null,
      "parent_id": null,
      "population": 32111,
      "latitude": "40.53638889",
      "longitude": "-7.26833333",
      "timezone": "Europe/Lisbon",
      "wikiDataId": "Q750594",
      "country_code": "PT",
      "state_code": "09",
      "state_id": 4859,
      "country_id": 177
    },
    {
      "id": 143425,
      "name": "گیلیرو",
      "name_default": "Guilheiro",
      "native": "Guilheiro",
      "type": "adm2",
      "level": null,
      "parent_id": null,
      "population": 126,
      "latitude": "40.89805556",
      "longitude": "-7.40972222",
      "timezone": "Europe/Lisbon",
      "wikiDataId": "Q1469748",
      "country_code": "PT",
      "state_code": "09",
      "state_id": 4859,
      "country_id": 177
    },
    {
      "id": 143426,
      "name": "هورتا",
      "name_default": "Horta",
      "native": "Horta",
      "type": "city",
      "level": null,
      "parent_id": null,
      "population": 14331,
      "latitude": "41.06777778",
      "longitude": "-7.31055556",
      "timezone": "Europe/Lisbon",
      "wikiDataId": "Q1630175",
      "country_code": "PT",
      "state_code": "09",
      "state_id": 4859,
      "country_id": 177
    },
    {
      "id": 143427,
      "name": "ایگرخا نوا",
      "name_default": "Igreja Nova",
      "native": "Igreja Nova",
      "type": "adm2",
      "level": null,
      "parent_id": null,
      "population": null,
      "latitude": "38.91694444",
      "longitude": "-9.31944444",
      "timezone": "Europe/Lisbon",
      "wikiDataId": "Q1024983",
      "country_code": "PT",
      "state_code": "09",
      "state_id": 4859,
      "country_id": 177
    },
    {
      "id": 143428,
      "name": "اینفیاس",
      "name_default": "Infias",
      "native": "Infias",
      "type": "adm2",
      "level": null,
      "parent_id": null,
      "population": 1811,
      "latitude": "40.63000000",
      "longitude": "-7.53944444",
      "timezone": "Europe/Lisbon",
      "wikiDataId": "Q32701",
      "country_code": "PT",
      "state_code": "09",
      "state_id": 4859,
      "country_id": 177
    },
    {
      "id": 143429,
      "name": "جارملو سائو میگل",
      "name_default": "Jarmelo São Miguel",
      "native": "Jarmelo São Miguel",
      "type": "city",
      "level": null,
      "parent_id": null,
      "population": null,
      "latitude": "40.60040000",
      "longitude": "-7.14915000",
      "timezone": "Europe/Lisbon",
      "wikiDataId": "Q45893",
      "country_code": "PT",
      "state_code": "09",
      "state_id": 4859,
      "country_id": 177
    },
    {
      "id": 143430,
      "name": "جارملو سائو پدرو",
      "name_default": "Jarmelo São Pedro",
      "native": "Jarmelo São Pedro",
      "type": "city",
      "level": null,
      "parent_id": null,
      "population": null,
      "latitude": "40.59447000",
      "longitude": "-7.13016000",
      "timezone": "Europe/Lisbon",
      "wikiDataId": "Q45878",
      "country_code": "PT",
      "state_code": "09",
      "state_id": 4859,
      "country_id": 177
    },
    {
      "id": 143431,
      "name": "ژائو آنتائو",
      "name_default": "João Antão",
      "native": "João Antão",
      "type": "city",
      "level": null,
      "parent_id": null,
      "population": 126,
      "latitude": "40.46443000",
      "longitude": "-7.23940000",
      "timezone": "Europe/Lisbon",
      "wikiDataId": "Q32688",
      "country_code": "PT",
      "state_code": "09",
      "state_id": 4859,
      "country_id": 177
    },
    {
      "id": 143433,
      "name": "جونچا",
      "name_default": "Junça",
      "native": "Junça",
      "type": "city",
      "level": null,
      "parent_id": null,
      "population": null,
      "latitude": "40.68138889",
      "longitude": "-6.88555556",
      "timezone": "Europe/Lisbon",
      "wikiDataId": "Q24205",
      "country_code": "PT",
      "state_code": "09",
      "state_id": 4859,
      "country_id": 177
    },
    {
      "id": 143432,
      "name": "جونکایس",
      "name_default": "Juncais",
      "native": "Juncais",
      "type": "adm2",
      "level": null,
      "parent_id": null,
      "population": null,
      "latitude": "40.60944444",
      "longitude": "-7.50750000",
      "timezone": "Europe/Lisbon",
      "wikiDataId": "Q32571",
      "country_code": "PT",
      "state_code": "09",
      "state_id": 4859,
      "country_id": 177
    },
    {
      "id": 143434,
      "name": "لاگارینوس",
      "name_default": "Lagarinhos",
      "native": "Lagarinhos",
      "type": "city",
      "level": null,
      "parent_id": null,
      "population": null,
      "latitude": "40.48583333",
      "longitude": "-7.66944444",
      "timezone": "Europe/Lisbon",
      "wikiDataId": "Q32647",
      "country_code": "PT",
      "state_code": "09",
      "state_id": 4859,
      "country_id": 177
    },
    {
      "id": 143435,
      "name": "لاجوسا",
      "name_default": "Lajeosa",
      "native": "Lajeosa",
      "type": "city",
      "level": null,
      "parent_id": null,
      "population": null,
      "latitude": "40.34353000",
      "longitude": "-6.81621000",
      "timezone": "Europe/Lisbon",
      "wikiDataId": "Q1013111",
      "country_code": "PT",
      "state_code": "09",
      "state_id": 4859,
      "country_id": 177
    },
    {
      "id": 143436,
      "name": "لاخئوسا دو موندگو",
      "name_default": "Lajeosa do Mondego",
      "native": "Lajeosa do Mondego",
      "type": "adm2",
      "level": null,
      "parent_id": null,
      "population": 627,
      "latitude": "40.62750000",
      "longitude": "-7.33750000",
      "timezone": "Europe/Lisbon",
      "wikiDataId": "Q24145",
      "country_code": "PT",
      "state_code": "09",
      "state_id": 4859,
      "country_id": 177
    },
    {
      "id": 143437,
      "name": "لاخس",
      "name_default": "Lajes",
      "native": "Lajes",
      "type": "city",
      "level": null,
      "parent_id": null,
      "population": 6500,
      "latitude": "40.48361111",
      "longitude": "-7.71638889",
      "timezone": "Europe/Lisbon",
      "wikiDataId": "Q1800786",
      "country_code": "PT",
      "state_code": "09",
      "state_id": 4859,
      "country_id": 177
    },
    {
      "id": 143438,
      "name": "لاماس",
      "name_default": "Lamas",
      "native": "Lamas",
      "type": "city",
      "level": null,
      "parent_id": null,
      "population": 771,
      "latitude": "39.21114000",
      "longitude": "-9.06151000",
      "timezone": "Europe/Lisbon",
      "wikiDataId": "Q1024811",
      "country_code": "PT",
      "state_code": "09",
      "state_id": 4859,
      "country_id": 177
    },
    {
      "id": 143439,
      "name": "لامگال",
      "name_default": "Lamegal",
      "native": "Lamegal",
      "type": "adm2",
      "level": null,
      "parent_id": null,
      "population": 209,
      "latitude": "40.66500000",
      "longitude": "-7.07972222",
      "timezone": "Europe/Lisbon",
      "wikiDataId": "Q126158",
      "country_code": "PT",
      "state_code": "09",
      "state_id": 4859,
      "country_id": 177
    },
    {
      "id": 143440,
      "name": "لامِیراس",
      "name_default": "Lameiras",
      "native": "Pisca",
      "type": "adm2",
      "level": null,
      "parent_id": null,
      "population": 200,
      "latitude": "40.71138889",
      "longitude": "-7.10444444",
      "timezone": "Europe/Lisbon",
      "wikiDataId": "Q1801513",
      "country_code": "PT",
      "state_code": "09",
      "state_id": 4859,
      "country_id": 177
    },
    {
      "id": 143441,
      "name": "لاپا",
      "name_default": "Lapa",
      "native": "Lapa",
      "type": "city",
      "level": null,
      "parent_id": null,
      "population": 19472,
      "latitude": "38.71189000",
      "longitude": "-9.16007000",
      "timezone": "Europe/Lisbon",
      "wikiDataId": "Q1631359",
      "country_code": "PT",
      "state_code": "09",
      "state_id": 4859,
      "country_id": 177
    },
    {
      "id": 143442,
      "name": "لاپا دوس دینیروس",
      "name_default": "Lapa Dos Dinheiros",
      "native": "Lapa Dos Dinheiros",
      "type": "city",
      "level": null,
      "parent_id": null,
      "population": null,
      "latitude": "40.37888889",
      "longitude": "-7.70944444",
      "timezone": "Europe/Lisbon",
      "wikiDataId": "Q1498704",
      "country_code": "PT",
      "state_code": "09",
      "state_id": 4859,
      "country_id": 177
    },
    {
      "id": 143443,
      "name": "لئومیل",
      "name_default": "Leomil",
      "native": "Leomil",
      "type": "city",
      "level": null,
      "parent_id": null,
      "population": 1131,
      "latitude": "40.63527778",
      "longitude": "-6.96416667",
      "timezone": "Europe/Lisbon",
      "wikiDataId": "Q23999",
      "country_code": "PT",
      "state_code": "09",
      "state_id": 4859,
      "country_id": 177
    },
    {
      "id": 143445,
      "name": "لینهارس (سلوریکو دا بیرا)",
      "name_default": "Linhares (Celorico da Beira)",
      "native": "Linhares (Celorico da Beira)",
      "type": "city",
      "level": null,
      "parent_id": null,
      "population": null,
      "latitude": "40.54083333",
      "longitude": "-7.46111111",
      "timezone": "Europe/Lisbon",
      "wikiDataId": "Q24142",
      "country_code": "PT",
      "state_code": "09",
      "state_id": 4859,
      "country_id": 177
    },
    {
      "id": 143447,
      "name": "لانگرویوا",
      "name_default": "Longroiva",
      "native": "Londutive",
      "type": "city",
      "level": null,
      "parent_id": null,
      "population": 218,
      "latitude": "40.98103000",
      "longitude": "-7.20334000",
      "timezone": "Europe/Lisbon",
      "wikiDataId": "Q1725783",
      "country_code": "PT",
      "state_code": "09",
      "state_id": 4859,
      "country_id": 177
    },
    {
      "id": 143448,
      "name": "لورگا",
      "name_default": "Loriga",
      "native": "Loriga",
      "type": "city",
      "level": null,
      "parent_id": null,
      "population": 1053,
      "latitude": "40.31666667",
      "longitude": "-7.68333333",
      "timezone": "Europe/Lisbon",
      "wikiDataId": "Q734336",
      "country_code": "PT",
      "state_code": "09",
      "state_id": 4859,
      "country_id": 177
    },
    {
      "id": 143449,
      "name": "لورس",
      "name_default": "Loures",
      "native": "Loures",
      "type": "city",
      "level": null,
      "parent_id": null,
      "population": 66231,
      "latitude": "38.83333333",
      "longitude": "-9.16666667",
      "timezone": "Europe/Lisbon",
      "wikiDataId": "Q917535",
      "country_code": "PT",
      "state_code": "09",
      "state_id": 4859,
      "country_id": 177
    },
    {
      "id": 143450,
      "name": "لورینها",
      "name_default": "Lourinhã",
      "native": "Lourinhã",
      "type": "city",
      "level": null,
      "parent_id": null,
      "population": 1470,
      "latitude": "39.25000000",
      "longitude": "-9.31666667",
      "timezone": "Europe/Lisbon",
      "wikiDataId": "Q986017",
      "country_code": "PT",
      "state_code": "09",
      "state_id": 4859,
      "country_id": 177
    },
    {
      "id": 143451,
      "name": "لوسا",
      "name_default": "Lousa",
      "native": "Ardósia",
      "type": "city",
      "level": null,
      "parent_id": null,
      "population": 17604,
      "latitude": "38.89171000",
      "longitude": "-9.20972000",
      "timezone": "Europe/Lisbon",
      "wikiDataId": "Q595642",
      "country_code": "PT",
      "state_code": "09",
      "state_id": 4859,
      "country_id": 177
    },
    {
      "id": 143452,
      "name": "لومیار",
      "name_default": "Lumiar",
      "native": "Lumiar",
      "type": "adm2",
      "level": null,
      "parent_id": null,
      "population": 34008,
      "latitude": "38.76527778",
      "longitude": "-9.15861111",
      "timezone": "Europe/Lisbon",
      "wikiDataId": "Q924723",
      "country_code": "PT",
      "state_code": "09",
      "state_id": 4859,
      "country_id": 177
    },
    {
      "id": 143474,
      "name": "ماکااینهاس",
      "name_default": "Maçainhas",
      "native": "Maçainhas",
      "type": "city",
      "level": null,
      "parent_id": null,
      "population": 312,
      "latitude": "40.53666667",
      "longitude": "-7.30250000",
      "timezone": "Europe/Lisbon",
      "wikiDataId": "Q32669",
      "country_code": "PT",
      "state_code": "09",
      "state_id": 4859,
      "country_id": 177
    },
    {
      "id": 143475,
      "name": "ماچال دو چائو",
      "name_default": "Maçal do Chão",
      "native": "Maçal do Chão",
      "type": "city",
      "level": null,
      "parent_id": null,
      "population": 143,
      "latitude": "40.69171000",
      "longitude": "-7.29178000",
      "timezone": "Europe/Lisbon",
      "wikiDataId": "Q24193",
      "country_code": "PT",
      "state_code": "09",
      "state_id": 4859,
      "country_id": 177
    },
    {
      "id": 143453,
      "name": "ماسیرا",
      "name_default": "Maceira",
      "native": "Maceira",
      "type": "city",
      "level": null,
      "parent_id": null,
      "population": 245,
      "latitude": "40.68555556",
      "longitude": "-7.47166667",
      "timezone": "Europe/Lisbon",
      "wikiDataId": "Q32708",
      "country_code": "PT",
      "state_code": "09",
      "state_id": 4859,
      "country_id": 177
    },
    {
      "id": 143476,
      "name": "ماچوسا",
      "name_default": "Maçussa",
      "native": "Maçussa",
      "type": "city",
      "level": null,
      "parent_id": null,
      "population": null,
      "latitude": "39.19472222",
      "longitude": "-8.86722222",
      "timezone": "Europe/Lisbon",
      "wikiDataId": "Q1894283",
      "country_code": "PT",
      "state_code": "09",
      "state_id": 4859,
      "country_id": 177
    },
    {
      "id": 143454,
      "name": "مادالنا",
      "name_default": "Madalena",
      "native": "Madalena",
      "type": "section",
      "level": null,
      "parent_id": null,
      "population": 6136,
      "latitude": "38.71000000",
      "longitude": "-9.13472222",
      "timezone": "Europe/Lisbon",
      "wikiDataId": "Q387982",
      "country_code": "PT",
      "state_code": "09",
      "state_id": 4859,
      "country_id": 177
    },
    {
      "id": 143455,
      "name": "مافرا",
      "name_default": "Mafra",
      "native": "Mafra",
      "type": "adm2",
      "level": null,
      "parent_id": null,
      "population": 76685,
      "latitude": "38.93333333",
      "longitude": "-9.33333333",
      "timezone": "Europe/Lisbon",
      "wikiDataId": "Q986419",
      "country_code": "PT",
      "state_code": "09",
      "state_id": 4859,
      "country_id": 177
    },
    {
      "id": 143456,
      "name": "مالکاتا",
      "name_default": "Malcata",
      "native": "Malcata",
      "type": "city",
      "level": null,
      "parent_id": null,
      "population": 322,
      "latitude": "40.29990000",
      "longitude": "-7.06147000",
      "timezone": "Europe/Lisbon",
      "wikiDataId": "Q1886957",
      "country_code": "PT",
      "state_code": "09",
      "state_id": 4859,
      "country_id": 177
    },
    {
      "id": 143457,
      "name": "مالهادا سوردا",
      "name_default": "Malhada Sorda",
      "native": "Malhada Sorda",
      "type": "city",
      "level": null,
      "parent_id": null,
      "population": 254,
      "latitude": "40.53638889",
      "longitude": "-6.91444444",
      "timezone": "Europe/Lisbon",
      "wikiDataId": "Q24010",
      "country_code": "PT",
      "state_code": "09",
      "state_id": 4859,
      "country_id": 177
    },
    {
      "id": 143458,
      "name": "مالپارتیدا",
      "name_default": "Malpartida",
      "native": "Malpartida",
      "type": "city",
      "level": null,
      "parent_id": null,
      "population": null,
      "latitude": "40.76000000",
      "longitude": "-6.86666667",
      "timezone": "Europe/Lisbon",
      "wikiDataId": "Q24005",
      "country_code": "PT",
      "state_code": "09",
      "state_id": 4859,
      "country_id": 177
    },