{
  "locale": "pt-BR",
  "country": {
    "id": 225,
    "code": "TR",
    "iso3": "TUR",
    "numeric_code": "792",
    "name": "Turquia",
    "name_default": "Turkey",
    "native": "Türkiye",
    "capital": "Ankara",
    "phonecode": "90",
    "currency": "TRY",
    "currency_name": "Turkish lira",
    "currency_symbol": "₺",
    "tld": ".tr",
    "population": 85664944,
    "gdp": 1437406,
    "region": "Asia",
    "region_id": 3,
    "subregion": "Western Asia",
    "subregion_id": 11,
    "nationality": "Turkish",
    "timezones": [
      {
        "zoneName": "Europe/Istanbul",
        "gmtOffset": 10800,
        "gmtOffsetName": "UTC+03:00",
        "abbreviation": "EET",
        "tzName": "Eastern European Time"
      }
    ],
    "latitude": "39.00000000",
    "longitude": "35.00000000",
    "emoji": "🇹🇷",
    "emojiU": "U+1F1F9 U+1F1F7"
  },
  "state": {
    "id": 2206,
    "code": "61",
    "iso2": "61",
    "iso3166_2": "TR-61",
    "fips_code": "61",
    "name": "Trebizonda",
    "name_default": "Trabzon",
    "native": "Trabzon",
    "type": "province",
    "level": "1",
    "parent_id": null,
    "population": null,
    "latitude": "40.85264390",
    "longitude": "39.78492730",
    "timezone": "Europe/Istanbul",
    "wikiDataId": "Q388995",
    "country_code": "TR"
  },
  "cities": [
    {
      "id": 107104,
      "name": "Akçaabat",
      "name_default": "Akçaabat",
      "native": "Akçaabat",
      "type": "adm2",
      "level": null,
      "parent_id": null,
      "population": 123552,
      "latitude": "41.01970000",
      "longitude": "39.56293000",
      "timezone": "Europe/Istanbul",
      "wikiDataId": "Q424435",
      "country_code": "TR",
      "state_code": "61",
      "state_id": 2206,
      "country_id": 225
    },
    {
      "id": 107171,
      "name": "Arakli",
      "name_default": "Araklı",
      "native": "Araklı",
      "type": "city",
      "level": null,
      "parent_id": null,
      "population": 49496,
      "latitude": "40.74000000",
      "longitude": "39.96000000",
      "timezone": "Europe/Istanbul",
      "wikiDataId": "Q764830",
      "country_code": "TR",
      "state_code": "61",
      "state_id": 2206,
      "country_id": 225
    },
    {
      "id": 107191,
      "name": "Arsin",
      "name_default": "Arsin",
      "native": "Arsin",
      "type": "adm2",
      "level": null,
      "parent_id": null,
      "population": 34831,
      "latitude": "40.86743000",
      "longitude": "39.92938000",
      "timezone": "Europe/Istanbul",
      "wikiDataId": "Q2248665",
      "country_code": "TR",
      "state_code": "61",
      "state_id": 2206,
      "country_id": 225
    },
    {
      "id": 107348,
      "name": "Beşikdüzü",
      "name_default": "Beşikdüzü",
      "native": "Beşikdüzü",
      "type": "adm2",
      "level": null,
      "parent_id": null,
      "population": 36987,
      "latitude": "41.05202000",
      "longitude": "39.23294000",
      "timezone": "Europe/Istanbul",
      "wikiDataId": "Q127389",
      "country_code": "TR",
      "state_code": "61",
      "state_id": 2206,
      "country_id": 225
    },
    {
      "id": 108785,
      "name": "Çarşıbaşı",
      "name_default": "Çarşıbaşı",
      "native": "Çarşıbaşı",
      "type": "adm2",
      "level": null,
      "parent_id": null,
      "population": 16335,
      "latitude": "41.04203000",
      "longitude": "39.40035000",
      "timezone": "Europe/Istanbul",
      "wikiDataId": "Q2901047",
      "country_code": "TR",
      "state_code": "61",
      "state_id": 2206,
      "country_id": 225
    },
    {
      "id": 108801,
      "name": "Çaykara",
      "name_default": "Çaykara",
      "native": "Çaykara",
      "type": "adm2",
      "level": null,
      "parent_id": null,
      "population": 16213,
      "latitude": "40.74267000",
      "longitude": "40.23175000",
      "timezone": "Europe/Istanbul",
      "wikiDataId": "Q2248873",
      "country_code": "TR",
      "state_code": "61",
      "state_id": 2206,
      "country_id": 225
    },
    {
      "id": 107483,
      "name": "Dernekpazarı",
      "name_default": "Dernekpazarı",
      "native": "Dernekpazarı",
      "type": "adm2",
      "level": null,
      "parent_id": null,
      "population": 6880,
      "latitude": "40.79658000",
      "longitude": "40.24460000",
      "timezone": "Europe/Istanbul",
      "wikiDataId": "Q2000455",
      "country_code": "TR",
      "state_code": "61",
      "state_id": 2206,
      "country_id": 225
    },
    {
      "id": 107544,
      "name": "Düzköy",
      "name_default": "Düzköy",
      "native": "Düzköy",
      "type": "adm2",
      "level": null,
      "parent_id": null,
      "population": 8090,
      "latitude": "40.87461000",
      "longitude": "39.41536000",
      "timezone": "Europe/Istanbul",
      "wikiDataId": "Q1012858",
      "country_code": "TR",
      "state_code": "61",
      "state_id": 2206,
      "country_id": 225
    },
    {
      "id": 107815,
      "name": "Hayrat",
      "name_default": "Hayrat",
      "native": "Şaşkınlık",
      "type": "adm2",
      "level": null,
      "parent_id": null,
      "population": 10298,
      "latitude": "40.88530000",
      "longitude": "40.36495000",
      "timezone": "Europe/Istanbul",
      "wikiDataId": "Q1011282",
      "country_code": "TR",
      "state_code": "61",
      "state_id": 2206,
      "country_id": 225
    },
    {
      "id": 108073,
      "name": "Köprübaşı",
      "name_default": "Köprübaşı",
      "native": "Köprübaşı",
      "type": "adm2",
      "level": null,
      "parent_id": null,
      "population": 6401,
      "latitude": "40.80692000",
      "longitude": "40.11439000",
      "timezone": "Europe/Istanbul",
      "wikiDataId": "Q284489",
      "country_code": "TR",
      "state_code": "61",
      "state_id": 2206,
      "country_id": 225
    },
    {
      "id": 108165,
      "name": "Maçka",
      "name_default": "Maçka",
      "native": "Maçka",
      "type": "adm2",
      "level": null,
      "parent_id": null,
      "population": 26626,
      "latitude": "40.72127000",
      "longitude": "39.59786000",
      "timezone": "Europe/Istanbul",
      "wikiDataId": "Q1004646",
      "country_code": "TR",
      "state_code": "61",
      "state_id": 2206,
      "country_id": 225
    },
    {
      "id": 108261,
      "name": "De",
      "name_default": "Of",
      "native": "İle ilgili",
      "type": "adm2",
      "level": null,
      "parent_id": null,
      "population": 31951,
      "latitude": "40.94055000",
      "longitude": "40.25918000",
      "timezone": "Europe/Istanbul",
      "wikiDataId": "Q988069",
      "country_code": "TR",
      "state_code": "61",
      "state_id": 2206,
      "country_id": 225
    },
    {
      "id": 108282,
      "name": "Ortahisar",
      "name_default": "Ortahisar",
      "native": "Ortahisar",
      "type": "adm3",
      "level": null,
      "parent_id": null,
      "population": 317520,
      "latitude": "40.88029000",
      "longitude": "39.88998000",
      "timezone": "Europe/Istanbul",
      "wikiDataId": "Q16258125",
      "country_code": "TR",
      "state_code": "61",
      "state_id": 2206,
      "country_id": 225
    },
    {
      "id": 108930,
      "name": "Şalpazarı",
      "name_default": "Şalpazarı",
      "native": "Şalpazarı",
      "type": "adm2",
      "level": null,
      "parent_id": null,
      "population": 11934,
      "latitude": "40.93826000",
      "longitude": "39.19006000",
      "timezone": "Europe/Istanbul",
      "wikiDataId": "Q2195037",
      "country_code": "TR",
      "state_code": "61",
      "state_id": 2206,
      "country_id": 225
    },
    {
      "id": 108524,
      "name": "Sürmene",
      "name_default": "Sürmene",
      "native": "Sürmene",
      "type": "adm2",
      "level": null,
      "parent_id": null,
      "population": 20039,
      "latitude": "40.90588000",
      "longitude": "40.12792000",
      "timezone": "Europe/Istanbul",
      "wikiDataId": "Q1019897",
      "country_code": "TR",
      "state_code": "61",
      "state_id": 2206,
      "country_id": 225
    },
    {
      "id": 108583,
      "name": "Tônia",
      "name_default": "Tonya",
      "native": "Tonya",
      "type": "adm2",
      "level": null,
      "parent_id": null,
      "population": 14592,
      "latitude": "40.88402000",
      "longitude": "39.28486000",
      "timezone": "Europe/Istanbul",
      "wikiDataId": "Q183651",
      "country_code": "TR",
      "state_code": "61",
      "state_id": 2206,
      "country_id": 225
    },
    {
      "id": 108645,
      "name": "Vakfıkebir",
      "name_default": "Vakfıkebir",
      "native": "Vakfıkebir",
      "type": "adm2",
      "level": null,
      "parent_id": null,
      "population": 37728,
      "latitude": "41.04583000",
      "longitude": "39.27639000",
      "timezone": "Europe/Istanbul",
      "wikiDataId": "Q189134",
      "country_code": "TR",
      "state_code": "61",
      "state_id": 2206,
      "country_id": 225
    },
    {
      "id": 108733,
      "name": "Yomra",
      "name_default": "Yomra",
      "native": "Yomra",
      "type": "adm2",
      "level": null,
      "parent_id": null,
      "population": 19770,
      "latitude": "40.95326000",
      "longitude": "39.85546000",
      "timezone": "Europe/Istanbul",
      "wikiDataId": "Q1582858",
      "country_code": "TR",
      "state_code": "61",
      "state_id": 2206,
      "country_id": 225
    }
  ]
}
