{
  "locale": "fa",
  "country": {
    "id": 53,
    "code": "CR",
    "iso3": "CRI",
    "numeric_code": "188",
    "name": "کاستاریکا",
    "name_default": "Costa Rica",
    "native": "Costa Rica",
    "capital": "San Jose",
    "phonecode": "506",
    "currency": "CRC",
    "currency_name": "Costa Rican colón",
    "currency_symbol": "₡",
    "tld": ".cr",
    "population": 5309625,
    "gdp": 102591,
    "region": "Americas",
    "region_id": 2,
    "subregion": "Central America",
    "subregion_id": 9,
    "nationality": "Costa Rican",
    "timezones": [
      {
        "zoneName": "America/Costa_Rica",
        "gmtOffset": -21600,
        "gmtOffsetName": "UTC-06:00",
        "abbreviation": "CST",
        "tzName": "Central Standard Time (North America"
      }
    ],
    "latitude": "10.00000000",
    "longitude": "-84.00000000",
    "emoji": "🇨🇷",
    "emojiU": "U+1F1E8 U+1F1F7"
  },
  "state": {
    "id": 1214,
    "code": "SJ",
    "iso2": "SJ",
    "iso3166_2": "CR-SJ",
    "fips_code": "08",
    "name": "سن خوزه",
    "name_default": "San José",
    "native": "San José",
    "type": "province",
    "level": null,
    "parent_id": null,
    "population": null,
    "latitude": "9.93254270",
    "longitude": "-84.07957820",
    "timezone": "America/Costa_Rica",
    "wikiDataId": "Q647808",
    "country_code": "CR"
  },
  "cities": [
    {
      "id": 21642,
      "name": "آکوستا",
      "name_default": "Acosta",
      "native": "Acosta",
      "type": "city",
      "level": null,
      "parent_id": null,
      "population": null,
      "latitude": "9.80000000",
      "longitude": "-84.20000000",
      "timezone": "America/Costa_Rica",
      "wikiDataId": "Q1935173",
      "country_code": "CR",
      "state_code": "SJ",
      "state_id": 1214,
      "country_id": 53
    },
    {
      "id": 21644,
      "name": "آلاخوئلیتا",
      "name_default": "Alajuelita",
      "native": "Alajuelita",
      "type": "city",
      "level": null,
      "parent_id": null,
      "population": 13845,
      "latitude": "9.90000000",
      "longitude": "-84.10000000",
      "timezone": "America/Costa_Rica",
      "wikiDataId": "Q37104",
      "country_code": "CR",
      "state_code": "SJ",
      "state_id": 1214,
      "country_id": 53
    },
    {
      "id": 21646,
      "name": "آسری",
      "name_default": "Aserrí",
      "native": "Aserrí",
      "type": "city",
      "level": null,
      "parent_id": null,
      "population": 29112,
      "latitude": "9.86667000",
      "longitude": "-84.10000000",
      "timezone": "America/Costa_Rica",
      "wikiDataId": "Q1935231",
      "country_code": "CR",
      "state_code": "SJ",
      "state_id": 1214,
      "country_id": 53
    },
    {
      "id": 21655,
      "name": "کاله بلانکوس",
      "name_default": "Calle Blancos",
      "native": "Calle Blancos",
      "type": "section",
      "level": null,
      "parent_id": null,
      "population": 16894,
      "latitude": "9.95000000",
      "longitude": "-84.06667000",
      "timezone": "America/Costa_Rica",
      "wikiDataId": "Q23745297",
      "country_code": "CR",
      "state_code": "SJ",
      "state_id": 1214,
      "country_id": 53
    },
    {
      "id": 21663,
      "name": "کولیما",
      "name_default": "Colima",
      "native": "Colima",
      "type": "section",
      "level": null,
      "parent_id": null,
      "population": 15347,
      "latitude": "9.95091000",
      "longitude": "-84.08503000",
      "timezone": "America/Costa_Rica",
      "wikiDataId": "Q23745491",
      "country_code": "CR",
      "state_code": "SJ",
      "state_id": 1214,
      "country_id": 53
    },
    {
      "id": 21664,
      "name": "کولون",
      "name_default": "Colón",
      "native": "Colon",
      "type": "city",
      "level": null,
      "parent_id": null,
      "population": 9687,
      "latitude": "9.91491000",
      "longitude": "-84.24170000",
      "timezone": "America/Costa_Rica",
      "wikiDataId": "Q23745494",
      "country_code": "CR",
      "state_code": "SJ",
      "state_id": 1214,
      "country_id": 53
    },
    {
      "id": 21670,
      "name": "کوریدابات",
      "name_default": "Curridabat",
      "native": "Curridabat",
      "type": "city",
      "level": null,
      "parent_id": null,
      "population": 30574,
      "latitude": "9.91667000",
      "longitude": "-84.03333000",
      "timezone": "America/Costa_Rica",
      "wikiDataId": "Q1935162",
      "country_code": "CR",
      "state_code": "SJ",
      "state_id": 1214,
      "country_id": 53
    },
    {
      "id": 21671,
      "name": "دانیل فلورس",
      "name_default": "Daniel Flores",
      "native": "Daniel Flores",
      "type": "section",
      "level": null,
      "parent_id": null,
      "population": 10028,
      "latitude": "9.33554000",
      "longitude": "-83.66940000",
      "timezone": "America/Costa_Rica",
      "wikiDataId": "Q3701600",
      "country_code": "CR",
      "state_code": "SJ",
      "state_id": 1214,
      "country_id": 53
    },
    {
      "id": 21673,
      "name": "دسامپارادوس",
      "name_default": "Desamparados",
      "native": "Desamparados",
      "type": "city",
      "level": null,
      "parent_id": null,
      "population": 14448,
      "latitude": "9.90000000",
      "longitude": "-84.06667000",
      "timezone": "America/Costa_Rica",
      "wikiDataId": "Q1444404",
      "country_code": "CR",
      "state_code": "SJ",
      "state_id": 1214,
      "country_id": 53
    },
    {
      "id": 21674,
      "name": "دوتا",
      "name_default": "Dota",
      "native": "Dota",
      "type": "adm1",
      "level": null,
      "parent_id": null,
      "population": null,
      "latitude": "9.65000000",
      "longitude": "-83.95000000",
      "timezone": "America/Costa_Rica",
      "wikiDataId": "Q1935243",
      "country_code": "CR",
      "state_code": "SJ",
      "state_id": 1214,
      "country_id": 53
    },
    {
      "id": 21676,
      "name": "اسکازو",
      "name_default": "Escazú",
      "native": "Escazú",
      "type": "city",
      "level": null,
      "parent_id": null,
      "population": 25410,
      "latitude": "9.93333000",
      "longitude": "-84.13333000",
      "timezone": "America/Costa_Rica",
      "wikiDataId": "Q2221760",
      "country_code": "CR",
      "state_code": "SJ",
      "state_id": 1214,
      "country_id": 53
    },
    {
      "id": 21682,
      "name": "گویکوکئا",
      "name_default": "Goicoechea",
      "native": "Gicoechea",
      "type": "city",
      "level": null,
      "parent_id": null,
      "population": 26005,
      "latitude": "9.94848000",
      "longitude": "-84.06365000",
      "timezone": "America/Costa_Rica",
      "wikiDataId": "Q2406129",
      "country_code": "CR",
      "state_code": "SJ",
      "state_id": 1214,
      "country_id": 53
    },
    {
      "id": 21684,
      "name": "گرانادیلا",
      "name_default": "Granadilla",
      "native": "Granadilla",
      "type": "section",
      "level": null,
      "parent_id": null,
      "population": 12683,
      "latitude": "9.93491000",
      "longitude": "-84.01688000",
      "timezone": "America/Costa_Rica",
      "wikiDataId": "Q23741849",
      "country_code": "CR",
      "state_code": "SJ",
      "state_id": 1214,
      "country_id": 53
    },
    {
      "id": 21686,
      "name": "گوادالوپ",
      "name_default": "Guadalupe",
      "native": "Guadalupo",
      "type": "city",
      "level": null,
      "parent_id": null,
      "population": 20913,
      "latitude": "9.94805000",
      "longitude": "-84.05665000",
      "timezone": "America/Costa_Rica",
      "wikiDataId": "Q2594049",
      "country_code": "CR",
      "state_code": "SJ",
      "state_id": 1214,
      "country_id": 53
    },
    {
      "id": 21692,
      "name": "ایپیس",
      "name_default": "Ipís",
      "native": "Ipís",
      "type": "section",
      "level": null,
      "parent_id": null,
      "population": 31762,
      "latitude": "9.96745000",
      "longitude": "-84.01326000",
      "timezone": "America/Costa_Rica",
      "wikiDataId": "Q23742002",
      "country_code": "CR",
      "state_code": "SJ",
      "state_id": 1214,
      "country_id": 53
    },
    {
      "id": 21701,
      "name": "لئون کورتس",
      "name_default": "León Cortés",
      "native": "León Cortés",
      "type": "adm2",
      "level": null,
      "parent_id": null,
      "population": 0,
      "latitude": "9.68300000",
      "longitude": "-84.04781000",
      "timezone": "America/Costa_Rica",
      "wikiDataId": "Q196346",
      "country_code": "CR",
      "state_code": "SJ",
      "state_id": 1214,
      "country_id": 53
    },
    {
      "id": 21707,
      "name": "مرسدس",
      "name_default": "Mercedes",
      "native": "Mercedes",
      "type": "city",
      "level": null,
      "parent_id": null,
      "population": 5467,
      "latitude": "9.26270000",
      "longitude": "-83.58202000",
      "timezone": "America/Costa_Rica",
      "wikiDataId": "Q23740327",
      "country_code": "CR",
      "state_code": "SJ",
      "state_id": 1214,
      "country_id": 53
    },
    {
      "id": 21710,
      "name": "مونتس د اوکا",
      "name_default": "Montes de Oca",
      "native": "Montes de Oca",
      "type": "city",
      "level": null,
      "parent_id": null,
      "population": 13251,
      "latitude": "9.93960000",
      "longitude": "-84.03013000",
      "timezone": "America/Costa_Rica",
      "wikiDataId": "Q2739710",
      "country_code": "CR",
      "state_code": "SJ",
      "state_id": 1214,
      "country_id": 53
    },
    {
      "id": 21712,
      "name": "مورا",
      "name_default": "Mora",
      "native": "Mora",
      "type": "city",
      "level": null,
      "parent_id": null,
      "population": 9687,
      "latitude": "9.91667000",
      "longitude": "-84.25000000",
      "timezone": "America/Costa_Rica",
      "wikiDataId": "Q1935206",
      "country_code": "CR",
      "state_code": "SJ",
      "state_id": 1214,
      "country_id": 53
    },
    {
      "id": 21713,
      "name": "موراویا",
      "name_default": "Moravia",
      "native": "Moravia",
      "type": "city",
      "level": null,
      "parent_id": null,
      "population": null,
      "latitude": "10.04000000",
      "longitude": "-84.00000000",
      "timezone": "America/Costa_Rica",
      "wikiDataId": "Q1935256",
      "country_code": "CR",
      "state_code": "SJ",
      "state_id": 1214,
      "country_id": 53
    },
    {
      "id": 21723,
      "name": "پالمیچال",
      "name_default": "Palmichal",
      "native": "Palmichal",
      "type": "city",
      "level": null,
      "parent_id": null,
      "population": 1545,
      "latitude": "9.83778000",
      "longitude": "-84.20478000",
      "timezone": "America/Costa_Rica",
      "wikiDataId": "Q23738505",
      "country_code": "CR",
      "state_code": "SJ",
      "state_id": 1214,
      "country_id": 53
    },
    {
      "id": 21727,
      "name": "پاتارا",
      "name_default": "Patarrá",
      "native": "Patarrá",
      "type": "city",
      "level": null,
      "parent_id": null,
      "population": 23983,
      "latitude": "9.88071000",
      "longitude": "-84.03501000",
      "timezone": "America/Costa_Rica",
      "wikiDataId": "Q3897580",
      "country_code": "CR",
      "state_code": "SJ",
      "state_id": 1214,
      "country_id": 53
    },
    {
      "id": 21737,
      "name": "پرز زلدون",
      "name_default": "Pérez Zeledón",
      "native": "Pérez Zeledón",
      "type": "city",
      "level": null,
      "parent_id": null,
      "population": null,
      "latitude": "9.35473000",
      "longitude": "-83.63484000",
      "timezone": "America/Costa_Rica",
      "wikiDataId": "Q196254",
      "country_code": "CR",
      "state_code": "SJ",
      "state_id": 1214,
      "country_id": 53
    },
    {
      "id": 21735,
      "name": "پوریسک",
      "name_default": "Puriscal",
      "native": "Puriscal",
      "type": "city",
      "level": null,
      "parent_id": null,
      "population": null,
      "latitude": "9.75000000",
      "longitude": "-84.41667000",
      "timezone": "America/Costa_Rica",
      "wikiDataId": "Q196298",
      "country_code": "CR",
      "state_code": "SJ",
      "state_id": 1214,
      "country_id": 53
    },
    {
      "id": 21736,
      "name": "پورال",
      "name_default": "Purral",
      "native": "Pural",
      "type": "city",
      "level": null,
      "parent_id": null,
      "population": 34370,
      "latitude": "9.95808000",
      "longitude": "-84.03050000",
      "timezone": "America/Costa_Rica",
      "wikiDataId": "Q531605",
      "country_code": "CR",
      "state_code": "SJ",
      "state_id": 1214,
      "country_id": 53
    },
    {
      "id": 21743,
      "name": "سابانیلا",
      "name_default": "Sabanilla",
      "native": "Sabanilla",
      "type": "city",
      "level": null,
      "parent_id": null,
      "population": 11712,
      "latitude": "9.94522000",
      "longitude": "-84.03927000",
      "timezone": "America/Costa_Rica",
      "wikiDataId": "Q23736873",
      "country_code": "CR",
      "state_code": "SJ",
      "state_id": 1214,
      "country_id": 53
    },
    {
      "id": 21744,
      "name": "سالیترال",
      "name_default": "Salitral",
      "native": "Salitral",
      "type": "city",
      "level": null,
      "parent_id": null,
      "population": 2833,
      "latitude": "9.91163000",
      "longitude": "-84.17835000",
      "timezone": "America/Costa_Rica",
      "wikiDataId": "Q23736889",
      "country_code": "CR",
      "state_code": "SJ",
      "state_id": 1214,
      "country_id": 53
    },
    {
      "id": 21745,
      "name": "سالیتریلوس",
      "name_default": "Salitrillos",
      "native": "Salitrillos",
      "type": "section",
      "level": null,
      "parent_id": null,
      "population": 5738,
      "latitude": "9.85259000",
      "longitude": "-84.09062000",
      "timezone": "America/Costa_Rica",
      "wikiDataId": "Q23736896",
      "country_code": "CR",
      "state_code": "SJ",
      "state_id": 1214,
      "country_id": 53
    },
    {
      "id": 21749,
      "name": "سن فیلیپه",
      "name_default": "San Felipe",
      "native": "San Felipe",
      "type": "city",
      "level": null,
      "parent_id": null,
      "population": 24985,
      "latitude": "9.90488000",
      "longitude": "-84.10551000",
      "timezone": "America/Costa_Rica",
      "wikiDataId": "Q23736930",
      "country_code": "CR",
      "state_code": "SJ",
      "state_id": 1214,
      "country_id": 53
    },
    {
      "id": 21751,
      "name": "سن ایگناسیو",
      "name_default": "San Ignacio",
      "native": "San Ignacio",
      "type": "city",
      "level": null,
      "parent_id": null,
      "population": 3072,
      "latitude": "9.79853000",
      "longitude": "-84.16173000",
      "timezone": "America/Costa_Rica",
      "wikiDataId": "Q3947359",
      "country_code": "CR",
      "state_code": "SJ",
      "state_id": 1214,
      "country_id": 53
    },
    {
      "id": 21752,
      "name": "سان ایسیدرو",
      "name_default": "San Isidro",
      "native": "San Isidro",
      "type": "adm3",
      "level": null,
      "parent_id": null,
      "population": 34877,
      "latitude": "9.36740000",
      "longitude": "-83.69713000",
      "timezone": "America/Costa_Rica",
      "wikiDataId": "Q3947359",
      "country_code": "CR",
      "state_code": "SJ",
      "state_id": 1214,
      "country_id": 53
    },
    {
      "id": 21756,
      "name": "سن خوزه",
      "name_default": "San José",
      "native": "San José",
      "type": "capital",
      "level": null,
      "parent_id": null,
      "population": 335007,
      "latitude": "9.93333000",
      "longitude": "-84.08333000",
      "timezone": "America/Costa_Rica",
      "wikiDataId": "Q3070",
      "country_code": "CR",
      "state_code": "SJ",
      "state_id": 1214,
      "country_id": 53
    },
    {
      "id": 21757,
      "name": "سن خوان",
      "name_default": "San Juan",
      "native": "San Juan",
      "type": "city",
      "level": null,
      "parent_id": null,
      "population": 26047,
      "latitude": "9.95974000",
      "longitude": "-84.08165000",
      "timezone": "America/Costa_Rica",
      "wikiDataId": "Q23736960",
      "country_code": "CR",
      "state_code": "SJ",
      "state_id": 1214,
      "country_id": 53
    },
    {
      "id": 21759,
      "name": "سن خوان د دیوس",
      "name_default": "San Juan de Dios",
      "native": "San Juan de Dios",
      "type": "city",
      "level": null,
      "parent_id": null,
      "population": 15469,
      "latitude": "9.87730000",
      "longitude": "-84.08470000",
      "timezone": "America/Costa_Rica",
      "wikiDataId": "Q23736963",
      "country_code": "CR",
      "state_code": "SJ",
      "state_id": 1214,
      "country_id": 53
    },
    {
      "id": 21760,
      "name": "سن مارکوس",
      "name_default": "San Marcos",
      "native": "San Marcos",
      "type": "adm2",
      "level": null,
      "parent_id": null,
      "population": 4255,
      "latitude": "9.66010000",
      "longitude": "-84.02026000",
      "timezone": "America/Costa_Rica",
      "wikiDataId": "Q2410422",
      "country_code": "CR",
      "state_code": "SJ",
      "state_id": 1214,
      "country_id": 53
    },
    {
      "id": 21762,
      "name": "سن میگل",
      "name_default": "San Miguel",
      "native": "San Miguel",
      "type": "city",
      "level": null,
      "parent_id": null,
      "population": 28827,
      "latitude": "9.87121000",
      "longitude": "-84.06084000",
      "timezone": "America/Costa_Rica",
      "wikiDataId": "Q23736977",
      "country_code": "CR",
      "state_code": "SJ",
      "state_id": 1214,
      "country_id": 53
    },
    {
      "id": 21764,
      "name": "سن پدرو",
      "name_default": "San Pedro",
      "native": "San Pedro",
      "type": "adm2",
      "level": null,
      "parent_id": null,
      "population": 23774,
      "latitude": "9.92829000",
      "longitude": "-84.05074000",
      "timezone": "America/Costa_Rica",
      "wikiDataId": "Q1815110",
      "country_code": "CR",
      "state_code": "SJ",
      "state_id": 1214,
      "country_id": 53
    },
    {
      "id": 21765,
      "name": "سن رافائل",
      "name_default": "San Rafael",
      "native": "San Rafael",
      "type": "city",
      "level": null,
      "parent_id": null,
      "population": 25410,
      "latitude": "9.92787000",
      "longitude": "-84.13722000",
      "timezone": "America/Costa_Rica",
      "wikiDataId": "Q23736995",
      "country_code": "CR",
      "state_code": "SJ",
      "state_id": 1214,
      "country_id": 53
    },
    {
      "id": 21768,
      "name": "سن رافائل آباخو",
      "name_default": "San Rafael Abajo",
      "native": "San Rafael Abajo",
      "type": "city",
      "level": null,
      "parent_id": null,
      "population": 27419,
      "latitude": "9.83100000",
      "longitude": "-84.29008000",
      "timezone": "America/Costa_Rica",
      "wikiDataId": "Q587080",
      "country_code": "CR",
      "state_code": "SJ",
      "state_id": 1214,
      "country_id": 53
    },
    {
      "id": 21769,
      "name": "سن رافائل آریبا",
      "name_default": "San Rafael Arriba",
      "native": "San Rafael Arriba",
      "type": "city",
      "level": null,
      "parent_id": null,
      "population": 15051,
      "latitude": "9.87556000",
      "longitude": "-84.07661000",
      "timezone": "America/Costa_Rica",
      "wikiDataId": "Q587080",
      "country_code": "CR",
      "state_code": "SJ",
      "state_id": 1214,
      "country_id": 53
    },
    {
      "id": 21771,
      "name": "سن ویسنته",
      "name_default": "San Vicente",
      "native": "San Vicente",
      "type": "city",
      "level": null,
      "parent_id": null,
      "population": 29397,
      "latitude": "9.96016000",
      "longitude": "-84.04762000",
      "timezone": "America/Costa_Rica",
      "wikiDataId": "Q23734992",
      "country_code": "CR",
      "state_code": "SJ",
      "state_id": 1214,
      "country_id": 53
    },
    {
      "id": 21772,
      "name": "سن ویسنته د موراویا",
      "name_default": "San Vicente de Moravia",
      "native": "San Vicente de Moravia",
      "type": "city",
      "level": null,
      "parent_id": null,
      "population": 34447,
      "latitude": "9.96164000",
      "longitude": "-84.04880000",
      "timezone": "America/Costa_Rica",
      "wikiDataId": "Q23734992",
      "country_code": "CR",
      "state_code": "SJ",
      "state_id": 1214,
      "country_id": 53
    },
    {
      "id": 21774,
      "name": "سانتا آنا",
      "name_default": "Santa Ana",
      "native": "Santa Ana",
      "type": "city",
      "level": null,
      "parent_id": null,
      "population": 8029,
      "latitude": "9.93260000",
      "longitude": "-84.18255000",
      "timezone": "America/Costa_Rica",
      "wikiDataId": "Q3948919",
      "country_code": "CR",
      "state_code": "SJ",
      "state_id": 1214,
      "country_id": 53
    },
    {
      "id": 21778,
      "name": "سانتیاگو",
      "name_default": "Santiago",
      "native": "Santiago",
      "type": "city",
      "level": null,
      "parent_id": null,
      "population": 8292,
      "latitude": "9.84636000",
      "longitude": "-84.31428000",
      "timezone": "America/Costa_Rica",
      "wikiDataId": "Q3556823",
      "country_code": "CR",
      "state_code": "SJ",
      "state_id": 1214,
      "country_id": 53
    },
    {
      "id": 21786,
      "name": "تارازو",
      "name_default": "Tarrazú",
      "native": "Trazzur",
      "type": "adm3",
      "level": null,
      "parent_id": null,
      "population": null,
      "latitude": "9.65965000",
      "longitude": "-84.02138000",
      "timezone": "America/Costa_Rica",
      "wikiDataId": "Q196260",
      "country_code": "CR",
      "state_code": "SJ",
      "state_id": 1214,
      "country_id": 53
    },
    {
      "id": 21787,
      "name": "تاجر",
      "name_default": "Tejar",
      "native": "Tejar",
      "type": "city",
      "level": null,
      "parent_id": null,
      "population": 22433,
      "latitude": "9.74622000",
      "longitude": "-84.23368000",
      "timezone": "America/Costa_Rica",
      "wikiDataId": "Q23735108",
      "country_code": "CR",
      "state_code": "SJ",
      "state_id": 1214,
      "country_id": 53
    },
    {
      "id": 21788,
      "name": "تیباس",
      "name_default": "Tibás",
      "native": "Tibás",
      "type": "city",
      "level": null,
      "parent_id": null,
      "population": 26047,
      "latitude": "9.96667000",
      "longitude": "-84.08333000",
      "timezone": "America/Costa_Rica",
      "wikiDataId": "Q23735108",
      "country_code": "CR",
      "state_code": "SJ",
      "state_id": 1214,
      "country_id": 53
    },
    {
      "id": 21794,
      "name": "توروبارز",
      "name_default": "Turrubares",
      "native": "TURRUBARES",
      "type": "city",
      "level": null,
      "parent_id": null,
      "population": null,
      "latitude": "9.75000000",
      "longitude": "-84.50000000",
      "timezone": "America/Costa_Rica",
      "wikiDataId": "Q196257",
      "country_code": "CR",
      "state_code": "SJ",
      "state_id": 1214,
      "country_id": 53
    },
    {
      "id": 21797,
      "name": "وازکز دِ کورونادو",
      "name_default": "Vázquez de Coronado",
      "native": "Vázquez de Coronado",
      "type": "city",
      "level": null,
      "parent_id": null,
      "population": null,
      "latitude": "10.06000000",
      "longitude": "-84.00000000",
      "timezone": "America/Costa_Rica",
      "wikiDataId": "Q2610105",
      "country_code": "CR",
      "state_code": "SJ",
      "state_id": 1214,
      "country_id": 53
    }
  ]
}
