{
  "locale": "de",
  "country": {
    "id": 44,
    "code": "CL",
    "iso3": "CHL",
    "numeric_code": "152",
    "name": "Chile",
    "name_default": "Chile",
    "native": "Chile",
    "capital": "Santiago",
    "phonecode": "56",
    "currency": "CLP",
    "currency_name": "Chilean peso",
    "currency_symbol": "$",
    "tld": ".cl",
    "population": 20206953,
    "gdp": 343823,
    "region": "Americas",
    "region_id": 2,
    "subregion": "South America",
    "subregion_id": 8,
    "nationality": "Chilean",
    "timezones": [
      {
        "zoneName": "America/Punta_Arenas",
        "gmtOffset": -10800,
        "gmtOffsetName": "UTC-03:00",
        "abbreviation": "CLST",
        "tzName": "Chile Summer Time"
      },
      {
        "zoneName": "America/Santiago",
        "gmtOffset": -10800,
        "gmtOffsetName": "UTC-03:00",
        "abbreviation": "CLST",
        "tzName": "Chile Summer Time"
      },
      {
        "zoneName": "Pacific/Easter",
        "gmtOffset": -18000,
        "gmtOffsetName": "UTC-05:00",
        "abbreviation": "EASST",
        "tzName": "Easter Island Summer Time"
      }
    ],
    "latitude": "-30.00000000",
    "longitude": "-71.00000000",
    "emoji": "🇨🇱",
    "emojiU": "U+1F1E8 U+1F1F1"
  },
  "state": {
    "id": 2835,
    "code": "LL",
    "iso2": "LL",
    "iso3166_2": "CL-LL",
    "fips_code": "14",
    "name": "Los Lagos",
    "name_default": "Los Lagos",
    "native": "Los Lagos",
    "type": "region",
    "level": null,
    "parent_id": null,
    "population": null,
    "latitude": "-42.30084400",
    "longitude": "-73.10538700",
    "timezone": "America/Santiago",
    "wikiDataId": "Q2178",
    "country_code": "CL"
  },
  "cities": [
    {
      "id": 18944,
      "name": "Ancud",
      "name_default": "Ancud",
      "native": "Ancud",
      "type": "city",
      "level": null,
      "parent_id": null,
      "population": 38991,
      "latitude": "-41.87070000",
      "longitude": "-73.81622000",
      "timezone": "America/Santiago",
      "wikiDataId": "Q3597",
      "country_code": "CL",
      "state_code": "LL",
      "state_id": 2835,
      "country_id": 44
    },
    {
      "id": 18953,
      "name": "Calbuco",
      "name_default": "Calbuco",
      "native": "Calbuco",
      "type": "city",
      "level": null,
      "parent_id": null,
      "population": 32963,
      "latitude": "-41.77338000",
      "longitude": "-73.13049000",
      "timezone": "America/Santiago",
      "wikiDataId": "Q3691",
      "country_code": "CL",
      "state_code": "LL",
      "state_id": 2835,
      "country_id": 44
    },
    {
      "id": 18956,
      "name": "Castro",
      "name_default": "Castro",
      "native": "Castro",
      "type": "city",
      "level": null,
      "parent_id": null,
      "population": 33417,
      "latitude": "-42.47210000",
      "longitude": "-73.77319000",
      "timezone": "America/Santiago",
      "wikiDataId": "Q3744",
      "country_code": "CL",
      "state_code": "LL",
      "state_id": 2835,
      "country_id": 44
    },
    {
      "id": 18959,
      "name": "Chaitén",
      "name_default": "Chaitén",
      "native": "Chaitén",
      "type": "city",
      "level": null,
      "parent_id": null,
      "population": 3347,
      "latitude": "-42.91596000",
      "longitude": "-72.70632000",
      "timezone": "America/Santiago",
      "wikiDataId": "Q3759",
      "country_code": "CL",
      "state_code": "LL",
      "state_id": 2835,
      "country_id": 44
    },
    {
      "id": 18965,
      "name": "Chonchi",
      "name_default": "Chonchi",
      "native": "Como esto",
      "type": "city",
      "level": null,
      "parent_id": null,
      "population": 12959,
      "latitude": "-42.62387000",
      "longitude": "-73.77500000",
      "timezone": "America/Santiago",
      "wikiDataId": "Q3788",
      "country_code": "CL",
      "state_code": "LL",
      "state_id": 2835,
      "country_id": 44
    },
    {
      "id": 148477,
      "name": "Cochamó",
      "name_default": "Cochamó",
      "native": "Cochama",
      "type": "city",
      "level": null,
      "parent_id": null,
      "population": 3908,
      "latitude": "-41.50000000",
      "longitude": "-72.31666667",
      "timezone": "America/Santiago",
      "wikiDataId": "Q3797",
      "country_code": "CL",
      "state_code": "LL",
      "state_id": 2835,
      "country_id": 44
    },
    {
      "id": 148478,
      "name": "Curaco de Vélez",
      "name_default": "Curaco de Vélez",
      "native": "Curaco de Vélez",
      "type": "city",
      "level": null,
      "parent_id": null,
      "population": 0,
      "latitude": "-42.43970000",
      "longitude": "-73.60290000",
      "timezone": "America/Santiago",
      "wikiDataId": "Q3888",
      "country_code": "CL",
      "state_code": "LL",
      "state_id": 2835,
      "country_id": 44
    },
    {
      "id": 18980,
      "name": "Dalcahue",
      "name_default": "Dalcahue",
      "native": "Dalcahue",
      "type": "city",
      "level": null,
      "parent_id": null,
      "population": 13076,
      "latitude": "-42.37845000",
      "longitude": "-73.65011000",
      "timezone": "America/Santiago",
      "wikiDataId": "Q13031",
      "country_code": "CL",
      "state_code": "LL",
      "state_id": 2835,
      "country_id": 44
    },
    {
      "id": 148480,
      "name": "Fresia",
      "name_default": "Fresia",
      "native": "Fresia",
      "type": "city",
      "level": null,
      "parent_id": null,
      "population": 11366,
      "latitude": "-41.15364000",
      "longitude": "-73.42102000",
      "timezone": "America/Santiago",
      "wikiDataId": "Q13052",
      "country_code": "CL",
      "state_code": "LL",
      "state_id": 2835,
      "country_id": 44
    },
    {
      "id": 148481,
      "name": "Frutillar",
      "name_default": "Frutillar",
      "native": "Frutillar",
      "type": "city",
      "level": null,
      "parent_id": null,
      "population": 0,
      "latitude": "-41.08716000",
      "longitude": "-73.09563000",
      "timezone": "America/Santiago",
      "wikiDataId": "Q23660602",
      "country_code": "CL",
      "state_code": "LL",
      "state_id": 2835,
      "country_id": 44
    },
    {
      "id": 18984,
      "name": "Futaleufú",
      "name_default": "Futaleufú",
      "native": "Fuchar",
      "type": "city",
      "level": null,
      "parent_id": null,
      "population": 2297,
      "latitude": "-43.18492000",
      "longitude": "-71.86722000",
      "timezone": "America/Santiago",
      "wikiDataId": "Q13060",
      "country_code": "CL",
      "state_code": "LL",
      "state_id": 2835,
      "country_id": 44
    },
    {
      "id": 148482,
      "name": "Hualaihué",
      "name_default": "Hualaihué",
      "native": "Kitalaun",
      "type": "city",
      "level": null,
      "parent_id": null,
      "population": 0,
      "latitude": "-42.01666667",
      "longitude": "-72.68333333",
      "timezone": "America/Santiago",
      "wikiDataId": "Q13072",
      "country_code": "CL",
      "state_code": "LL",
      "state_id": 2835,
      "country_id": 44
    },
    {
      "id": 19058,
      "name": "Llanquihue",
      "name_default": "Llanquihue",
      "native": "Llanquihue",
      "type": "city",
      "level": null,
      "parent_id": null,
      "population": 408052,
      "latitude": "-41.34285000",
      "longitude": "-72.65800000",
      "timezone": "America/Santiago",
      "wikiDataId": "Q14500",
      "country_code": "CL",
      "state_code": "LL",
      "state_id": 2835,
      "country_id": 44
    },
    {
      "id": 148483,
      "name": "Los Muermos",
      "name_default": "Los Muermos",
      "native": "Los Muermos",
      "type": "city",
      "level": null,
      "parent_id": null,
      "population": 0,
      "latitude": "-41.40000000",
      "longitude": "-73.48333333",
      "timezone": "America/Santiago",
      "wikiDataId": "Q16906",
      "country_code": "CL",
      "state_code": "LL",
      "state_id": 2835,
      "country_id": 44
    },
    {
      "id": 148484,
      "name": "Maullín",
      "name_default": "Maullín",
      "native": "Maullín",
      "type": "city",
      "level": null,
      "parent_id": null,
      "population": 15580,
      "latitude": "-41.61666667",
      "longitude": "-73.60000000",
      "timezone": "America/Santiago",
      "wikiDataId": "Q16927",
      "country_code": "CL",
      "state_code": "LL",
      "state_id": 2835,
      "country_id": 44
    },
    {
      "id": 19018,
      "name": "Osorno",
      "name_default": "Osorno",
      "native": "Osorno",
      "type": "adm2",
      "level": null,
      "parent_id": null,
      "population": 147460,
      "latitude": "-40.57395000",
      "longitude": "-73.13348000",
      "timezone": "America/Santiago",
      "wikiDataId": "Q51059",
      "country_code": "CL",
      "state_code": "LL",
      "state_id": 2835,
      "country_id": 44
    },
    {
      "id": 19021,
      "name": "Palena",
      "name_default": "Palena",
      "native": "Límite",
      "type": "city",
      "level": null,
      "parent_id": null,
      "population": 1773,
      "latitude": "-43.61876000",
      "longitude": "-71.80434000",
      "timezone": "America/Santiago",
      "wikiDataId": "Q51073",
      "country_code": "CL",
      "state_code": "LL",
      "state_id": 2835,
      "country_id": 44
    },
    {
      "id": 19085,
      "name": "Puerto Montt",
      "name_default": "Puerto Montt",
      "native": "Puerto Montt",
      "type": "adm1",
      "level": null,
      "parent_id": null,
      "population": 245902,
      "latitude": "-41.46930000",
      "longitude": "-72.94237000",
      "timezone": "America/Santiago",
      "wikiDataId": "Q36214",
      "country_code": "CL",
      "state_code": "LL",
      "state_id": 2835,
      "country_id": 44
    },
    {
      "id": 148485,
      "name": "Puerto Octay",
      "name_default": "Puerto Octay",
      "native": "Puerto Octay",
      "type": "city",
      "level": null,
      "parent_id": null,
      "population": 0,
      "latitude": "-40.96666667",
      "longitude": "-72.90000000",
      "timezone": "America/Santiago",
      "wikiDataId": "Q51595",
      "country_code": "CL",
      "state_code": "LL",
      "state_id": 2835,
      "country_id": 44
    },
    {
      "id": 19087,
      "name": "Puerto Varas",
      "name_default": "Puerto Varas",
      "native": "Puerto Varas",
      "type": "city",
      "level": null,
      "parent_id": null,
      "population": 37561,
      "latitude": "-41.31946000",
      "longitude": "-72.98538000",
      "timezone": "America/Santiago",
      "wikiDataId": "Q51596",
      "country_code": "CL",
      "state_code": "LL",
      "state_id": 2835,
      "country_id": 44
    },
    {
      "id": 148486,
      "name": "Puqueldón",
      "name_default": "Puqueldón",
      "native": "Puqueldón",
      "type": "city",
      "level": null,
      "parent_id": null,
      "population": 560,
      "latitude": "-42.60001000",
      "longitude": "-73.67458000",
      "timezone": "America/Santiago",
      "wikiDataId": "Q2118779",
      "country_code": "CL",
      "state_code": "LL",
      "state_id": 2835,
      "country_id": 44
    },
    {
      "id": 19089,
      "name": "Purranque",
      "name_default": "Purranque",
      "native": "Purranque",
      "type": "city",
      "level": null,
      "parent_id": null,
      "population": 20705,
      "latitude": "-40.91305000",
      "longitude": "-73.15913000",
      "timezone": "America/Santiago",
      "wikiDataId": "Q51601",
      "country_code": "CL",
      "state_code": "LL",
      "state_id": 2835,
      "country_id": 44
    },
    {
      "id": 148479,
      "name": "Puyehue",
      "name_default": "Puyehue",
      "native": "Puyehue",
      "type": "city",
      "level": null,
      "parent_id": null,
      "population": 3932,
      "latitude": "-40.70968010",
      "longitude": "-72.64190560",
      "timezone": "America/Santiago",
      "wikiDataId": "Q15084",
      "country_code": "CL",
      "state_code": "LL",
      "state_id": 2835,
      "country_id": 44
    },
    {
      "id": 148487,
      "name": "Queilén",
      "name_default": "Queilén",
      "native": "Quilén",
      "type": "city",
      "level": null,
      "parent_id": null,
      "population": 0,
      "latitude": "-42.85572000",
      "longitude": "-73.56436000",
      "timezone": "America/Santiago",
      "wikiDataId": "Q51607",
      "country_code": "CL",
      "state_code": "LL",
      "state_id": 2835,
      "country_id": 44
    },
    {
      "id": 19091,
      "name": "Quellón",
      "name_default": "Quellón",
      "native": "Quellón",
      "type": "city",
      "level": null,
      "parent_id": null,
      "population": 21823,
      "latitude": "-43.11819000",
      "longitude": "-73.61661000",
      "timezone": "America/Santiago",
      "wikiDataId": "Q51608",
      "country_code": "CL",
      "state_code": "LL",
      "state_id": 2835,
      "country_id": 44
    },
    {
      "id": 148488,
      "name": "Quemchi",
      "name_default": "Quemchi",
      "native": "Femenino",
      "type": "city",
      "level": null,
      "parent_id": null,
      "population": 0,
      "latitude": "-42.13333333",
      "longitude": "-73.51666667",
      "timezone": "America/Santiago",
      "wikiDataId": "Q51609",
      "country_code": "CL",
      "state_code": "LL",
      "state_id": 2835,
      "country_id": 44
    },
    {
      "id": 148489,
      "name": "Quinchao",
      "name_default": "Quinchao",
      "native": "Quinchao",
      "type": "city",
      "level": null,
      "parent_id": null,
      "population": 8088,
      "latitude": "-42.53333333",
      "longitude": "-73.41666667",
      "timezone": "America/Santiago",
      "wikiDataId": "Q56111",
      "country_code": "CL",
      "state_code": "LL",
      "state_id": 2835,
      "country_id": 44
    },
    {
      "id": 148490,
      "name": "Río Negro",
      "name_default": "Río Negro",
      "native": "Río Negro",
      "type": "city",
      "level": null,
      "parent_id": null,
      "population": 0,
      "latitude": "-40.79615000",
      "longitude": "-73.21614000",
      "timezone": "America/Santiago",
      "wikiDataId": "Q56130",
      "country_code": "CL",
      "state_code": "LL",
      "state_id": 2835,
      "country_id": 44
    },
    {
      "id": 148491,
      "name": "San Juan de la Costa",
      "name_default": "San Juan de la Costa",
      "native": "San Juan de la Costa",
      "type": "city",
      "level": null,
      "parent_id": null,
      "population": 0,
      "latitude": "-40.51666667",
      "longitude": "-73.40000000",
      "timezone": "America/Santiago",
      "wikiDataId": "Q187856",
      "country_code": "CL",
      "state_code": "LL",
      "state_id": 2835,
      "country_id": 44
    },
    {
      "id": 148492,
      "name": "San Pablo",
      "name_default": "San Pablo",
      "native": "San Pablo",
      "type": "city",
      "level": null,
      "parent_id": null,
      "population": 0,
      "latitude": "-40.40000000",
      "longitude": "-73.01666667",
      "timezone": "America/Santiago",
      "wikiDataId": "Q187873",
      "country_code": "CL",
      "state_code": "LL",
      "state_id": 2835,
      "country_id": 44
    }
  ]
}
