{
  "locale": "fa",
  "country": {
    "id": 173,
    "code": "PE",
    "iso3": "PER",
    "numeric_code": "604",
    "name": "پرو",
    "name_default": "Peru",
    "native": "Perú",
    "capital": "Lima",
    "phonecode": "51",
    "currency": "PEN",
    "currency_name": "Peruvian sol",
    "currency_symbol": "S/.",
    "tld": ".pe",
    "population": 34350244,
    "gdp": 303293,
    "region": "Americas",
    "region_id": 2,
    "subregion": "South America",
    "subregion_id": 8,
    "nationality": "Peruvian",
    "timezones": [
      {
        "zoneName": "America/Lima",
        "gmtOffset": -18000,
        "gmtOffsetName": "UTC-05:00",
        "abbreviation": "PET",
        "tzName": "Peru Time"
      }
    ],
    "latitude": "-10.00000000",
    "longitude": "-76.00000000",
    "emoji": "🇵🇪",
    "emojiU": "U+1F1F5 U+1F1EA"
  },
  "state": {
    "id": 3694,
    "code": "SAM",
    "iso2": "SAM",
    "iso3166_2": "PE-SAM",
    "fips_code": "22",
    "name": "سن مارتین",
    "name_default": "San Martín",
    "native": "San Martín",
    "type": "region",
    "level": null,
    "parent_id": null,
    "population": null,
    "latitude": "-6.40951330",
    "longitude": "-76.87125810",
    "timezone": "America/Lima",
    "wikiDataId": "Q211793",
    "country_code": "PE"
  },
  "cities": [
    {
      "id": 80575,
      "name": "بلاویستا",
      "name_default": "Bellavista",
      "native": "Bellavista",
      "type": "adm3",
      "level": null,
      "parent_id": null,
      "population": 15231,
      "latitude": "-7.05614000",
      "longitude": "-76.59110000",
      "timezone": "America/Lima",
      "wikiDataId": "Q3344055",
      "country_code": "PE",
      "state_code": "SAM",
      "state_id": 3694,
      "country_id": 173
    },
    {
      "id": 80606,
      "name": "چازوتا",
      "name_default": "Chazuta",
      "native": "Chazuta",
      "type": "adm3",
      "level": null,
      "parent_id": null,
      "population": 9497,
      "latitude": "-6.57087000",
      "longitude": "-76.13753000",
      "timezone": "America/Lima",
      "wikiDataId": "Q765311",
      "country_code": "PE",
      "state_code": "SAM",
      "state_id": 3694,
      "country_id": 173
    },
    {
      "id": 80640,
      "name": "ال دورادو",
      "name_default": "El Dorado",
      "native": "El Dorado",
      "type": "city",
      "level": null,
      "parent_id": null,
      "population": 920,
      "latitude": "-6.56298000",
      "longitude": "-76.74130000",
      "timezone": "America/Lima",
      "wikiDataId": "Q2084675",
      "country_code": "PE",
      "state_code": "SAM",
      "state_id": 3694,
      "country_id": 173
    },
    {
      "id": 80664,
      "name": "هویکونگو",
      "name_default": "Huicungo",
      "native": "Hublego",
      "type": "city",
      "level": null,
      "parent_id": null,
      "population": 6757,
      "latitude": "-7.31860000",
      "longitude": "-76.77556000",
      "timezone": "America/Lima",
      "wikiDataId": "Q629736",
      "country_code": "PE",
      "state_code": "SAM",
      "state_id": 3694,
      "country_id": 173
    },
    {
      "id": 80679,
      "name": "جپلاسیو",
      "name_default": "Jepelacio",
      "native": "Jepelación",
      "type": "adm3",
      "level": null,
      "parent_id": null,
      "population": 7150,
      "latitude": "-6.11667000",
      "longitude": "-76.95000000",
      "timezone": "America/Lima",
      "wikiDataId": "Q1229885",
      "country_code": "PE",
      "state_code": "SAM",
      "state_id": 3694,
      "country_id": 173
    },
    {
      "id": 80681,
      "name": "خوانجوئی",
      "name_default": "Juanjuí",
      "native": "Juanjuí",
      "type": "city",
      "level": null,
      "parent_id": null,
      "population": 37715,
      "latitude": "-7.17697000",
      "longitude": "-76.72774000",
      "timezone": "America/Lima",
      "wikiDataId": "Q2671983",
      "country_code": "PE",
      "state_code": "SAM",
      "state_id": 3694,
      "country_id": 173
    },
    {
      "id": 80693,
      "name": "لاماس",
      "name_default": "Lamas",
      "native": "Lamas",
      "type": "adm3",
      "level": null,
      "parent_id": null,
      "population": 13693,
      "latitude": "-6.41667000",
      "longitude": "-76.53333000",
      "timezone": "America/Lima",
      "wikiDataId": "Q3139869",
      "country_code": "PE",
      "state_code": "SAM",
      "state_id": 3694,
      "country_id": 173
    },
    {
      "id": 80726,
      "name": "مویوبامبا",
      "name_default": "Moyobamba",
      "native": "Moyobamba",
      "type": "adm1",
      "level": null,
      "parent_id": null,
      "population": 50073,
      "latitude": "-6.03416000",
      "longitude": "-76.97168000",
      "timezone": "America/Lima",
      "wikiDataId": "Q285672",
      "country_code": "PE",
      "state_code": "SAM",
      "state_id": 3694,
      "country_id": 173
    },
    {
      "id": 80759,
      "name": "پیکوتا",
      "name_default": "Picota",
      "native": "Picota",
      "type": "adm3",
      "level": null,
      "parent_id": null,
      "population": 6697,
      "latitude": "-6.92033000",
      "longitude": "-76.33142000",
      "timezone": "America/Lima",
      "wikiDataId": "Q3344087",
      "country_code": "PE",
      "state_code": "SAM",
      "state_id": 3694,
      "country_id": 173
    },
    {
      "id": 80827,
      "name": "استان هوالاگا",
      "name_default": "Provincia de Huallaga",
      "native": "Provincia de Huallaga",
      "type": "adm3",
      "level": null,
      "parent_id": null,
      "population": 27506,
      "latitude": "-6.75664000",
      "longitude": "-76.90143000",
      "timezone": "America/Lima",
      "wikiDataId": "Q731515",
      "country_code": "PE",
      "state_code": "SAM",
      "state_id": 3694,
      "country_id": 173
    },
    {
      "id": 80852,
      "name": "استان لاماس",
      "name_default": "Provincia de Lamas",
      "native": "Provincia de Lamas",
      "type": "adm3",
      "level": null,
      "parent_id": null,
      "population": 81521,
      "latitude": "-6.33333000",
      "longitude": "-76.66667000",
      "timezone": "America/Lima",
      "wikiDataId": "Q2281473",
      "country_code": "PE",
      "state_code": "SAM",
      "state_id": 3694,
      "country_id": 173
    },
    {
      "id": 80860,
      "name": "Provincia de Mariscal Cáceres",
      "name_default": "Provincia de Mariscal Cáceres",
      "native": "Provincia de Mariscal Cáceres",
      "type": "city",
      "level": null,
      "parent_id": null,
      "population": 64626,
      "latitude": "-7.27390000",
      "longitude": "-77.18216000",
      "timezone": "America/Lima",
      "wikiDataId": "Q1947944",
      "country_code": "PE",
      "state_code": "SAM",
      "state_id": 3694,
      "country_id": 173
    },
    {
      "id": 80864,
      "name": "استان مویوبامبا",
      "name_default": "Provincia de Moyobamba",
      "native": "Provincia de Moyobamba",
      "type": "city",
      "level": null,
      "parent_id": null,
      "population": 122365,
      "latitude": "-5.75000000",
      "longitude": "-77.25000000",
      "timezone": "America/Lima",
      "wikiDataId": "Q1948150",
      "country_code": "PE",
      "state_code": "SAM",
      "state_id": 3694,
      "country_id": 173
    },
    {
      "id": 80884,
      "name": "استان ریوخا",
      "name_default": "Provincia de Rioja",
      "native": "Provincia de Rioja",
      "type": "city",
      "level": null,
      "parent_id": null,
      "population": 122544,
      "latitude": "-6.00000000",
      "longitude": "-77.41667000",
      "timezone": "America/Lima",
      "wikiDataId": "Q2084648",
      "country_code": "PE",
      "state_code": "SAM",
      "state_id": 3694,
      "country_id": 173
    },
    {
      "id": 80887,
      "name": "استان سن مارتین",
      "name_default": "Provincia de San Martín",
      "native": "Provincia de San Martín",
      "type": "adm3",
      "level": null,
      "parent_id": null,
      "population": 193095,
      "latitude": "-6.58333000",
      "longitude": "-76.16667000",
      "timezone": "America/Lima",
      "wikiDataId": "Q588491",
      "country_code": "PE",
      "state_code": "SAM",
      "state_id": 3694,
      "country_id": 173
    },
    {
      "id": 80934,
      "name": "ریوخا",
      "name_default": "Rioja",
      "native": "la Rioja",
      "type": "adm3",
      "level": null,
      "parent_id": null,
      "population": 25057,
      "latitude": "-6.05675000",
      "longitude": "-77.16651000",
      "timezone": "America/Lima",
      "wikiDataId": "Q3344069",
      "country_code": "PE",
      "state_code": "SAM",
      "state_id": 3694,
      "country_id": 173
    },
    {
      "id": 80969,
      "name": "ساپوسا",
      "name_default": "Saposoa",
      "native": "Saposoa",
      "type": "adm3",
      "level": null,
      "parent_id": null,
      "population": 14894,
      "latitude": "-6.93395000",
      "longitude": "-76.77158000",
      "timezone": "America/Lima",
      "wikiDataId": "Q3344065",
      "country_code": "PE",
      "state_code": "SAM",
      "state_id": 3694,
      "country_id": 173
    },
    {
      "id": 80976,
      "name": "سیسا",
      "name_default": "Sisa",
      "native": "Resto",
      "type": "city",
      "level": null,
      "parent_id": null,
      "population": 9477,
      "latitude": "-6.61085000",
      "longitude": "-76.69302000",
      "timezone": "America/Lima",
      "wikiDataId": "Q11034041",
      "country_code": "PE",
      "state_code": "SAM",
      "state_id": 3694,
      "country_id": 173
    },
    {
      "id": 80977,
      "name": "سوریتور",
      "name_default": "Soritor",
      "native": "Soritor",
      "type": "adm3",
      "level": null,
      "parent_id": null,
      "population": 10858,
      "latitude": "-6.13917000",
      "longitude": "-77.10389000",
      "timezone": "America/Lima",
      "wikiDataId": "Q11034041",
      "country_code": "PE",
      "state_code": "SAM",
      "state_id": 3694,
      "country_id": 173
    },
    {
      "id": 80981,
      "name": "تابالوسوس",
      "name_default": "Tabalosos",
      "native": "Tabalosos",
      "type": "adm3",
      "level": null,
      "parent_id": null,
      "population": 13879,
      "latitude": "-6.35000000",
      "longitude": "-76.68333000",
      "timezone": "America/Lima",
      "wikiDataId": "Q510413",
      "country_code": "PE",
      "state_code": "SAM",
      "state_id": 3694,
      "country_id": 173
    },
    {
      "id": 80989,
      "name": "تاراپوتو",
      "name_default": "Tarapoto",
      "native": "Tarapoto",
      "type": "adm3",
      "level": null,
      "parent_id": null,
      "population": 0,
      "latitude": "-6.50139000",
      "longitude": "-76.36556000",
      "timezone": "America/Lima",
      "wikiDataId": "Q927933",
      "country_code": "PE",
      "state_code": "SAM",
      "state_id": 3694,
      "country_id": 173
    },
    {
      "id": 80995,
      "name": "توکاشه",
      "name_default": "Tocache",
      "native": "Tocache",
      "type": "city",
      "level": null,
      "parent_id": null,
      "population": 29029,
      "latitude": "-8.18770000",
      "longitude": "-76.52046000",
      "timezone": "America/Lima",
      "wikiDataId": "Q3344048",
      "country_code": "PE",
      "state_code": "SAM",
      "state_id": 3694,
      "country_id": 173
    },
    {
      "id": 81002,
      "name": "اوچیزا",
      "name_default": "Uchiza",
      "native": "Correr",
      "type": "adm3",
      "level": null,
      "parent_id": null,
      "population": 20149,
      "latitude": "-8.45917000",
      "longitude": "-76.46333000",
      "timezone": "America/Lima",
      "wikiDataId": "Q1677131",
      "country_code": "PE",
      "state_code": "SAM",
      "state_id": 3694,
      "country_id": 173
    }
  ]
}
