{
  "locale": "br",
  "country": {
    "id": 140,
    "code": "MU",
    "iso3": "MUS",
    "numeric_code": "480",
    "name": "Moris",
    "name_default": "Mauritius",
    "native": "Maurice",
    "capital": "Port Louis",
    "phonecode": "230",
    "currency": "MUR",
    "currency_name": "Mauritian rupee",
    "currency_symbol": "₨",
    "tld": ".mu",
    "population": 1243741,
    "gdp": 15495,
    "region": "Africa",
    "region_id": 1,
    "subregion": "Eastern Africa",
    "subregion_id": 4,
    "nationality": "Mauritian",
    "timezones": [
      {
        "zoneName": "Indian/Mauritius",
        "gmtOffset": 14400,
        "gmtOffsetName": "UTC+04:00",
        "abbreviation": "MUT",
        "tzName": "Mauritius Time"
      }
    ],
    "latitude": "-20.28333333",
    "longitude": "57.55000000",
    "emoji": "🇲🇺",
    "emojiU": "U+1F1F2 U+1F1FA"
  },
  "state": {
    "id": 3253,
    "code": "MO",
    "iso2": "MO",
    "iso3166_2": "MU-MO",
    "fips_code": "15",
    "name": "Moka",
    "name_default": "Moka",
    "native": "Moka",
    "type": "district",
    "level": null,
    "parent_id": null,
    "population": 8846,
    "latitude": "-20.25213920",
    "longitude": "57.58722450",
    "timezone": "Indian/Mauritius",
    "wikiDataId": "Q911643",
    "country_code": "MU"
  },
  "cities": [
    {
      "id": 67841,
      "name": "Kamp Thorel",
      "name_default": "Camp Thorel",
      "native": "Camp Thorel",
      "type": "city",
      "level": null,
      "parent_id": null,
      "population": 2299,
      "latitude": "-20.21472000",
      "longitude": "57.61611000",
      "timezone": "Indian/Mauritius",
      "wikiDataId": "Q27763596",
      "country_code": "MU",
      "state_code": "MO",
      "state_id": 3253,
      "country_id": 140
    },
    {
      "id": 67855,
      "name": "Dagotière",
      "name_default": "Dagotière",
      "native": "Dagotière",
      "type": "city",
      "level": null,
      "parent_id": null,
      "population": 7468,
      "latitude": "-20.24476000",
      "longitude": "57.56188000",
      "timezone": "Indian/Mauritius",
      "wikiDataId": "Q27763707",
      "country_code": "MU",
      "state_code": "MO",
      "state_id": 3253,
      "country_id": 140
    },
    {
      "id": 67856,
      "name": "Dubreuil",
      "name_default": "Dubreuil",
      "native": "Dubreuil",
      "type": "city",
      "level": null,
      "parent_id": null,
      "population": 2726,
      "latitude": "-20.30132000",
      "longitude": "57.59861000",
      "timezone": "Indian/Mauritius",
      "wikiDataId": "Q27764363",
      "country_code": "MU",
      "state_code": "MO",
      "state_id": 3253,
      "country_id": 140
    },
    {
      "id": 153448,
      "name": "L'Avenir",
      "name_default": "L'Avenir",
      "native": "The future",
      "type": "city",
      "level": null,
      "parent_id": null,
      "population": 2208,
      "latitude": "-20.21714200",
      "longitude": "57.55048200",
      "timezone": "Indian/Mauritius",
      "wikiDataId": "Q6455635",
      "country_code": "MU",
      "state_code": "MO",
      "state_id": 3253,
      "country_id": 140
    },
    {
      "id": 153447,
      "name": "L'Esperance",
      "name_default": "L'Esperance",
      "native": "L'Esperance",
      "type": "city",
      "level": null,
      "parent_id": null,
      "population": null,
      "latitude": "-20.23041300",
      "longitude": "57.59526800",
      "timezone": "Indian/Mauritius",
      "wikiDataId": "Q3203304",
      "country_code": "MU",
      "state_code": "MO",
      "state_id": 3253,
      "country_id": 140
    },
    {
      "id": 153449,
      "name": "La Laura-Malenga",
      "name_default": "La Laura-Malenga",
      "native": "Laura-Malenga",
      "type": "city",
      "level": null,
      "parent_id": null,
      "population": null,
      "latitude": "-20.20386100",
      "longitude": "57.54991500",
      "timezone": "Indian/Mauritius",
      "wikiDataId": "Q6463351",
      "country_code": "MU",
      "state_code": "MO",
      "state_id": 3253,
      "country_id": 140
    },
    {
      "id": 67877,
      "name": "Melrose",
      "name_default": "Melrose",
      "native": "Melrose",
      "type": "city",
      "level": null,
      "parent_id": null,
      "population": 2002,
      "latitude": "-20.26972000",
      "longitude": "57.63194000",
      "timezone": "Indian/Mauritius",
      "wikiDataId": "Q1105427",
      "country_code": "MU",
      "state_code": "MO",
      "state_id": 3253,
      "country_id": 140
    },
    {
      "id": 67879,
      "name": "Moka",
      "name_default": "Moka",
      "native": "Moka",
      "type": "city",
      "level": null,
      "parent_id": null,
      "population": 1001,
      "latitude": "-20.21889000",
      "longitude": "57.49583000",
      "timezone": "Indian/Mauritius",
      "wikiDataId": "Q282908",
      "country_code": "MU",
      "state_code": "MO",
      "state_id": 3253,
      "country_id": 140
    },
    {
      "id": 153450,
      "name": "Menez Gwenn",
      "name_default": "Montagne Blanche",
      "native": "White mountain",
      "type": "city",
      "level": null,
      "parent_id": null,
      "population": 9440,
      "latitude": "-20.28592000",
      "longitude": "57.65774600",
      "timezone": "Indian/Mauritius",
      "wikiDataId": "",
      "country_code": "MU",
      "state_code": "MO",
      "state_id": 3253,
      "country_id": 140
    },
    {
      "id": 153451,
      "name": "Dizoloadenn Nevez",
      "name_default": "Nouvelle Découverte",
      "native": "New discovery",
      "type": "city",
      "level": null,
      "parent_id": null,
      "population": 1956,
      "latitude": "-20.18600000",
      "longitude": "57.59079700",
      "timezone": "Indian/Mauritius",
      "wikiDataId": "",
      "country_code": "MU",
      "state_code": "MO",
      "state_id": 3253,
      "country_id": 140
    },
    {
      "id": 67885,
      "name": "Pailles",
      "name_default": "Pailles",
      "native": "Straws",
      "type": "city",
      "level": null,
      "parent_id": null,
      "population": 10622,
      "latitude": "-20.19271000",
      "longitude": "57.48826000",
      "timezone": "Indian/Mauritius",
      "wikiDataId": "Q282908",
      "country_code": "MU",
      "state_code": "MO",
      "state_id": 3253,
      "country_id": 140
    },
    {
      "id": 67898,
      "name": "Brovidans",
      "name_default": "Providence",
      "native": "Providence",
      "type": "city",
      "level": null,
      "parent_id": null,
      "population": 3126,
      "latitude": "-20.24472000",
      "longitude": "57.61222000",
      "timezone": "Indian/Mauritius",
      "wikiDataId": "Q27762667",
      "country_code": "MU",
      "state_code": "MO",
      "state_id": 3253,
      "country_id": 140
    },
    {
      "id": 67899,
      "name": "Karter milourel",
      "name_default": "Quartier Militaire",
      "native": "Military district",
      "type": "adm1",
      "level": null,
      "parent_id": null,
      "population": 6424,
      "latitude": "-20.24790000",
      "longitude": "57.59737000",
      "timezone": "Indian/Mauritius",
      "wikiDataId": "Q770184",
      "country_code": "MU",
      "state_code": "MO",
      "state_id": 3253,
      "country_id": 140
    },
    {
      "id": 153452,
      "name": "Ripailles",
      "name_default": "Ripailles",
      "native": "Ripailles",
      "type": "city",
      "level": null,
      "parent_id": null,
      "population": null,
      "latitude": "-20.19472500",
      "longitude": "57.58059600",
      "timezone": "Indian/Mauritius",
      "wikiDataId": "",
      "country_code": "MU",
      "state_code": "MO",
      "state_id": 3253,
      "country_id": 140
    },
    {
      "id": 153445,
      "name": "Sant Julien D'Hotman",
      "name_default": "Saint Julien D'Hotman",
      "native": "Saint Julien D'Hotman",
      "type": "city",
      "level": null,
      "parent_id": null,
      "population": null,
      "latitude": "-20.23067000",
      "longitude": "57.64037800",
      "timezone": "Indian/Mauritius",
      "wikiDataId": "",
      "country_code": "MU",
      "state_code": "MO",
      "state_id": 3253,
      "country_id": 140
    },
    {
      "id": 67912,
      "name": "Sant Per",
      "name_default": "Saint Pierre",
      "native": "Holy stone",
      "type": "city",
      "level": null,
      "parent_id": null,
      "population": 16704,
      "latitude": "-20.21750000",
      "longitude": "57.52083000",
      "timezone": "Indian/Mauritius",
      "wikiDataId": "Q1154985",
      "country_code": "MU",
      "state_code": "MO",
      "state_id": 3253,
      "country_id": 140
    },
    {
      "id": 67921,
      "name": "Verdun",
      "name_default": "Verdun",
      "native": "Verdun",
      "type": "city",
      "level": null,
      "parent_id": null,
      "population": 2208,
      "latitude": "-20.23417000",
      "longitude": "57.55476000",
      "timezone": "Indian/Mauritius",
      "wikiDataId": "Q641130",
      "country_code": "MU",
      "state_code": "MO",
      "state_id": 3253,
      "country_id": 140
    }
  ]
}
