{
  "locale": "es",
  "country": {
    "id": 126,
    "code": "LT",
    "iso3": "LTU",
    "numeric_code": "440",
    "name": "Lituania",
    "name_default": "Lithuania",
    "native": "Lietuva",
    "capital": "Vilnius",
    "phonecode": "370",
    "currency": "EUR",
    "currency_name": "Euro",
    "currency_symbol": "€",
    "tld": ".lt",
    "population": 2894548,
    "gdp": 89192,
    "region": "Europe",
    "region_id": 4,
    "subregion": "Northern Europe",
    "subregion_id": 18,
    "nationality": "Lithuanian",
    "timezones": [
      {
        "zoneName": "Europe/Vilnius",
        "gmtOffset": 7200,
        "gmtOffsetName": "UTC+02:00",
        "abbreviation": "EET",
        "tzName": "Eastern European Time"
      }
    ],
    "latitude": "56.00000000",
    "longitude": "24.00000000",
    "emoji": "🇱🇹",
    "emojiU": "U+1F1F1 U+1F1F9"
  },
  "state": {
    "id": 1608,
    "code": "51",
    "iso2": "51",
    "iso3166_2": "LT-51",
    "fips_code": "63",
    "name": "Telšiai",
    "name_default": "Telšiai",
    "native": "Telšiai",
    "type": "district municipality",
    "level": "1",
    "parent_id": "1569",
    "population": null,
    "latitude": "55.98461350",
    "longitude": "22.24907530",
    "timezone": "Europe/Vilnius",
    "wikiDataId": "Q588916",
    "country_code": "LT"
  },
  "cities": [
    {
      "id": 66637,
      "name": "Mazeikiai",
      "name_default": "Mazeikiai",
      "native": "Mazeikiai",
      "type": "city",
      "level": null,
      "parent_id": null,
      "population": 33249,
      "latitude": "56.31667000",
      "longitude": "22.33333000",
      "timezone": "Europe/Vilnius",
      "wikiDataId": "Q27484102",
      "country_code": "LT",
      "state_code": "51",
      "state_id": 1608,
      "country_id": 126
    },
    {
      "id": 66657,
      "name": "Plateliai",
      "name_default": "Plateliai",
      "native": "Plateliai",
      "type": "city",
      "level": null,
      "parent_id": null,
      "population": 1021,
      "latitude": "56.04657000",
      "longitude": "21.81615000",
      "timezone": "Europe/Vilnius",
      "wikiDataId": "Q1028246",
      "country_code": "LT",
      "state_code": "51",
      "state_id": 1608,
      "country_id": 126
    },
    {
      "id": 66658,
      "name": "Inmersión",
      "name_default": "Plunge",
      "native": "Pasinerti",
      "type": "city",
      "level": null,
      "parent_id": null,
      "population": 17385,
      "latitude": "55.91139000",
      "longitude": "21.84417000",
      "timezone": "Europe/Vilnius",
      "wikiDataId": "Q977255",
      "country_code": "LT",
      "state_code": "51",
      "state_id": 1608,
      "country_id": 126
    },
    {
      "id": 66668,
      "name": "Rietavas",
      "name_default": "Rietavas",
      "native": "Rietavas",
      "type": "adm2",
      "level": null,
      "parent_id": null,
      "population": 3253,
      "latitude": "55.72375000",
      "longitude": "21.93266000",
      "timezone": "Europe/Vilnius",
      "wikiDataId": "Q712011",
      "country_code": "LT",
      "state_code": "51",
      "state_id": 1608,
      "country_id": 126
    },
    {
      "id": 66675,
      "name": "Seda",
      "name_default": "Seda",
      "native": "Tai",
      "type": "city",
      "level": null,
      "parent_id": null,
      "population": 1224,
      "latitude": "56.16854000",
      "longitude": "22.09071000",
      "timezone": "Europe/Vilnius",
      "wikiDataId": "Q394756",
      "country_code": "LT",
      "state_code": "51",
      "state_id": 1608,
      "country_id": 126
    },
    {
      "id": 66685,
      "name": "Telsiai",
      "name_default": "Telsiai",
      "native": "Telsiai",
      "type": "adm1",
      "level": null,
      "parent_id": null,
      "population": 22261,
      "latitude": "55.98139000",
      "longitude": "22.24722000",
      "timezone": "Europe/Vilnius",
      "wikiDataId": "Q2222616",
      "country_code": "LT",
      "state_code": "51",
      "state_id": 1608,
      "country_id": 126
    },
    {
      "id": 66693,
      "name": "Varniai",
      "name_default": "Varniai",
      "native": "Varniai",
      "type": "city",
      "level": null,
      "parent_id": null,
      "population": 854,
      "latitude": "55.74435000",
      "longitude": "22.37251000",
      "timezone": "Europe/Vilnius",
      "wikiDataId": "Q621181",
      "country_code": "LT",
      "state_code": "51",
      "state_id": 1608,
      "country_id": 126
    },
    {
      "id": 66697,
      "name": "Viekšniai",
      "name_default": "Viekšniai",
      "native": "Viekšniai",
      "type": "city",
      "level": null,
      "parent_id": null,
      "population": 2180,
      "latitude": "56.23598000",
      "longitude": "22.51667000",
      "timezone": "Europe/Vilnius",
      "wikiDataId": "Q379669",
      "country_code": "LT",
      "state_code": "51",
      "state_id": 1608,
      "country_id": 126
    }
  ]
}
