{
  "locale": "ru",
  "country": {
    "id": 108,
    "code": "JM",
    "iso3": "JAM",
    "numeric_code": "388",
    "name": "Ямайка",
    "name_default": "Jamaica",
    "native": "Jamaica",
    "capital": "Kingston",
    "phonecode": "1",
    "currency": "JMD",
    "currency_name": "Jamaican dollar",
    "currency_symbol": "J$",
    "tld": ".jm",
    "population": 2825544,
    "gdp": 21411,
    "region": "Americas",
    "region_id": 2,
    "subregion": "Caribbean",
    "subregion_id": 7,
    "nationality": "Jamaican",
    "timezones": [
      {
        "zoneName": "America/Jamaica",
        "gmtOffset": -18000,
        "gmtOffsetName": "UTC-05:00",
        "abbreviation": "EST",
        "tzName": "Eastern Standard Time (North America"
      }
    ],
    "latitude": "18.25000000",
    "longitude": "-77.50000000",
    "emoji": "🇯🇲",
    "emojiU": "U+1F1EF U+1F1F2"
  },
  "state": {
    "id": 3746,
    "code": "14",
    "iso2": "14",
    "iso3166_2": "JM-14",
    "fips_code": "10",
    "name": "Святая Екатерина",
    "name_default": "Saint Catherine",
    "native": "Saint Catherine",
    "type": "parish",
    "level": null,
    "parent_id": null,
    "population": null,
    "latitude": "18.04717370",
    "longitude": "-77.03338520",
    "timezone": "America/Jamaica",
    "wikiDataId": "Q1473663",
    "country_code": "JM"
  },
  "cities": [
    {
      "id": 62292,
      "name": "Над скалами",
      "name_default": "Above Rocks",
      "native": "Above Rocks",
      "type": "city",
      "level": null,
      "parent_id": null,
      "population": 5261,
      "latitude": "18.11432000",
      "longitude": "-76.87590000",
      "timezone": "America/Jamaica",
      "wikiDataId": "Q18436859",
      "country_code": "JM",
      "state_code": "14",
      "state_id": 3746,
      "country_id": 108
    },
    {
      "id": 62338,
      "name": "Бартонс",
      "name_default": "Bartons",
      "native": "Bartons",
      "type": "city",
      "level": null,
      "parent_id": null,
      "population": null,
      "latitude": "18.02895000",
      "longitude": "-77.13322000",
      "timezone": "America/Jamaica",
      "wikiDataId": "Q1880599",
      "country_code": "JM",
      "state_code": "14",
      "state_id": 3746,
      "country_id": 108
    },
    {
      "id": 62348,
      "name": "Беллас Гейт",
      "name_default": "Bellas Gate",
      "native": "Bellas Gate",
      "type": "city",
      "level": null,
      "parent_id": null,
      "population": 3163,
      "latitude": "18.04715000",
      "longitude": "-77.14906000",
      "timezone": "America/Jamaica",
      "wikiDataId": "Q1880599",
      "country_code": "JM",
      "state_code": "14",
      "state_id": 3746,
      "country_id": 108
    },
    {
      "id": 62369,
      "name": "Прогулка по болоту",
      "name_default": "Bog Walk",
      "native": "Bog Walk",
      "type": "city",
      "level": null,
      "parent_id": null,
      "population": 12873,
      "latitude": "18.10205000",
      "longitude": "-77.00541000",
      "timezone": "America/Jamaica",
      "wikiDataId": "Q890358",
      "country_code": "JM",
      "state_code": "14",
      "state_id": 3746,
      "country_id": 108
    },
    {
      "id": 62382,
      "name": "Бретон",
      "name_default": "Braeton",
      "native": "Braeton",
      "type": "city",
      "level": null,
      "parent_id": null,
      "population": 102861,
      "latitude": "17.94174000",
      "longitude": "-76.88635000",
      "timezone": "America/Jamaica",
      "wikiDataId": "Q890358",
      "country_code": "JM",
      "state_code": "14",
      "state_id": 3746,
      "country_id": 108
    },
    {
      "id": 62389,
      "name": "Бриджпорт",
      "name_default": "Bridgeport",
      "native": "Bridgeport",
      "type": "city",
      "level": null,
      "parent_id": null,
      "population": null,
      "latitude": "17.96264000",
      "longitude": "-76.87809000",
      "timezone": "America/Jamaica",
      "wikiDataId": "Q890358",
      "country_code": "JM",
      "state_code": "14",
      "state_id": 3746,
      "country_id": 108
    },
    {
      "id": 62395,
      "name": "Браунс-Хилл",
      "name_default": "Browns Hill",
      "native": "Browns Hill",
      "type": "city",
      "level": null,
      "parent_id": null,
      "population": null,
      "latitude": "18.05358000",
      "longitude": "-77.11855000",
      "timezone": "America/Jamaica",
      "wikiDataId": "Q890358",
      "country_code": "JM",
      "state_code": "14",
      "state_id": 3746,
      "country_id": 108
    },
    {
      "id": 62436,
      "name": "Кайманы",
      "name_default": "Caymanas",
      "native": "Caymanas",
      "type": "city",
      "level": null,
      "parent_id": null,
      "population": null,
      "latitude": "18.03824000",
      "longitude": "-76.89833000",
      "timezone": "America/Jamaica",
      "wikiDataId": "Q1001895",
      "country_code": "JM",
      "state_code": "14",
      "state_id": 3746,
      "country_id": 108
    },
    {
      "id": 62441,
      "name": "Центральная деревня",
      "name_default": "Central Village",
      "native": "Central Village",
      "type": "city",
      "level": null,
      "parent_id": null,
      "population": null,
      "latitude": "17.99992000",
      "longitude": "-76.92393000",
      "timezone": "America/Jamaica",
      "wikiDataId": "Q1001895",
      "country_code": "JM",
      "state_code": "14",
      "state_id": 3746,
      "country_id": 108
    },
    {
      "id": 62488,
      "name": "Кресент",
      "name_default": "Crescent",
      "native": "Crescent",
      "type": "city",
      "level": null,
      "parent_id": null,
      "population": null,
      "latitude": "18.03621000",
      "longitude": "-76.97626000",
      "timezone": "America/Jamaica",
      "wikiDataId": "Q1127696",
      "country_code": "JM",
      "state_code": "14",
      "state_id": 3746,
      "country_id": 108
    },
    {
      "id": 62490,
      "name": "Кромарти",
      "name_default": "Cromarty",
      "native": "Cromatyy",
      "type": "city",
      "level": null,
      "parent_id": null,
      "population": null,
      "latitude": "17.95840000",
      "longitude": "-76.98457000",
      "timezone": "America/Jamaica",
      "wikiDataId": "Q1127696",
      "country_code": "JM",
      "state_code": "14",
      "state_id": 3746,
      "country_id": 108
    },
    {
      "id": 62495,
      "name": "Камберленд",
      "name_default": "Cumberland",
      "native": "Cumberland",
      "type": "city",
      "level": null,
      "parent_id": null,
      "population": 102861,
      "latitude": "17.97650000",
      "longitude": "-76.88208000",
      "timezone": "America/Jamaica",
      "wikiDataId": "Q1127696",
      "country_code": "JM",
      "state_code": "14",
      "state_id": 3746,
      "country_id": 108
    },
    {
      "id": 62532,
      "name": "Эджуотер",
      "name_default": "Edgewater",
      "native": "Edgewater",
      "type": "section",
      "level": null,
      "parent_id": null,
      "population": null,
      "latitude": "17.96448000",
      "longitude": "-76.86547000",
      "timezone": "America/Jamaica",
      "wikiDataId": "Q1265469",
      "country_code": "JM",
      "state_code": "14",
      "state_id": 3746,
      "country_id": 108
    },
    {
      "id": 62540,
      "name": "Энсом",
      "name_default": "Ensom",
      "native": "Lonely",
      "type": "city",
      "level": null,
      "parent_id": null,
      "population": null,
      "latitude": "18.01778000",
      "longitude": "-76.96221000",
      "timezone": "America/Jamaica",
      "wikiDataId": "Q1265469",
      "country_code": "JM",
      "state_code": "14",
      "state_id": 3746,
      "country_id": 108
    },
    {
      "id": 62544,
      "name": "Эвартон",
      "name_default": "Ewarton",
      "native": "Ewarton",
      "type": "city",
      "level": null,
      "parent_id": null,
      "population": 12797,
      "latitude": "18.18333000",
      "longitude": "-77.08536000",
      "timezone": "America/Jamaica",
      "wikiDataId": "Q1383013",
      "country_code": "JM",
      "state_code": "14",
      "state_id": 3746,
      "country_id": 108
    },
    {
      "id": 62587,
      "name": "Джинджер-Ридж",
      "name_default": "Ginger Ridge",
      "native": "Ginger Ridge",
      "type": "city",
      "level": null,
      "parent_id": null,
      "population": null,
      "latitude": "18.07688000",
      "longitude": "-77.16865000",
      "timezone": "America/Jamaica",
      "wikiDataId": "Q1394786",
      "country_code": "JM",
      "state_code": "14",
      "state_id": 3746,
      "country_id": 108
    },
    {
      "id": 62589,
      "name": "Гленгофф",
      "name_default": "Glengoffe",
      "native": "Glengoffe",
      "type": "city",
      "level": null,
      "parent_id": null,
      "population": null,
      "latitude": "18.15214000",
      "longitude": "-76.89057000",
      "timezone": "America/Jamaica",
      "wikiDataId": "Q1394786",
      "country_code": "JM",
      "state_code": "14",
      "state_id": 3746,
      "country_id": 108
    },
    {
      "id": 62591,
      "name": "Золотые Акры",
      "name_default": "Golden Acres",
      "native": "Golden Acres",
      "type": "city",
      "level": null,
      "parent_id": null,
      "population": null,
      "latitude": "18.01950000",
      "longitude": "-76.98040000",
      "timezone": "America/Jamaica",
      "wikiDataId": "Q1394786",
      "country_code": "JM",
      "state_code": "14",
      "state_id": 3746,
      "country_id": 108
    },
    {
      "id": 62609,
      "name": "Большой Портмор",
      "name_default": "Greater Portmore",
      "native": "Greater Portmore",
      "type": "city",
      "level": null,
      "parent_id": null,
      "population": null,
      "latitude": "17.95228000",
      "longitude": "-76.91133000",
      "timezone": "America/Jamaica",
      "wikiDataId": "Q1394786",
      "country_code": "JM",
      "state_code": "14",
      "state_id": 3746,
      "country_id": 108
    },
    {
      "id": 62612,
      "name": "Гриндейл",
      "name_default": "Greendale",
      "native": "Greendale",
      "type": "city",
      "level": null,
      "parent_id": null,
      "population": null,
      "latitude": "18.01251000",
      "longitude": "-76.94831000",
      "timezone": "America/Jamaica",
      "wikiDataId": "Q1394786",
      "country_code": "JM",
      "state_code": "14",
      "state_id": 3746,
      "country_id": 108
    },
    {
      "id": 62616,
      "name": "Грегори Парк",
      "name_default": "Gregory Park",
      "native": "Gregory Park",
      "type": "city",
      "level": null,
      "parent_id": null,
      "population": 102861,
      "latitude": "17.99490000",
      "longitude": "-76.88302000",
      "timezone": "America/Jamaica",
      "wikiDataId": "Q1394786",
      "country_code": "JM",
      "state_code": "14",
      "state_id": 3746,
      "country_id": 108
    },
    {
      "id": 62628,
      "name": "Хэмптон Грин",
      "name_default": "Hampton Green",
      "native": "Hampton Green",
      "type": "city",
      "level": null,
      "parent_id": null,
      "population": null,
      "latitude": "18.00544000",
      "longitude": "-76.96818000",
      "timezone": "America/Jamaica",
      "wikiDataId": "Q1423367",
      "country_code": "JM",
      "state_code": "14",
      "state_id": 3746,
      "country_id": 108
    },
    {
      "id": 62631,
      "name": "Хэрвуд",
      "name_default": "Harewood",
      "native": "Harewood",
      "type": "city",
      "level": null,
      "parent_id": null,
      "population": null,
      "latitude": "18.17277000",
      "longitude": "-76.94395000",
      "timezone": "America/Jamaica",
      "wikiDataId": "Q1423367",
      "country_code": "JM",
      "state_code": "14",
      "state_id": 3746,
      "country_id": 108
    },
    {
      "id": 62632,
      "name": "Харкерс Холл",
      "name_default": "Harkers Hall",
      "native": "Harkers Hall",
      "type": "city",
      "level": null,
      "parent_id": null,
      "population": null,
      "latitude": "18.13149000",
      "longitude": "-76.91350000",
      "timezone": "America/Jamaica",
      "wikiDataId": "Q1423367",
      "country_code": "JM",
      "state_code": "14",
      "state_id": 3746,
      "country_id": 108
    },
    {
      "id": 62643,
      "name": "Хеллшир",
      "name_default": "Hellshire",
      "native": "Hellshire",
      "type": "city",
      "level": null,
      "parent_id": null,
      "population": null,
      "latitude": "17.89669000",
      "longitude": "-76.96187000",
      "timezone": "America/Jamaica",
      "wikiDataId": "Q1008008",
      "country_code": "JM",
      "state_code": "14",
      "state_id": 3746,
      "country_id": 108
    },
    {
      "id": 62660,
      "name": "Город Независимости",
      "name_default": "Independence City",
      "native": "Independence City",
      "type": "city",
      "level": null,
      "parent_id": null,
      "population": null,
      "latitude": "17.97783000",
      "longitude": "-76.87498000",
      "timezone": "America/Jamaica",
      "wikiDataId": "Q1008008",
      "country_code": "JM",
      "state_code": "14",
      "state_id": 3746,
      "country_id": 108
    },
    {
      "id": 62689,
      "name": "Кистоун",
      "name_default": "Keystone",
      "native": "Keystone",
      "type": "city",
      "level": null,
      "parent_id": null,
      "population": null,
      "latitude": "18.01652000",
      "longitude": "-76.93525000",
      "timezone": "America/Jamaica",
      "wikiDataId": "Q1008008",
      "country_code": "JM",
      "state_code": "14",
      "state_id": 3746,
      "country_id": 108
    },
    {
      "id": 62696,
      "name": "Китсон Таун",
      "name_default": "Kitson Town",
      "native": "Kitson Town",
      "type": "city",
      "level": null,
      "parent_id": null,
      "population": null,
      "latitude": "18.03487000",
      "longitude": "-77.04028000",
      "timezone": "America/Jamaica",
      "wikiDataId": "Q34692",
      "country_code": "JM",
      "state_code": "14",
      "state_id": 3746,
      "country_id": 108
    },
    {
      "id": 62713,
      "name": "Линстед",
      "name_default": "Linstead",
      "native": "Linstead",
      "type": "city",
      "level": null,
      "parent_id": null,
      "population": 22757,
      "latitude": "18.13683000",
      "longitude": "-77.03171000",
      "timezone": "America/Jamaica",
      "wikiDataId": "Q769578",
      "country_code": "JM",
      "state_code": "14",
      "state_id": 3746,
      "country_id": 108
    },
    {
      "id": 62722,
      "name": "Льюидас Вейл",
      "name_default": "Lluidas Vale",
      "native": "Lluidas is worth",
      "type": "city",
      "level": null,
      "parent_id": null,
      "population": 3163,
      "latitude": "18.14977000",
      "longitude": "-77.16853000",
      "timezone": "America/Jamaica",
      "wikiDataId": "Q1827268",
      "country_code": "JM",
      "state_code": "14",
      "state_id": 3746,
      "country_id": 108
    },
    {
      "id": 62808,
      "name": "Нагго Хед",
      "name_default": "Naggo Head",
      "native": "Naggo head",
      "type": "city",
      "level": null,
      "parent_id": null,
      "population": 102861,
      "latitude": "17.96415000",
      "longitude": "-76.88820000",
      "timezone": "America/Jamaica",
      "wikiDataId": "Q429741",
      "country_code": "JM",
      "state_code": "14",
      "state_id": 3746,
      "country_id": 108
    },
    {
      "id": 62838,
      "name": "Старая гавань",
      "name_default": "Old Harbour",
      "native": "Old Harbour",
      "type": "city",
      "level": null,
      "parent_id": null,
      "population": 28665,
      "latitude": "17.94144000",
      "longitude": "-77.10898000",
      "timezone": "America/Jamaica",
      "wikiDataId": "Q771267",
      "country_code": "JM",
      "state_code": "14",
      "state_id": 3746,
      "country_id": 108
    },
    {
      "id": 62839,
      "name": "Олд-Харбор-Бэй",
      "name_default": "Old Harbour Bay",
      "native": "Old Harbour Bay",
      "type": "adm2",
      "level": null,
      "parent_id": null,
      "population": 7912,
      "latitude": "17.90918000",
      "longitude": "-77.09718000",
      "timezone": "America/Jamaica",
      "wikiDataId": "Q771267",
      "country_code": "JM",
      "state_code": "14",
      "state_id": 3746,
      "country_id": 108
    },
    {
      "id": 62840,
      "name": "Олд-Харбор-Роуд",
      "name_default": "Old Harbour Road",
      "native": "Old Harbour Road",
      "type": "city",
      "level": null,
      "parent_id": null,
      "population": null,
      "latitude": "17.95797000",
      "longitude": "-77.02730000",
      "timezone": "America/Jamaica",
      "wikiDataId": "Q771267",
      "country_code": "JM",
      "state_code": "14",
      "state_id": 3746,
      "country_id": 108
    },
    {
      "id": 62860,
      "name": "Часть Guys Hill",
      "name_default": "Part of Guys Hill",
      "native": "Part of Guys Hill",
      "type": "city",
      "level": null,
      "parent_id": null,
      "population": null,
      "latitude": "18.24525000",
      "longitude": "-76.99081000",
      "timezone": "America/Jamaica",
      "wikiDataId": "Q7099213",
      "country_code": "JM",
      "state_code": "14",
      "state_id": 3746,
      "country_id": 108
    },
    {
      "id": 62862,
      "name": "Часть Keystone",
      "name_default": "Part of Keystone",
      "native": "Part of Keystone",
      "type": "city",
      "level": null,
      "parent_id": null,
      "population": null,
      "latitude": "18.03965000",
      "longitude": "-76.95113000",
      "timezone": "America/Jamaica",
      "wikiDataId": "Q7099213",
      "country_code": "JM",
      "state_code": "14",
      "state_id": 3746,
      "country_id": 108
    },
    {
      "id": 62863,
      "name": "Часть Рок-Холла",
      "name_default": "Part of Rock Hall",
      "native": "Part of Rock Hall",
      "type": "city",
      "level": null,
      "parent_id": null,
      "population": null,
      "latitude": "18.09119000",
      "longitude": "-76.88804000",
      "timezone": "America/Jamaica",
      "wikiDataId": "Q7099213",
      "country_code": "JM",
      "state_code": "14",
      "state_id": 3746,
      "country_id": 108
    },
    {
      "id": 62865,
      "name": "Пассаж Форт",
      "name_default": "Passage Fort",
      "native": "Loud passage",
      "type": "city",
      "level": null,
      "parent_id": null,
      "population": null,
      "latitude": "17.97788000",
      "longitude": "-76.86793000",
      "timezone": "America/Jamaica",
      "wikiDataId": "Q7099213",
      "country_code": "JM",
      "state_code": "14",
      "state_id": 3746,
      "country_id": 108
    },
    {
      "id": 62870,
      "name": "Грушевая роща",
      "name_default": "Pear Tree Grove",
      "native": "Pear Tree Grove",
      "type": "city",
      "level": null,
      "parent_id": null,
      "population": null,
      "latitude": "18.22515000",
      "longitude": "-76.95293000",
      "timezone": "America/Jamaica",
      "wikiDataId": "Q7099213",
      "country_code": "JM",
      "state_code": "14",
      "state_id": 3746,
      "country_id": 108
    },
    {
      "id": 62888,
      "name": "Пойнт-Хилл",
      "name_default": "Point Hill",
      "native": "Point Hill",
      "type": "city",
      "level": null,
      "parent_id": null,
      "population": 5344,
      "latitude": "18.09361000",
      "longitude": "-77.10480000",
      "timezone": "America/Jamaica",
      "wikiDataId": "Q7099213",
      "country_code": "JM",
      "state_code": "14",
      "state_id": 3746,
      "country_id": 108
    },
    {
      "id": 62898,
      "name": "Портмор",
      "name_default": "Portmore",
      "native": "Portmore",
      "type": "city",
      "level": null,
      "parent_id": null,
      "population": 102861,
      "latitude": "17.95032000",
      "longitude": "-76.88215000",
      "timezone": "America/Jamaica",
      "wikiDataId": "Q644663",
      "country_code": "JM",
      "state_code": "14",
      "state_id": 3746,
      "country_id": 108
    },
    {
      "id": 62920,
      "name": "Редвуд",
      "name_default": "Redwood",
      "native": "Redwood",
      "type": "city",
      "level": null,
      "parent_id": null,
      "population": null,
      "latitude": "18.21026000",
      "longitude": "-76.98536000",
      "timezone": "America/Jamaica",
      "wikiDataId": "Q2125159",
      "country_code": "JM",
      "state_code": "14",
      "state_id": 3746,
      "country_id": 108
    },
    {
      "id": 62937,
      "name": "Риверсдейл",
      "name_default": "Riversdale",
      "native": "Riversdale",
      "type": "city",
      "level": null,
      "parent_id": null,
      "population": 4085,
      "latitude": "18.17802000",
      "longitude": "-76.96636000",
      "timezone": "America/Jamaica",
      "wikiDataId": "Q2125159",
      "country_code": "JM",
      "state_code": "14",
      "state_id": 3746,
      "country_id": 108
    },
    {
      "id": 62995,
      "name": "Слайговиль",
      "name_default": "Sligoville",
      "native": "Sligoville",
      "type": "city",
      "level": null,
      "parent_id": null,
      "population": 0,
      "latitude": "18.08203000",
      "longitude": "-76.93991000",
      "timezone": "America/Jamaica",
      "wikiDataId": "Q305508",
      "country_code": "JM",
      "state_code": "14",
      "state_id": 3746,
      "country_id": 108
    },
    {
      "id": 63007,
      "name": "Испанский город",
      "name_default": "Spanish Town",
      "native": "Spanish Town",
      "type": "adm1",
      "level": null,
      "parent_id": null,
      "population": 131056,
      "latitude": "17.99107000",
      "longitude": "-76.95742000",
      "timezone": "America/Jamaica",
      "wikiDataId": "Q846939",
      "country_code": "JM",
      "state_code": "14",
      "state_id": 3746,
      "country_id": 108
    },
    {
      "id": 63008,
      "name": "Центральный испанский город",
      "name_default": "Spanish Town Central",
      "native": "Spanish Town Central",
      "type": "city",
      "level": null,
      "parent_id": null,
      "population": null,
      "latitude": "17.98014000",
      "longitude": "-76.92294000",
      "timezone": "America/Jamaica",
      "wikiDataId": "Q846939",
      "country_code": "JM",
      "state_code": "14",
      "state_id": 3746,
      "country_id": 108
    },
    {
      "id": 63021,
      "name": "Сент-Джонс-Ист",
      "name_default": "St. John's East",
      "native": "St. John's East",
      "type": "city",
      "level": null,
      "parent_id": null,
      "population": null,
      "latitude": "18.00090000",
      "longitude": "-76.97466000",
      "timezone": "America/Jamaica",
      "wikiDataId": "Q846939",
      "country_code": "JM",
      "state_code": "14",
      "state_id": 3746,
      "country_id": 108
    },
    {
      "id": 63022,
      "name": "Сент-Джонс-Уэст",
      "name_default": "St. John's West",
      "native": "St. John's West",
      "type": "city",
      "level": null,
      "parent_id": null,
      "population": null,
      "latitude": "18.00539000",
      "longitude": "-77.00755000",
      "timezone": "America/Jamaica",
      "wikiDataId": "Q846939",
      "country_code": "JM",
      "state_code": "14",
      "state_id": 3746,
      "country_id": 108
    },
    {
      "id": 63066,
      "name": "Троя",
      "name_default": "Troja",
      "native": "Troy",
      "type": "city",
      "level": null,
      "parent_id": null,
      "population": null,
      "latitude": "18.20485000",
      "longitude": "-76.93196000",
      "timezone": "America/Jamaica",
      "wikiDataId": "Q1651059",
      "country_code": "JM",
      "state_code": "14",
      "state_id": 3746,
      "country_id": 108
    },
    {
      "id": 63089,
      "name": "Уотерфорд",
      "name_default": "Waterford",
      "native": "Waterford",
      "type": "section",
      "level": null,
      "parent_id": null,
      "population": null,
      "latitude": "17.99340000",
      "longitude": "-76.86090000",
      "timezone": "America/Jamaica",
      "wikiDataId": "Q1651059",
      "country_code": "JM",
      "state_code": "14",
      "state_id": 3746,
      "country_id": 108
    },
    {
      "id": 63091,
      "name": "Уотермаунт",
      "name_default": "Watermount",
      "native": "Watermount",
      "type": "city",
      "level": null,
      "parent_id": null,
      "population": null,
      "latitude": "18.06686000",
      "longitude": "-77.09112000",
      "timezone": "America/Jamaica",
      "wikiDataId": "Q1651059",
      "country_code": "JM",
      "state_code": "14",
      "state_id": 3746,
      "country_id": 108
    },
    {
      "id": 63095,
      "name": "Западный Камберленд",
      "name_default": "West Cumberland",
      "native": "West Cumberland",
      "type": "city",
      "level": null,
      "parent_id": null,
      "population": null,
      "latitude": "17.97890000",
      "longitude": "-76.88662000",
      "timezone": "America/Jamaica",
      "wikiDataId": "Q1651059",
      "country_code": "JM",
      "state_code": "14",
      "state_id": 3746,
      "country_id": 108
    },
    {
      "id": 63108,
      "name": "Уиллоуден",
      "name_default": "Willowdene",
      "native": "Willowdene",
      "type": "city",
      "level": null,
      "parent_id": null,
      "population": null,
      "latitude": "17.99189000",
      "longitude": "-76.98199000",
      "timezone": "America/Jamaica",
      "wikiDataId": "Q1651059",
      "country_code": "JM",
      "state_code": "14",
      "state_id": 3746,
      "country_id": 108
    }
  ]
}
