{
  "locale": "fa",
  "country": {
    "id": 181,
    "code": "RO",
    "iso3": "ROU",
    "numeric_code": "642",
    "name": "رومانی",
    "name_default": "Romania",
    "native": "România",
    "capital": "Bucharest",
    "phonecode": "40",
    "currency": "RON",
    "currency_name": "Romanian leu",
    "currency_symbol": "lei",
    "tld": ".ro",
    "population": 19036031,
    "gdp": 403395,
    "region": "Europe",
    "region_id": 4,
    "subregion": "Eastern Europe",
    "subregion_id": 15,
    "nationality": "Romanian",
    "timezones": [
      {
        "zoneName": "Europe/Bucharest",
        "gmtOffset": 7200,
        "gmtOffsetName": "UTC+02:00",
        "abbreviation": "EET",
        "tzName": "Eastern European Time"
      }
    ],
    "latitude": "46.00000000",
    "longitude": "25.00000000",
    "emoji": "🇷🇴",
    "emojiU": "U+1F1F7 U+1F1F4"
  },
  "state": {
    "id": 4727,
    "code": "TL",
    "iso2": "TL",
    "iso3166_2": "RO-TL",
    "fips_code": "37",
    "name": "تولسیا",
    "name_default": "Tulcea",
    "native": "Tulcea",
    "type": "department",
    "level": null,
    "parent_id": null,
    "population": null,
    "latitude": "45.04137690",
    "longitude": "28.89732900",
    "timezone": "Europe/Bucharest",
    "wikiDataId": "Q191078",
    "country_code": "RO"
  },
  "cities": [
    {
      "id": 89897,
      "name": "آگیگیول",
      "name_default": "Agighiol",
      "native": "Agighiol",
      "type": "city",
      "level": null,
      "parent_id": null,
      "population": 1830,
      "latitude": "45.03362000",
      "longitude": "28.87628000",
      "timezone": "Europe/Bucharest",
      "wikiDataId": "Q393677",
      "country_code": "RO",
      "state_code": "TL",
      "state_id": 4727,
      "country_id": 181
    },
    {
      "id": 90018,
      "name": "باباداغ",
      "name_default": "Babadag",
      "native": "Babadag",
      "type": "adm2",
      "level": null,
      "parent_id": null,
      "population": 9213,
      "latitude": "44.90000000",
      "longitude": "28.71667000",
      "timezone": "Europe/Bucharest",
      "wikiDataId": "Q16898607",
      "country_code": "RO",
      "state_code": "TL",
      "state_id": 4727,
      "country_id": 181
    },
    {
      "id": 90027,
      "name": "بایا",
      "name_default": "Baia",
      "native": "Baia",
      "type": "adm2",
      "level": null,
      "parent_id": null,
      "population": 4161,
      "latitude": "44.71667000",
      "longitude": "28.66667000",
      "timezone": "Europe/Bucharest",
      "wikiDataId": "Q788628",
      "country_code": "RO",
      "state_code": "TL",
      "state_id": 4727,
      "country_id": 181
    },
    {
      "id": 90081,
      "name": "بیداود",
      "name_default": "Beidaud",
      "native": "Plăcintă",
      "type": "adm2",
      "level": null,
      "parent_id": null,
      "population": 1599,
      "latitude": "44.71667000",
      "longitude": "28.56667000",
      "timezone": "Europe/Bucharest",
      "wikiDataId": "Q792067",
      "country_code": "RO",
      "state_code": "TL",
      "state_id": 4727,
      "country_id": 181
    },
    {
      "id": 90124,
      "name": "بشتپه",
      "name_default": "Beștepe",
      "native": "Beștepe",
      "type": "adm2",
      "level": null,
      "parent_id": null,
      "population": 1901,
      "latitude": "45.09241000",
      "longitude": "29.01478000",
      "timezone": "Europe/Bucharest",
      "wikiDataId": "Q794476",
      "country_code": "RO",
      "state_code": "TL",
      "state_id": 4727,
      "country_id": 181
    },
    {
      "id": 90557,
      "name": "سی. ای. روزتی",
      "name_default": "C.A. Rosetti",
      "native": "C.A. Rozetă",
      "type": "adm2",
      "level": null,
      "parent_id": null,
      "population": 1157,
      "latitude": "45.30000000",
      "longitude": "29.56667000",
      "timezone": "Europe/Bucharest",
      "wikiDataId": "Q856004",
      "country_code": "RO",
      "state_code": "TL",
      "state_id": 4727,
      "country_id": 181
    },
    {
      "id": 90579,
      "name": "کارکالیو",
      "name_default": "Carcaliu",
      "native": "Carcaliu",
      "type": "adm2",
      "level": null,
      "parent_id": null,
      "population": 3422,
      "latitude": "45.18333000",
      "longitude": "28.15000000",
      "timezone": "Europe/Bucharest",
      "wikiDataId": "Q858396",
      "country_code": "RO",
      "state_code": "TL",
      "state_id": 4727,
      "country_id": 181
    },
    {
      "id": 90583,
      "name": "کازیمسیا",
      "name_default": "Casimcea",
      "native": "Casimcea",
      "type": "city",
      "level": null,
      "parent_id": null,
      "population": 2555,
      "latitude": "44.73333000",
      "longitude": "28.36667000",
      "timezone": "Europe/Bucharest",
      "wikiDataId": "Q858861",
      "country_code": "RO",
      "state_code": "TL",
      "state_id": 4727,
      "country_id": 181
    },
    {
      "id": 90588,
      "name": "کاتالوی",
      "name_default": "Cataloi",
      "native": "Cataloi",
      "type": "city",
      "level": null,
      "parent_id": null,
      "population": 1157,
      "latitude": "45.09581000",
      "longitude": "28.72856000",
      "timezone": "Europe/Bucharest",
      "wikiDataId": "Q3623793",
      "country_code": "RO",
      "state_code": "TL",
      "state_id": 4727,
      "country_id": 181
    },
    {
      "id": 90600,
      "name": "چِمورلیا دِ خوس",
      "name_default": "Ceamurlia de Jos",
      "native": "Ceamurlia de Jos",
      "type": "adm2",
      "level": null,
      "parent_id": null,
      "population": 2122,
      "latitude": "44.73333000",
      "longitude": "28.71667000",
      "timezone": "Europe/Bucharest",
      "wikiDataId": "Q859186",
      "country_code": "RO",
      "state_code": "TL",
      "state_id": 4727,
      "country_id": 181
    },
    {
      "id": 90601,
      "name": "چِامورلیا دِ سوس",
      "name_default": "Ceamurlia de Sus",
      "native": "CEAMURLIA din ea",
      "type": "city",
      "level": null,
      "parent_id": null,
      "population": 1006,
      "latitude": "44.76373000",
      "longitude": "28.60881000",
      "timezone": "Europe/Bucharest",
      "wikiDataId": "Q3656158",
      "country_code": "RO",
      "state_code": "TL",
      "state_id": 4727,
      "country_id": 181
    },
    {
      "id": 90604,
      "name": "سیتالکیوی",
      "name_default": "Ceatalchioi",
      "native": "Litechioi",
      "type": "adm2",
      "level": null,
      "parent_id": null,
      "population": 744,
      "latitude": "45.28333000",
      "longitude": "28.78333000",
      "timezone": "Europe/Bucharest",
      "wikiDataId": "Q859191",
      "country_code": "RO",
      "state_code": "TL",
      "state_id": 4727,
      "country_id": 181
    },
    {
      "id": 90628,
      "name": "سرنا",
      "name_default": "Cerna",
      "native": "Digestibilitate",
      "type": "adm2",
      "level": null,
      "parent_id": null,
      "population": 4279,
      "latitude": "45.08333000",
      "longitude": "28.31667000",
      "timezone": "Europe/Bucharest",
      "wikiDataId": "Q12169866",
      "country_code": "RO",
      "state_code": "TL",
      "state_id": 4727,
      "country_id": 181
    },
    {
      "id": 90666,
      "name": "چیلیا وچه",
      "name_default": "Chilia Veche",
      "native": "Chilia Veche",
      "type": "adm2",
      "level": null,
      "parent_id": null,
      "population": 3599,
      "latitude": "45.41667000",
      "longitude": "29.28333000",
      "timezone": "Europe/Bucharest",
      "wikiDataId": "Q860733",
      "country_code": "RO",
      "state_code": "TL",
      "state_id": 4727,
      "country_id": 181
    },
    {
      "id": 90743,
      "name": "سیوکورووا",
      "name_default": "Ciucurova",
      "native": "Ciucurova",
      "type": "adm2",
      "level": null,
      "parent_id": null,
      "population": 2328,
      "latitude": "44.93333000",
      "longitude": "28.48333000",
      "timezone": "Europe/Bucharest",
      "wikiDataId": "Q12170765",
      "country_code": "RO",
      "state_code": "TL",
      "state_id": 4727,
      "country_id": 181
    },
    {
      "id": 90917,
      "name": "کومونا بایا",
      "name_default": "Comuna Baia",
      "native": "Comuna Baia",
      "type": "adm2",
      "level": null,
      "parent_id": null,
      "population": null,
      "latitude": "44.75708000",
      "longitude": "28.64028000",
      "timezone": "Europe/Bucharest",
      "wikiDataId": "Q5066924",
      "country_code": "RO",
      "state_code": "TL",
      "state_id": 4727,
      "country_id": 181
    },
    {
      "id": 90948,
      "name": "کومونا بیداود",
      "name_default": "Comuna Beidaud",
      "native": "Comuna Beidaud",
      "type": "adm2",
      "level": null,
      "parent_id": null,
      "population": null,
      "latitude": "44.72132000",
      "longitude": "28.53265000",
      "timezone": "Europe/Bucharest",
      "wikiDataId": "Q5066952",
      "country_code": "RO",
      "state_code": "TL",
      "state_id": 4727,
      "country_id": 181
    },
    {
      "id": 90981,
      "name": "محله بش‌تپه",
      "name_default": "Comuna Beştepe",
      "native": "Comuna bestepe",
      "type": "adm2",
      "level": null,
      "parent_id": null,
      "population": null,
      "latitude": "45.11243000",
      "longitude": "29.02425000",
      "timezone": "Europe/Bucharest",
      "wikiDataId": "Q12724543",
      "country_code": "RO",
      "state_code": "TL",
      "state_id": 4727,
      "country_id": 181
    },
    {
      "id": 91250,
      "name": "منطقه سی. ای. روزتی",
      "name_default": "Comuna C.A. Rosetti",
      "native": "Commaa C.A. Rozetă",
      "type": "adm2",
      "level": null,
      "parent_id": null,
      "population": null,
      "latitude": "45.30207000",
      "longitude": "29.57289000",
      "timezone": "Europe/Bucharest",
      "wikiDataId": "Q5113478",
      "country_code": "RO",
      "state_code": "TL",
      "state_id": 4727,
      "country_id": 181
    },
    {
      "id": 91261,
      "name": "کومونا کارکالیو",
      "name_default": "Comuna Carcaliu",
      "native": "Comuna Carcaliu",
      "type": "adm2",
      "level": null,
      "parent_id": null,
      "population": 3422,
      "latitude": "45.18688000",
      "longitude": "28.14870000",
      "timezone": "Europe/Bucharest",
      "wikiDataId": "Q5091611",
      "country_code": "RO",
      "state_code": "TL",
      "state_id": 4727,
      "country_id": 181
    },
    {
      "id": 91263,
      "name": "کومونا کازیمسیه",
      "name_default": "Comuna Casimcea",
      "native": "Comuna Casimcea",
      "type": "city",
      "level": null,
      "parent_id": null,
      "population": null,
      "latitude": "44.76276000",
      "longitude": "28.33156000",
      "timezone": "Europe/Bucharest",
      "wikiDataId": "Q5065937",
      "country_code": "RO",
      "state_code": "TL",
      "state_id": 4727,
      "country_id": 181
    },
    {
      "id": 91272,
      "name": "کومونا چئامورلیا د خوس",
      "name_default": "Comuna Ceamurlia de Jos",
      "native": "Comuna Ceamurlia de Jos",
      "type": "city",
      "level": null,
      "parent_id": null,
      "population": null,
      "latitude": "44.73731000",
      "longitude": "28.75115000",
      "timezone": "Europe/Bucharest",
      "wikiDataId": "Q5065604",
      "country_code": "RO",
      "state_code": "TL",
      "state_id": 4727,
      "country_id": 181
    },
    {
      "id": 91274,
      "name": "کومونا سیتالکیوی",
      "name_default": "Comuna Ceatalchioi",
      "native": "Comuna Ceatalchioi",
      "type": "adm2",
      "level": null,
      "parent_id": null,
      "population": 744,
      "latitude": "45.27904000",
      "longitude": "28.78323000",
      "timezone": "Europe/Bucharest",
      "wikiDataId": "Q5113769",
      "country_code": "RO",
      "state_code": "TL",
      "state_id": 4727,
      "country_id": 181
    },
    {
      "id": 91291,
      "name": "کومونا سرنا",
      "name_default": "Comuna Cerna",
      "native": "Comuna Cerna",
      "type": "adm2",
      "level": null,
      "parent_id": null,
      "population": 4279,
      "latitude": "45.04007000",
      "longitude": "28.31668000",
      "timezone": "Europe/Bucharest",
      "wikiDataId": "Q239839",
      "country_code": "RO",
      "state_code": "TL",
      "state_id": 4727,
      "country_id": 181
    },
    {
      "id": 91314,
      "name": "کومونا چیلیا وچه",
      "name_default": "Comuna Chilia Veche",
      "native": "Comuna Chilia Veche",
      "type": "city",
      "level": null,
      "parent_id": null,
      "population": null,
      "latitude": "45.37799000",
      "longitude": "29.21511000",
      "timezone": "Europe/Bucharest",
      "wikiDataId": "Q5066473",
      "country_code": "RO",
      "state_code": "TL",
      "state_id": 4727,
      "country_id": 181
    },
    {
      "id": 91365,
      "name": "کومونا سیوکورووا",
      "name_default": "Comuna Ciucurova",
      "native": "Comuna Ciucurova",
      "type": "adm2",
      "level": null,
      "parent_id": null,
      "population": null,
      "latitude": "44.91355000",
      "longitude": "28.47111000",
      "timezone": "Europe/Bucharest",
      "wikiDataId": "Q581363",
      "country_code": "RO",
      "state_code": "TL",
      "state_id": 4727,
      "country_id": 181
    },
    {
      "id": 91504,
      "name": "کومونه کریشان",
      "name_default": "Comuna Crişan",
      "native": "Comuna Crişan",
      "type": "city",
      "level": null,
      "parent_id": null,
      "population": null,
      "latitude": "45.16093000",
      "longitude": "29.34258000",
      "timezone": "Europe/Bucharest",
      "wikiDataId": "Q16427771",
      "country_code": "RO",
      "state_code": "TL",
      "state_id": 4727,
      "country_id": 181
    },
    {
      "id": 91732,
      "name": "کمونا دانی",
      "name_default": "Comuna Dăeni",
      "native": "Comuna Dăeni",
      "type": "adm2",
      "level": null,
      "parent_id": null,
      "population": null,
      "latitude": "44.84533000",
      "longitude": "28.13218000",
      "timezone": "Europe/Bucharest",
      "wikiDataId": "Q5087046",
      "country_code": "RO",
      "state_code": "TL",
      "state_id": 4727,
      "country_id": 181
    },
    {
      "id": 91664,
      "name": "کومونه دوروبانت",
      "name_default": "Comuna Dorobanţu",
      "native": "Comuna Dorobanţu",
      "type": "adm2",
      "level": null,
      "parent_id": null,
      "population": null,
      "latitude": "44.94874000",
      "longitude": "28.30073000",
      "timezone": "Europe/Bucharest",
      "wikiDataId": "Q16427774",
      "country_code": "RO",
      "state_code": "TL",
      "state_id": 4727,
      "country_id": 181
    },
    {
      "id": 91782,
      "name": "محله‌های پر رفت و آمد",
      "name_default": "Comuna Frecăţei",
      "native": "Comuna Frecăţei",
      "type": "adm2",
      "level": null,
      "parent_id": null,
      "population": null,
      "latitude": "45.11808000",
      "longitude": "28.64492000",
      "timezone": "Europe/Bucharest",
      "wikiDataId": "Q12724778",
      "country_code": "RO",
      "state_code": "TL",
      "state_id": 4727,
      "country_id": 181
    },
    {
      "id": 91915,
      "name": "کومونا گرچی",
      "name_default": "Comuna Greci",
      "native": "Comuna Greci",
      "type": "adm2",
      "level": null,
      "parent_id": null,
      "population": null,
      "latitude": "45.19132000",
      "longitude": "28.23854000",
      "timezone": "Europe/Bucharest",
      "wikiDataId": "Q5066452",
      "country_code": "RO",
      "state_code": "TL",
      "state_id": 4727,
      "country_id": 181
    },
    {
      "id": 91918,
      "name": "کومونا گریندو",
      "name_default": "Comuna Grindu",
      "native": "Comuna Grindu",
      "type": "adm2",
      "level": null,
      "parent_id": null,
      "population": null,
      "latitude": "45.40829000",
      "longitude": "28.20031000",
      "timezone": "Europe/Bucharest",
      "wikiDataId": "Q5087019",
      "country_code": "RO",
      "state_code": "TL",
      "state_id": 4727,
      "country_id": 181
    },
    {
      "id": 91991,
      "name": "کومونا هامسیارکا",
      "name_default": "Comuna Hamcearca",
      "native": "Comuna Hamcearca",
      "type": "city",
      "level": null,
      "parent_id": null,
      "population": null,
      "latitude": "45.11559000",
      "longitude": "28.39383000",
      "timezone": "Europe/Bucharest",
      "wikiDataId": "Q5112618",
      "country_code": "RO",
      "state_code": "TL",
      "state_id": 4727,
      "country_id": 181
    },
    {
      "id": 92018,
      "name": "کمونا هوریا",
      "name_default": "Comuna Horia",
      "native": "Comuna Horia",
      "type": "adm2",
      "level": null,
      "parent_id": null,
      "population": null,
      "latitude": "45.03655000",
      "longitude": "28.45947000",
      "timezone": "Europe/Bucharest",
      "wikiDataId": "Q16427779",
      "country_code": "RO",
      "state_code": "TL",
      "state_id": 4727,
      "country_id": 181
    },
    {
      "id": 92048,
      "name": "Comuna I.C.Brãtianu",
      "name_default": "Comuna I.C.Brãtianu",
      "native": "Comuna I.C.Brãtianu",
      "type": "adm2",
      "level": null,
      "parent_id": null,
      "population": 1187,
      "latitude": "45.40648000",
      "longitude": "28.05332000",
      "timezone": "Europe/Bucharest",
      "wikiDataId": "Q12724869",
      "country_code": "RO",
      "state_code": "TL",
      "state_id": 4727,
      "country_id": 181
    },
    {
      "id": 92107,
      "name": "کومونا ایزوآرله",
      "name_default": "Comuna Izvoarele",
      "native": "Comuna Izvoarele",
      "type": "adm2",
      "level": null,
      "parent_id": null,
      "population": 3817,
      "latitude": "45.03932000",
      "longitude": "28.53351000",
      "timezone": "Europe/Bucharest",
      "wikiDataId": "Q5112797",
      "country_code": "RO",
      "state_code": "TL",
      "state_id": 4727,
      "country_id": 181
    },
    {
      "id": 92122,
      "name": "کومونا جیجیلا",
      "name_default": "Comuna Jijila",
      "native": "Comuna Jijila",
      "type": "city",
      "level": null,
      "parent_id": null,
      "population": null,
      "latitude": "45.32554000",
      "longitude": "28.15710000",
      "timezone": "Europe/Bucharest",
      "wikiDataId": "Q12104506",
      "country_code": "RO",
      "state_code": "TL",
      "state_id": 4727,
      "country_id": 181
    },
    {
      "id": 92135,
      "name": "کمونا جوریلووکا",
      "name_default": "Comuna Jurilovca",
      "native": "Comuna Jurilovca",
      "type": "adm2",
      "level": null,
      "parent_id": null,
      "population": null,
      "latitude": "44.77261000",
      "longitude": "28.86906000",
      "timezone": "Europe/Bucharest",
      "wikiDataId": "Q5112770",
      "country_code": "RO",
      "state_code": "TL",
      "state_id": 4727,
      "country_id": 181
    },
    {
      "id": 92208,
      "name": "کومونا لونکاویتسا",
      "name_default": "Comuna Luncaviţa",
      "native": "Comuna Luncaviţa",
      "type": "adm2",
      "level": null,
      "parent_id": null,
      "population": null,
      "latitude": "45.28653000",
      "longitude": "28.30029000",
      "timezone": "Europe/Bucharest",
      "wikiDataId": "Q10787203",
      "country_code": "RO",
      "state_code": "TL",
      "state_id": 4727,
      "country_id": 181
    },
    {
      "id": 92229,
      "name": "کومونا محمودیه",
      "name_default": "Comuna Mahmudia",
      "native": "Comuna Mahmudia",
      "type": "adm2",
      "level": null,
      "parent_id": null,
      "population": null,
      "latitude": "45.08582000",
      "longitude": "29.08775000",
      "timezone": "Europe/Bucharest",
      "wikiDataId": "Q5066090",
      "country_code": "RO",
      "state_code": "TL",
      "state_id": 4727,
      "country_id": 181
    },
    {
      "id": 92232,
      "name": "کومونا مالیوک",
      "name_default": "Comuna Maliuc",
      "native": "Comuna Maliuc",
      "type": "city",
      "level": null,
      "parent_id": null,
      "population": null,
      "latitude": "45.18330000",
      "longitude": "29.04828000",
      "timezone": "Europe/Bucharest",
      "wikiDataId": "Q5113257",
      "country_code": "RO",
      "state_code": "TL",
      "state_id": 4727,
      "country_id": 181
    },
    {
      "id": 92271,
      "name": "کومونا میهای براوو",
      "name_default": "Comuna Mihai Bravu",
      "native": "Comuna Mihai Bravu",
      "type": "adm2",
      "level": null,
      "parent_id": null,
      "population": null,
      "latitude": "44.95974000",
      "longitude": "28.65504000",
      "timezone": "Europe/Bucharest",
      "wikiDataId": "Q5066879",
      "country_code": "RO",
      "state_code": "TL",
      "state_id": 4727,
      "country_id": 181
    },
    {
      "id": 92275,
      "name": "کومونا میخائیل کوگالنیچانو",
      "name_default": "Comuna Mihail Kogălniceanu",
      "native": "Comuna Mihail Kogălniceanu",
      "type": "city",
      "level": null,
      "parent_id": null,
      "population": 1289,
      "latitude": "45.02225000",
      "longitude": "28.72861000",
      "timezone": "Europe/Bucharest",
      "wikiDataId": "Q5056157",
      "country_code": "RO",
      "state_code": "TL",
      "state_id": 4727,
      "country_id": 181
    },
    {
      "id": 92362,
      "name": "کومونا موریگیول",
      "name_default": "Comuna Murighiol",
      "native": "Comuna Murighiol",
      "type": "adm2",
      "level": null,
      "parent_id": null,
      "population": null,
      "latitude": "45.02504000",
      "longitude": "29.15177000",
      "timezone": "Europe/Bucharest",
      "wikiDataId": "Q5113748",
      "country_code": "RO",
      "state_code": "TL",
      "state_id": 4727,
      "country_id": 181
    },
    {
      "id": 92424,
      "name": "کومونا نالبانت",
      "name_default": "Comuna Nalbant",
      "native": "Comuna nalbant",
      "type": "adm2",
      "level": null,
      "parent_id": null,
      "population": null,
      "latitude": "45.04119000",
      "longitude": "28.59827000",
      "timezone": "Europe/Bucharest",
      "wikiDataId": "Q5065583",
      "country_code": "RO",
      "state_code": "TL",
      "state_id": 4727,
      "country_id": 181
    },
    {
      "id": 92446,
      "name": "کومونه نیکولیتل",
      "name_default": "Comuna Niculiţel",
      "native": "Comuna Niculiţel",
      "type": "adm2",
      "level": null,
      "parent_id": null,
      "population": 4690,
      "latitude": "45.18251000",
      "longitude": "28.48139000",
      "timezone": "Europe/Bucharest",
      "wikiDataId": "Q12724993",
      "country_code": "RO",
      "state_code": "TL",
      "state_id": 4727,
      "country_id": 181
    },
    {
      "id": 92457,
      "name": "کومونا نوفارو",
      "name_default": "Comuna Nufăru",
      "native": "Comuna Nufăru",
      "type": "adm2",
      "level": null,
      "parent_id": null,
      "population": null,
      "latitude": "45.14333000",
      "longitude": "28.92452000",
      "timezone": "Europe/Bucharest",
      "wikiDataId": "Q12134510",
      "country_code": "RO",
      "state_code": "TL",
      "state_id": 4727,
      "country_id": 181
    },
    {
      "id": 92519,
      "name": "کومونا اوستروف",
      "name_default": "Comuna Ostrov",
      "native": "Comuna Ostrov",
      "type": "adm2",
      "level": null,
      "parent_id": null,
      "population": null,
      "latitude": "44.91052000",
      "longitude": "28.14640000",
      "timezone": "Europe/Bucharest",
      "wikiDataId": "Q12136761",
      "country_code": "RO",
      "state_code": "TL",
      "state_id": 4727,
      "country_id": 181
    },
    {
      "id": 92537,
      "name": "کومونا پاردینا",
      "name_default": "Comuna Pardina",
      "native": "Pardine comune",
      "type": "adm2",
      "level": null,
      "parent_id": null,
      "population": null,
      "latitude": "45.30780000",
      "longitude": "28.95691000",
      "timezone": "Europe/Bucharest",
      "wikiDataId": "Q5070645",
      "country_code": "RO",
      "state_code": "TL",
      "state_id": 4727,
      "country_id": 181
    },
    {
      "id": 92542,
      "name": "کومونا پچناگا",
      "name_default": "Comuna Peceneaga",
      "native": "Comuna peceneaga",
      "type": "adm2",
      "level": null,
      "parent_id": null,
      "population": null,
      "latitude": "45.00849000",
      "longitude": "28.14872000",
      "timezone": "Europe/Bucharest",
      "wikiDataId": "Q5070636",
      "country_code": "RO",
      "state_code": "TL",
      "state_id": 4727,
      "country_id": 181
    },
    {
      "id": 92875,
      "name": "کومونا ساریچیوی",
      "name_default": "Comuna Sarichioi",
      "native": "Comuna Sarichioi",
      "type": "city",
      "level": null,
      "parent_id": null,
      "population": 1258,
      "latitude": "44.92129000",
      "longitude": "28.81870000",
      "timezone": "Europe/Bucharest",
      "wikiDataId": "Q5070979",
      "country_code": "RO",
      "state_code": "TL",
      "state_id": 4727,
      "country_id": 181
    },
    {
      "id": 92924,
      "name": "کومونه سفانتوگئورگه",
      "name_default": "Comuna Sfântu Gheorghe",
      "native": "Comuna Sfântu Gheorghe",
      "type": "adm2",
      "level": null,
      "parent_id": null,
      "population": 979,
      "latitude": "44.89654000",
      "longitude": "29.59357000",
      "timezone": "Europe/Bucharest",
      "wikiDataId": "Q5054095",
      "country_code": "RO",
      "state_code": "TL",
      "state_id": 4727,
      "country_id": 181
    },
    {
      "id": 92949,
      "name": "کومونا اسلاوا چرچزا",
      "name_default": "Comuna Slava Cercheză",
      "native": "Comuna Slava Cercheză",
      "type": "city",
      "level": null,
      "parent_id": null,
      "population": null,
      "latitude": "44.87578000",
      "longitude": "28.58134000",
      "timezone": "Europe/Bucharest",
      "wikiDataId": "Q917604",
      "country_code": "RO",
      "state_code": "TL",
      "state_id": 4727,
      "country_id": 181
    },
    {
      "id": 92965,
      "name": "کمونا اسماردان",
      "name_default": "Comuna Smârdan",
      "native": "Comuna Smârdan",
      "type": "adm2",
      "level": null,
      "parent_id": null,
      "population": null,
      "latitude": "45.28462000",
      "longitude": "28.00599000",
      "timezone": "Europe/Bucharest",
      "wikiDataId": "Q5070654",
      "country_code": "RO",
      "state_code": "TL",
      "state_id": 4727,
      "country_id": 181
    },
    {
      "id": 92976,
      "name": "کومونا سومووا",
      "name_default": "Comuna Somova",
      "native": "Comuna Somova",
      "type": "adm2",
      "level": null,
      "parent_id": null,
      "population": null,
      "latitude": "45.18861000",
      "longitude": "28.65673000",
      "timezone": "Europe/Bucharest",
      "wikiDataId": "Q5071003",
      "country_code": "RO",
      "state_code": "TL",
      "state_id": 4727,
      "country_id": 181
    },
    {
      "id": 92988,
      "name": "کومونا استخارو",
      "name_default": "Comuna Stejaru",
      "native": "Comuna Stejaru",
      "type": "adm2",
      "level": null,
      "parent_id": null,
      "population": null,
      "latitude": "44.78528000",
      "longitude": "28.53996000",
      "timezone": "Europe/Bucharest",
      "wikiDataId": "Q5070958",
      "country_code": "RO",
      "state_code": "TL",
      "state_id": 4727,
      "country_id": 181
    },
    {
      "id": 93178,
      "name": "توپولوژی کومونا",
      "name_default": "Comuna Topolog",
      "native": "Comuna Topolog",
      "type": "city",
      "level": null,
      "parent_id": null,
      "population": null,
      "latitude": "44.86083000",
      "longitude": "28.34320000",
      "timezone": "Europe/Bucharest",
      "wikiDataId": "Q5070576",
      "country_code": "RO",
      "state_code": "TL",
      "state_id": 4727,
      "country_id": 181
    },
    {
      "id": 93211,
      "name": "کومونا تورکوایا",
      "name_default": "Comuna Turcoaia",
      "native": "Comuna Turcoaia",
      "type": "adm2",
      "level": null,
      "parent_id": null,
      "population": 3646,
      "latitude": "45.10923000",
      "longitude": "28.18806000",
      "timezone": "Europe/Bucharest",
      "wikiDataId": "Q5069698",
      "country_code": "RO",
      "state_code": "TL",
      "state_id": 4727,
      "country_id": 181
    },
    {
      "id": 93451,
      "name": "کومونا وچارنی",
      "name_default": "Comuna Văcăreni",
      "native": "Comuna Văcăreni",
      "type": "adm2",
      "level": null,
      "parent_id": null,
      "population": 2339,
      "latitude": "45.32463000",
      "longitude": "28.19504000",
      "timezone": "Europe/Bucharest",
      "wikiDataId": "Q5091598",
      "country_code": "RO",
      "state_code": "TL",
      "state_id": 4727,
      "country_id": 181
    },
    {
      "id": 93319,
      "name": "کومونا ولیا نوکاریلور",
      "name_default": "Comuna Valea Nucarilor",
      "native": "Comuna Valea Nucarilor",
      "type": "adm2",
      "level": null,
      "parent_id": null,
      "population": null,
      "latitude": "45.03206000",
      "longitude": "28.91994000",
      "timezone": "Europe/Bucharest",
      "wikiDataId": "Q5070243",
      "country_code": "RO",
      "state_code": "TL",
      "state_id": 4727,
      "country_id": 181
    },
    {
      "id": 93733,
      "name": "کریسان",
      "name_default": "Crişan",
      "native": "Crişan",
      "type": "city",
      "level": null,
      "parent_id": null,
      "population": 1392,
      "latitude": "44.96667000",
      "longitude": "29.46667000",
      "timezone": "Europe/Bucharest",
      "wikiDataId": "Q15244315",
      "country_code": "RO",
      "state_code": "TL",
      "state_id": 4727,
      "country_id": 181
    },
    {
      "id": 94116,
      "name": "دانی",
      "name_default": "Dăeni",
      "native": "Dăeni",
      "type": "adm2",
      "level": null,
      "parent_id": null,
      "population": 2506,
      "latitude": "44.83333000",
      "longitude": "28.11667000",
      "timezone": "Europe/Bucharest",
      "wikiDataId": "Q987294",
      "country_code": "RO",
      "state_code": "TL",
      "state_id": 4727,
      "country_id": 181
    },
    {
      "id": 94000,
      "name": "دوروبانتو",
      "name_default": "Dorobanţu",
      "native": "Dorobanţu",
      "type": "adm2",
      "level": null,
      "parent_id": null,
      "population": 1769,
      "latitude": "44.95000000",
      "longitude": "28.26667000",
      "timezone": "Europe/Bucharest",
      "wikiDataId": "Q909144",
      "country_code": "RO",
      "state_code": "TL",
      "state_id": 4727,
      "country_id": 181
    },
    {
      "id": 94142,
      "name": "انیسالا",
      "name_default": "Enisala",
      "native": "Enisala",
      "type": "city",
      "level": null,
      "parent_id": null,
      "population": 1258,
      "latitude": "44.87956000",
      "longitude": "28.81872000",
      "timezone": "Europe/Bucharest",
      "wikiDataId": "Q989764",
      "country_code": "RO",
      "state_code": "TL",
      "state_id": 4727,
      "country_id": 181
    },
    {
      "id": 94204,
      "name": "فرکتی",
      "name_default": "Frecăţei",
      "native": "Frecăţei",
      "type": "adm2",
      "level": null,
      "parent_id": null,
      "population": 3797,
      "latitude": "45.10000000",
      "longitude": "28.66667000",
      "timezone": "Europe/Bucharest",
      "wikiDataId": "Q1003713",
      "country_code": "RO",
      "state_code": "TL",
      "state_id": 4727,
      "country_id": 181
    },
    {
      "id": 94283,
      "name": "گاروان",
      "name_default": "Garvăn",
      "native": "Garv",
      "type": "city",
      "level": null,
      "parent_id": null,
      "population": 1157,
      "latitude": "45.34710000",
      "longitude": "28.16187000",
      "timezone": "Europe/Bucharest",
      "wikiDataId": "Q12094349",
      "country_code": "RO",
      "state_code": "TL",
      "state_id": 4727,
      "country_id": 181
    },
    {
      "id": 94409,
      "name": "گرچی",
      "name_default": "Greci",
      "native": "Grec",
      "type": "adm2",
      "level": null,
      "parent_id": null,
      "population": 5384,
      "latitude": "45.18333000",
      "longitude": "28.23333000",
      "timezone": "Europe/Bucharest",
      "wikiDataId": "Q1028082",
      "country_code": "RO",
      "state_code": "TL",
      "state_id": 4727,
      "country_id": 181
    },
    {
      "id": 94413,
      "name": "گریندو",
      "name_default": "Grindu",
      "native": "Podeaua",
      "type": "adm2",
      "level": null,
      "parent_id": null,
      "population": 1271,
      "latitude": "45.40000000",
      "longitude": "28.21667000",
      "timezone": "Europe/Bucharest",
      "wikiDataId": "Q1028207",
      "country_code": "RO",
      "state_code": "TL",
      "state_id": 4727,
      "country_id": 181
    },
    {
      "id": 94521,
      "name": "هامسیارکا",
      "name_default": "Hamcearca",
      "native": "Hamcearca",
      "type": "adm2",
      "level": null,
      "parent_id": null,
      "population": 1334,
      "latitude": "45.11667000",
      "longitude": "28.36667000",
      "timezone": "Europe/Bucharest",
      "wikiDataId": "Q1033365",
      "country_code": "RO",
      "state_code": "TL",
      "state_id": 4727,
      "country_id": 181
    },
    {
      "id": 94562,
      "name": "هوریا",
      "name_default": "Horia",
      "native": "Horia",
      "type": "adm2",
      "level": null,
      "parent_id": null,
      "population": 1588,
      "latitude": "45.01667000",
      "longitude": "28.45000000",
      "timezone": "Europe/Bucharest",
      "wikiDataId": "Q1042123",
      "country_code": "RO",
      "state_code": "TL",
      "state_id": 4727,
      "country_id": 181
    },
    {
      "id": 94611,
      "name": "آی. سی. براتیانو",
      "name_default": "I. C. Brătianu",
      "native": "I. C. Brătianu",
      "type": "adm2",
      "level": null,
      "parent_id": null,
      "population": 1143,
      "latitude": "45.40581000",
      "longitude": "28.05381000",
      "timezone": "Europe/Bucharest",
      "wikiDataId": "Q916208",
      "country_code": "RO",
      "state_code": "TL",
      "state_id": 4727,
      "country_id": 181
    },
    {
      "id": 94629,
      "name": "ایازوریله",
      "name_default": "Iazurile",
      "native": "Iazurile",
      "type": "city",
      "level": null,
      "parent_id": null,
      "population": 1125,
      "latitude": "45.02162000",
      "longitude": "28.94281000",
      "timezone": "Europe/Bucharest",
      "wikiDataId": "Q12173414",
      "country_code": "RO",
      "state_code": "TL",
      "state_id": 4727,
      "country_id": 181
    },
    {
      "id": 94688,
      "name": "ایساکا",
      "name_default": "Isaccea",
      "native": "Isaccea",
      "type": "adm2",
      "level": null,
      "parent_id": null,
      "population": 4408,
      "latitude": "45.26667000",
      "longitude": "28.46667000",
      "timezone": "Europe/Bucharest",
      "wikiDataId": "Q12074949",
      "country_code": "RO",
      "state_code": "TL",
      "state_id": 4727,
      "country_id": 181
    },
    {
      "id": 94708,
      "name": "ایزوآرله",
      "name_default": "Izvoarele",
      "native": "Izvoarele",
      "type": "adm2",
      "level": null,
      "parent_id": null,
      "population": 3817,
      "latitude": "45.03333000",
      "longitude": "28.53333000",
      "timezone": "Europe/Bucharest",
      "wikiDataId": "Q1091573",
      "country_code": "RO",
      "state_code": "TL",
      "state_id": 4727,
      "country_id": 181
    },
    {
      "id": 94735,
      "name": "جیجیلا",
      "name_default": "Jijila",
      "native": "Jijila",
      "type": "adm2",
      "level": null,
      "parent_id": null,
      "population": 4834,
      "latitude": "45.30000000",
      "longitude": "28.15000000",
      "timezone": "Europe/Bucharest",
      "wikiDataId": "Q1066631",
      "country_code": "RO",
      "state_code": "TL",
      "state_id": 4727,
      "country_id": 181
    },
    {
      "id": 94755,
      "name": "جوریلووکا",
      "name_default": "Jurilovca",
      "native": "Jurilovca",
      "type": "adm2",
      "level": null,
      "parent_id": null,
      "population": 5133,
      "latitude": "44.76667000",
      "longitude": "28.86667000",
      "timezone": "Europe/Bucharest",
      "wikiDataId": "Q1091518",
      "country_code": "RO",
      "state_code": "TL",
      "state_id": 4727,
      "country_id": 181
    },
    {
      "id": 94857,
      "name": "لونکا",
      "name_default": "Lunca",
      "native": "Lunca",
      "type": "city",
      "level": null,
      "parent_id": null,
      "population": 1404,
      "latitude": "44.73288000",
      "longitude": "28.77495000",
      "timezone": "Europe/Bucharest",
      "wikiDataId": "Q12118849",
      "country_code": "RO",
      "state_code": "TL",
      "state_id": 4727,
      "country_id": 181
    },
    {
      "id": 94876,
      "name": "لونکاویتسا",
      "name_default": "Luncaviţa",
      "native": "Luncaviţa",
      "type": "adm2",
      "level": null,
      "parent_id": null,
      "population": 7050,
      "latitude": "45.28333000",
      "longitude": "28.26667000",
      "timezone": "Europe/Bucharest",
      "wikiDataId": "Q1159915",
      "country_code": "RO",
      "state_code": "TL",
      "state_id": 4727,
      "country_id": 181
    },
    {
      "id": 95229,
      "name": "ماچین",
      "name_default": "Măcin",
      "native": "Măcin",
      "type": "adm2",
      "level": null,
      "parent_id": null,
      "population": 10295,
      "latitude": "45.24371000",
      "longitude": "28.13564000",
      "timezone": "Europe/Bucharest",
      "wikiDataId": "Q2467020",
      "country_code": "RO",
      "state_code": "TL",
      "state_id": 4727,
      "country_id": 181
    },
    {
      "id": 94906,
      "name": "محمودیه",
      "name_default": "Mahmudia",
      "native": "Mahmudia",
      "type": "adm2",
      "level": null,
      "parent_id": null,
      "population": 4876,
      "latitude": "45.08333000",
      "longitude": "29.08333000",
      "timezone": "Europe/Bucharest",
      "wikiDataId": "Q970516",
      "country_code": "RO",
      "state_code": "TL",
      "state_id": 4727,
      "country_id": 181
    },
    {
      "id": 94911,
      "name": "مالکوسی",
      "name_default": "Malcoci",
      "native": "Malcoci",
      "type": "city",
      "level": null,
      "parent_id": null,
      "population": 1224,
      "latitude": "45.13851000",
      "longitude": "28.88824000",
      "timezone": "Europe/Bucharest",
      "wikiDataId": "Q1754872",
      "country_code": "RO",
      "state_code": "TL",
      "state_id": 4727,
      "country_id": 181
    },
    {
      "id": 94912,
      "name": "مالیوک",
      "name_default": "Maliuc",
      "native": "Maliuc",
      "type": "adm2",
      "level": null,
      "parent_id": null,
      "population": 238,
      "latitude": "45.17678000",
      "longitude": "29.11334000",
      "timezone": "Europe/Bucharest",
      "wikiDataId": "Q1066617",
      "country_code": "RO",
      "state_code": "TL",
      "state_id": 4727,
      "country_id": 181
    },
    {
      "id": 94975,
      "name": "میهای براوو",
      "name_default": "Mihai Bravu",
      "native": "Mihai Bravu",
      "type": "adm2",
      "level": null,
      "parent_id": null,
      "population": 2245,
      "latitude": "44.95000000",
      "longitude": "28.65000000",
      "timezone": "Europe/Bucharest",
      "wikiDataId": "Q1093120",
      "country_code": "RO",
      "state_code": "TL",
      "state_id": 4727,
      "country_id": 181
    },
    {
      "id": 94982,
      "name": "میخائیل کوگالنیچانو",
      "name_default": "Mihail Kogălniceanu",
      "native": "Mihail Kogălniceanu",
      "type": "adm2",
      "level": null,
      "parent_id": null,
      "population": 3210,
      "latitude": "45.03333000",
      "longitude": "28.73333000",
      "timezone": "Europe/Bucharest",
      "wikiDataId": "Q1176875",
      "country_code": "RO",
      "state_code": "TL",
      "state_id": 4727,
      "country_id": 181
    },
    {
      "id": 95007,
      "name": "مینری",
      "name_default": "Mineri",
      "native": "Mineri",
      "type": "city",
      "level": null,
      "parent_id": null,
      "population": 1512,
      "latitude": "45.16472000",
      "longitude": "28.71573000",
      "timezone": "Europe/Bucharest",
      "wikiDataId": "Q989834",
      "country_code": "RO",
      "state_code": "TL",
      "state_id": 4727,
      "country_id": 181
    },
    {
      "id": 95188,
      "name": "شهرداری تولسیا",
      "name_default": "Municipiul Tulcea",
      "native": "Municipiul Tulcea",
      "type": "adm1",
      "level": null,
      "parent_id": null,
      "population": null,
      "latitude": "45.18325000",
      "longitude": "28.79298000",
      "timezone": "Europe/Bucharest",
      "wikiDataId": "Q11585",
      "country_code": "RO",
      "state_code": "TL",
      "state_id": 4727,
      "country_id": 181
    },
    {
      "id": 95208,
      "name": "موریگیول",
      "name_default": "Murighiol",
      "native": "Murighiol",
      "type": "adm2",
      "level": null,
      "parent_id": null,
      "population": 3761,
      "latitude": "45.03333000",
      "longitude": "29.16667000",
      "timezone": "Europe/Bucharest",
      "wikiDataId": "Q1066648",
      "country_code": "RO",
      "state_code": "TL",
      "state_id": 4727,
      "country_id": 181
    },
    {
      "id": 95300,
      "name": "نالبانت",
      "name_default": "Nalbant",
      "native": "Fierar",
      "type": "adm2",
      "level": null,
      "parent_id": null,
      "population": 2789,
      "latitude": "45.05000000",
      "longitude": "28.61667000",
      "timezone": "Europe/Bucharest",
      "wikiDataId": "Q1091578",
      "country_code": "RO",
      "state_code": "TL",
      "state_id": 4727,
      "country_id": 181
    },
    {
      "id": 95335,
      "name": "نیکولای بالچسکو",
      "name_default": "Nicolae Bălcescu",
      "native": "Nicolae Bălcescu",
      "type": "city",
      "level": null,
      "parent_id": null,
      "population": 1144,
      "latitude": "44.99714000",
      "longitude": "28.58757000",
      "timezone": "Europe/Bucharest",
      "wikiDataId": "Q6273300",
      "country_code": "RO",
      "state_code": "TL",
      "state_id": 4727,
      "country_id": 181
    },
    {
      "id": 95343,
      "name": "نیکولیتل",
      "name_default": "Niculiţel",
      "native": "Niculiţel",
      "type": "adm2",
      "level": null,
      "parent_id": null,
      "population": 3774,
      "latitude": "45.18333000",
      "longitude": "28.48333000",
      "timezone": "Europe/Bucharest",
      "wikiDataId": "Q953724",
      "country_code": "RO",
      "state_code": "TL",
      "state_id": 4727,
      "country_id": 181
    },
    {
      "id": 95363,
      "name": "نوفارو",
      "name_default": "Nufăru",
      "native": "Nufăru",
      "type": "adm2",
      "level": null,
      "parent_id": null,
      "population": 2644,
      "latitude": "45.15000000",
      "longitude": "28.91667000",
      "timezone": "Europe/Bucharest",
      "wikiDataId": "Q1093460",
      "country_code": "RO",
      "state_code": "TL",
      "state_id": 4727,
      "country_id": 181
    },
    {
      "id": 95453,
      "name": "اوراش باباداغ",
      "name_default": "Oraş Babadag",
      "native": "Oraş Babadag",
      "type": "adm2",
      "level": null,
      "parent_id": null,
      "population": null,
      "latitude": "44.89092000",
      "longitude": "28.71858000",
      "timezone": "Europe/Bucharest",
      "wikiDataId": "Q386945",
      "country_code": "RO",
      "state_code": "TL",
      "state_id": 4727,
      "country_id": 181
    },
    {
      "id": 95535,
      "name": "اوراش ایساچا",
      "name_default": "Oraş Isaccea",
      "native": "Oraş Isaccea",
      "type": "city",
      "level": null,
      "parent_id": null,
      "population": null,
      "latitude": "45.26900000",
      "longitude": "28.40446000",
      "timezone": "Europe/Bucharest",
      "wikiDataId": "Q248018",
      "country_code": "RO",
      "state_code": "TL",
      "state_id": 4727,
      "country_id": 181
    },
    {
      "id": 95545,
      "name": "اوراش ماچین",
      "name_default": "Oraş Mãcin",
      "native": "Oraş Mãcin",
      "type": "adm2",
      "level": null,
      "parent_id": null,
      "population": null,
      "latitude": "45.24736000",
      "longitude": "28.13830000",
      "timezone": "Europe/Bucharest",
      "wikiDataId": "Q851001",
      "country_code": "RO",
      "state_code": "TL",
      "state_id": 4727,
      "country_id": 181
    },
    {
      "id": 95594,
      "name": "اوراش سولینا",
      "name_default": "Oraş Sulina",
      "native": "Oraş Sulina",
      "type": "city",
      "level": null,
      "parent_id": null,
      "population": null,
      "latitude": "45.15608000",
      "longitude": "29.65197000",
      "timezone": "Europe/Bucharest",
      "wikiDataId": "Q328647",
      "country_code": "RO",
      "state_code": "TL",
      "state_id": 4727,
      "country_id": 181
    },
    {
      "id": 95677,
      "name": "اوستروف",
      "name_default": "Ostrov",
      "native": "Insulă",
      "type": "adm2",
      "level": null,
      "parent_id": null,
      "population": 2210,
      "latitude": "44.93333000",
      "longitude": "28.15000000",
      "timezone": "Europe/Bucharest",
      "wikiDataId": "Q1066290",
      "country_code": "RO",
      "state_code": "TL",
      "state_id": 4727,
      "country_id": 181
    },
    {
      "id": 95711,
      "name": "پاردینا",
      "name_default": "Pardina",
      "native": "Scânteie",
      "type": "adm2",
      "level": null,
      "parent_id": null,
      "population": 702,
      "latitude": "45.30000000",
      "longitude": "28.96667000",
      "timezone": "Europe/Bucharest",
      "wikiDataId": "Q1041607",
      "country_code": "RO",
      "state_code": "TL",
      "state_id": 4727,
      "country_id": 181
    },
    {
      "id": 95720,
      "name": "پچناگا",
      "name_default": "Peceneaga",
      "native": "PECENEAGA",
      "type": "adm2",
      "level": null,
      "parent_id": null,
      "population": 2042,
      "latitude": "45.01667000",
      "longitude": "28.13333000",
      "timezone": "Europe/Bucharest",
      "wikiDataId": "Q1041601",
      "country_code": "RO",
      "state_code": "TL",
      "state_id": 4727,
      "country_id": 181
    },
    {
      "id": 96037,
      "name": "راشلئو",
      "name_default": "Rachelu",
      "native": "Rachel",
      "type": "city",
      "level": null,
      "parent_id": null,
      "population": 1029,
      "latitude": "45.28667000",
      "longitude": "28.32349000",
      "timezone": "Europe/Bucharest",
      "wikiDataId": "Q12146876",
      "country_code": "RO",
      "state_code": "TL",
      "state_id": 4727,
      "country_id": 181
    },
    {
      "id": 106010,
      "name": "سالچوارا",
      "name_default": "Sălcioara",
      "native": "Sălcioara",
      "type": "city",
      "level": null,
      "parent_id": null,
      "population": 1087,
      "latitude": "44.76667000",
      "longitude": "28.88333000",
      "timezone": "Europe/Bucharest",
      "wikiDataId": "Q3656146",
      "country_code": "RO",
      "state_code": "TL",
      "state_id": 4727,
      "country_id": 181
    },
    {
      "id": 96246,
      "name": "ساریچیوی",
      "name_default": "Sarichioi",
      "native": "Sarichioi",
      "type": "adm2",
      "level": null,
      "parent_id": null,
      "population": 7483,
      "latitude": "44.95000000",
      "longitude": "28.85000000",
      "timezone": "Europe/Bucharest",
      "wikiDataId": "Q1065021",
      "country_code": "RO",
      "state_code": "TL",
      "state_id": 4727,
      "country_id": 181
    },
    {
      "id": 96328,
      "name": "اسفانتو گئورگه",
      "name_default": "Sfântu Gheorghe",
      "native": "Sfântu Gheorghe",
      "type": "adm2",
      "level": null,
      "parent_id": null,
      "population": 979,
      "latitude": "44.89600000",
      "longitude": "29.59294000",
      "timezone": "Europe/Bucharest",
      "wikiDataId": "Q1187750",
      "country_code": "RO",
      "state_code": "TL",
      "state_id": 4727,
      "country_id": 181
    },
    {
      "id": 96364,
      "name": "اسلاوا چِرچِزا",
      "name_default": "Slava Cercheză",
      "native": "Slava Cercheză",
      "type": "adm2",
      "level": null,
      "parent_id": null,
      "population": 852,
      "latitude": "44.90128000",
      "longitude": "28.54753000",
      "timezone": "Europe/Bucharest",
      "wikiDataId": "Q3916986",
      "country_code": "RO",
      "state_code": "TL",
      "state_id": 4727,
      "country_id": 181
    },
    {
      "id": 96365,
      "name": "اسلاوا روسا",
      "name_default": "Slava Rusă",
      "native": "Slava Rusă",
      "type": "city",
      "level": null,
      "parent_id": null,
      "population": 1524,
      "latitude": "44.85029000",
      "longitude": "28.60557000",
      "timezone": "Europe/Bucharest",
      "wikiDataId": "Q12153536",
      "country_code": "RO",
      "state_code": "TL",
      "state_id": 4727,
      "country_id": 181
    },
    {
      "id": 96391,
      "name": "اسماردان",
      "name_default": "Smârdan",
      "native": "Smârdan",
      "type": "adm2",
      "level": null,
      "parent_id": null,
      "population": 960,
      "latitude": "45.28670000",
      "longitude": "28.00368000",
      "timezone": "Europe/Bucharest",
      "wikiDataId": "Q250384",
      "country_code": "RO",
      "state_code": "TL",
      "state_id": 4727,
      "country_id": 181
    },
    {
      "id": 96409,
      "name": "سومووا",
      "name_default": "Somova",
      "native": "Somova",
      "type": "adm2",
      "level": null,
      "parent_id": null,
      "population": 4878,
      "latitude": "45.18333000",
      "longitude": "28.66667000",
      "timezone": "Europe/Bucharest",
      "wikiDataId": "Q1066655",
      "country_code": "RO",
      "state_code": "TL",
      "state_id": 4727,
      "country_id": 181
    },
    {
      "id": 96426,
      "name": "استیارو",
      "name_default": "Stejaru",
      "native": "Stejaru",
      "type": "adm2",
      "level": null,
      "parent_id": null,
      "population": 2301,
      "latitude": "44.76667000",
      "longitude": "28.55000000",
      "timezone": "Europe/Bucharest",
      "wikiDataId": "Q1093468",
      "country_code": "RO",
      "state_code": "TL",
      "state_id": 4727,
      "country_id": 181
    },
    {
      "id": 96499,
      "name": "سولینا",
      "name_default": "Sulina",
      "native": "Sulina",
      "type": "adm2",
      "level": null,
      "parent_id": null,
      "population": 4443,
      "latitude": "45.15564000",
      "longitude": "29.65403000",
      "timezone": "Europe/Bucharest",
      "wikiDataId": "Q3725380",
      "country_code": "RO",
      "state_code": "TL",
      "state_id": 4727,
      "country_id": 181
    },
    {
      "id": 106135,
      "name": "توپولوژی",
      "name_default": "Topolog",
      "native": "Topolog",
      "type": "adm2",
      "level": null,
      "parent_id": null,
      "population": 4982,
      "latitude": "44.88333000",
      "longitude": "28.36667000",
      "timezone": "Europe/Bucharest",
      "wikiDataId": "Q1041628",
      "country_code": "RO",
      "state_code": "TL",
      "state_id": 4727,
      "country_id": 181
    },
    {
      "id": 106147,
      "name": "ترایان",
      "name_default": "Traian",
      "native": "Traian",
      "type": "city",
      "level": null,
      "parent_id": null,
      "population": 1306,
      "latitude": "45.02876000",
      "longitude": "28.23518000",
      "timezone": "Europe/Bucharest",
      "wikiDataId": "Q12162261",
      "country_code": "RO",
      "state_code": "TL",
      "state_id": 4727,
      "country_id": 181
    },
    {
      "id": 106173,
      "name": "تولسیا",
      "name_default": "Tulcea",
      "native": "Tulcea",
      "type": "adm1",
      "level": null,
      "parent_id": null,
      "population": 65372,
      "latitude": "45.17870000",
      "longitude": "28.80501000",
      "timezone": "Europe/Bucharest",
      "wikiDataId": "Q1088238",
      "country_code": "RO",
      "state_code": "TL",
      "state_id": 4727,
      "country_id": 181
    },
    {
      "id": 96556,
      "name": "تورکوایا",
      "name_default": "Turcoaia",
      "native": "Turcoaia",
      "type": "adm2",
      "level": null,
      "parent_id": null,
      "population": 2822,
      "latitude": "45.11667000",
      "longitude": "28.18333000",
      "timezone": "Europe/Bucharest",
      "wikiDataId": "Q1041615",
      "country_code": "RO",
      "state_code": "TL",
      "state_id": 4727,
      "country_id": 181
    },
    {
      "id": 96557,
      "name": "توردا",
      "name_default": "Turda",
      "native": "În rundă",
      "type": "city",
      "level": null,
      "parent_id": null,
      "population": 1067,
      "latitude": "44.97501000",
      "longitude": "28.62402000",
      "timezone": "Europe/Bucharest",
      "wikiDataId": "Q3658195",
      "country_code": "RO",
      "state_code": "TL",
      "state_id": 4727,
      "country_id": 181
    },
    {
      "id": 96951,
      "name": "واچارنی",
      "name_default": "Văcăreni",
      "native": "Văcăreni",
      "type": "adm2",
      "level": null,
      "parent_id": null,
      "population": 1956,
      "latitude": "45.32415000",
      "longitude": "28.19512000",
      "timezone": "Europe/Bucharest",
      "wikiDataId": "Q848236",
      "country_code": "RO",
      "state_code": "TL",
      "state_id": 4727,
      "country_id": 181
    },
    {
      "id": 96744,
      "name": "واله نوکاریلور",
      "name_default": "Valea Nucarilor",
      "native": "Valea Nucarilor",
      "type": "adm2",
      "level": null,
      "parent_id": null,
      "population": 3968,
      "latitude": "45.03333000",
      "longitude": "28.93333000",
      "timezone": "Europe/Bucharest",
      "wikiDataId": "Q1066301",
      "country_code": "RO",
      "state_code": "TL",
      "state_id": 4727,
      "country_id": 181
    },
    {
      "id": 96759,
      "name": "والیا تیلور",
      "name_default": "Valea Teilor",
      "native": "Valea Teilor",
      "type": "adm2",
      "level": null,
      "parent_id": null,
      "population": 1679,
      "latitude": "45.11201070",
      "longitude": "28.48782810",
      "timezone": "Europe/Bucharest",
      "wikiDataId": "Q593601",
      "country_code": "RO",
      "state_code": "TL",
      "state_id": 4727,
      "country_id": 181
    },
    {
      "id": 96986,
      "name": "زبیل",
      "name_default": "Zebil",
      "native": "Zabil",
      "type": "city",
      "level": null,
      "parent_id": null,
      "population": 1853,
      "latitude": "44.94600000",
      "longitude": "28.76873000",
      "timezone": "Europe/Bucharest",
      "wikiDataId": "Q3623720",
      "country_code": "RO",
      "state_code": "TL",
      "state_id": 4727,
      "country_id": 181
    }
  ]
}
