{
  "locale": "de",
  "country": {
    "id": 88,
    "code": "GP",
    "iso3": "GLP",
    "numeric_code": "312",
    "name": "Guadeloupe",
    "name_default": "Guadeloupe",
    "native": "Guadeloupe",
    "capital": "Basse-Terre",
    "phonecode": "590",
    "currency": "EUR",
    "currency_name": "Euro",
    "currency_symbol": "€",
    "tld": ".gp",
    "population": 373791,
    "gdp": null,
    "region": "Americas",
    "region_id": 2,
    "subregion": "Caribbean",
    "subregion_id": 7,
    "nationality": "Guadeloupe",
    "timezones": [
      {
        "zoneName": "America/Guadeloupe",
        "gmtOffset": -14400,
        "gmtOffsetName": "UTC-04:00",
        "abbreviation": "AST",
        "tzName": "Atlantic Standard Time"
      }
    ],
    "latitude": "16.25000000",
    "longitude": "-61.58333300",
    "emoji": "🇬🇵",
    "emojiU": "U+1F1EC U+1F1F5"
  },
  "state": {
    "id": 5385,
    "code": "02",
    "iso2": "02",
    "iso3166_2": "GP-02",
    "fips_code": "02",
    "name": "Pointe-à-Pitre",
    "name_default": "Pointe-à-Pitre",
    "native": "Pointe-à-Pitre",
    "type": "district",
    "level": null,
    "parent_id": null,
    "population": null,
    "latitude": "16.24086360",
    "longitude": "-61.53340770",
    "timezone": "America/Guadeloupe",
    "wikiDataId": "Q702083",
    "country_code": "GP"
  },
  "cities": [
    {
      "id": 154967,
      "name": "Anse-Bertrand",
      "name_default": "Anse-Bertrand",
      "native": "Anse-bertrand",
      "type": "city",
      "level": null,
      "parent_id": null,
      "population": null,
      "latitude": "16.46681810",
      "longitude": "-61.55217680",
      "timezone": "America/Guadeloupe",
      "wikiDataId": "Q569447",
      "country_code": "GP",
      "state_code": "02",
      "state_id": 5385,
      "country_id": 88
    },
    {
      "id": 154968,
      "name": "Capesterre-de-Marie-Galante",
      "name_default": "Capesterre-de-Marie-Galante",
      "native": "Capesterre-de-Marie-Galante",
      "type": "city",
      "level": null,
      "parent_id": null,
      "population": null,
      "latitude": "15.91763990",
      "longitude": "-61.27077860",
      "timezone": "America/Guadeloupe",
      "wikiDataId": "Q996138",
      "country_code": "GP",
      "state_code": "02",
      "state_id": 5385,
      "country_id": 88
    },
    {
      "id": 154971,
      "name": "Grand-Bourg",
      "name_default": "Grand-Bourg",
      "native": "Petit-Bourg",
      "type": "city",
      "level": null,
      "parent_id": null,
      "population": null,
      "latitude": "15.90853800",
      "longitude": "-61.33406180",
      "timezone": "America/Guadeloupe",
      "wikiDataId": "Q651187",
      "country_code": "GP",
      "state_code": "02",
      "state_id": 5385,
      "country_id": 88
    },
    {
      "id": 154969,
      "name": "La Désirade",
      "name_default": "La Désirade",
      "native": "La Désirade",
      "type": "city",
      "level": null,
      "parent_id": null,
      "population": null,
      "latitude": "16.25845450",
      "longitude": "-61.14902790",
      "timezone": "America/Guadeloupe",
      "wikiDataId": "Q3208509",
      "country_code": "GP",
      "state_code": "02",
      "state_id": 5385,
      "country_id": 88
    },
    {
      "id": 154970,
      "name": "Le Gosier",
      "name_default": "Le Gosier",
      "native": "Le Gosier",
      "type": "city",
      "level": null,
      "parent_id": null,
      "population": null,
      "latitude": "16.22726250",
      "longitude": "-61.55734490",
      "timezone": "America/Guadeloupe",
      "wikiDataId": "Q918874",
      "country_code": "GP",
      "state_code": "02",
      "state_id": 5385,
      "country_id": 88
    },
    {
      "id": 154973,
      "name": "Le Moule",
      "name_default": "Le Moule",
      "native": "Le Moule",
      "type": "city",
      "level": null,
      "parent_id": null,
      "population": null,
      "latitude": "16.33536870",
      "longitude": "-61.44242930",
      "timezone": "America/Guadeloupe",
      "wikiDataId": "Q845039",
      "country_code": "GP",
      "state_code": "02",
      "state_id": 5385,
      "country_id": 88
    },
    {
      "id": 154966,
      "name": "Les Abymes",
      "name_default": "Les Abymes",
      "native": "Les Abymes",
      "type": "city",
      "level": null,
      "parent_id": null,
      "population": null,
      "latitude": "16.26773830",
      "longitude": "-61.57907270",
      "timezone": "America/Guadeloupe",
      "wikiDataId": "Q13636",
      "country_code": "GP",
      "state_code": "02",
      "state_id": 5385,
      "country_id": 88
    },
    {
      "id": 154972,
      "name": "Morne-à-l'Eau",
      "name_default": "Morne-à-l'Eau",
      "native": "Morne-à-l'Eau",
      "type": "city",
      "level": null,
      "parent_id": null,
      "population": null,
      "latitude": "16.32110610",
      "longitude": "-61.66356890",
      "timezone": "America/Guadeloupe",
      "wikiDataId": "Q996320",
      "country_code": "GP",
      "state_code": "02",
      "state_id": 5385,
      "country_id": 88
    },
    {
      "id": 154974,
      "name": "Petit-Canal",
      "name_default": "Petit-Canal",
      "native": "Petit-Canal",
      "type": "city",
      "level": null,
      "parent_id": null,
      "population": null,
      "latitude": "16.39213100",
      "longitude": "-61.53713120",
      "timezone": "America/Guadeloupe",
      "wikiDataId": "Q767111",
      "country_code": "GP",
      "state_code": "02",
      "state_id": 5385,
      "country_id": 88
    },
    {
      "id": 154975,
      "name": "Pointe-à-Pitre",
      "name_default": "Pointe-à-Pitre",
      "native": "Pointe-à-Pitre",
      "type": "adm3",
      "level": null,
      "parent_id": null,
      "population": null,
      "latitude": "16.23313040",
      "longitude": "-61.56234850",
      "timezone": "America/Guadeloupe",
      "wikiDataId": "Q335322",
      "country_code": "GP",
      "state_code": "02",
      "state_id": 5385,
      "country_id": 88
    },
    {
      "id": 154976,
      "name": "Port Louis",
      "name_default": "Port-Louis",
      "native": "Port-Louis",
      "type": "city",
      "level": null,
      "parent_id": null,
      "population": null,
      "latitude": "16.42012820",
      "longitude": "-61.57039890",
      "timezone": "America/Guadeloupe",
      "wikiDataId": "Q996180",
      "country_code": "GP",
      "state_code": "02",
      "state_id": 5385,
      "country_id": 88
    },
    {
      "id": 154977,
      "name": "Saint-François",
      "name_default": "Saint-François",
      "native": "Saint-François",
      "type": "city",
      "level": null,
      "parent_id": null,
      "population": null,
      "latitude": "16.27834950",
      "longitude": "-61.33624980",
      "timezone": "America/Guadeloupe",
      "wikiDataId": "Q608483",
      "country_code": "GP",
      "state_code": "02",
      "state_id": 5385,
      "country_id": 88
    },
    {
      "id": 154978,
      "name": "Saint-Louis",
      "name_default": "Saint-Louis",
      "native": "Saint-Louis",
      "type": "city",
      "level": null,
      "parent_id": null,
      "population": null,
      "latitude": "15.96535890",
      "longitude": "-61.35562500",
      "timezone": "America/Guadeloupe",
      "wikiDataId": "Q996414",
      "country_code": "GP",
      "state_code": "02",
      "state_id": 5385,
      "country_id": 88
    },
    {
      "id": 154979,
      "name": "Sainte-Anne",
      "name_default": "Sainte-Anne",
      "native": "Sainte-Anne",
      "type": "city",
      "level": null,
      "parent_id": null,
      "population": null,
      "latitude": "16.25646130",
      "longitude": "-61.47202880",
      "timezone": "America/Guadeloupe",
      "wikiDataId": "Q386243",
      "country_code": "GP",
      "state_code": "02",
      "state_id": 5385,
      "country_id": 88
    }
  ]
}
