{
  "locale": "ko",
  "country": {
    "id": 70,
    "code": "ET",
    "iso3": "ETH",
    "numeric_code": "231",
    "name": "에티오피아",
    "name_default": "Ethiopia",
    "native": "ኢትዮጵያ",
    "capital": "Addis Ababa",
    "phonecode": "251",
    "currency": "ETB",
    "currency_name": "Ethiopian birr",
    "currency_symbol": "Nkf",
    "tld": ".et",
    "population": 111652998,
    "gdp": 117457,
    "region": "Africa",
    "region_id": 1,
    "subregion": "Eastern Africa",
    "subregion_id": 4,
    "nationality": "Ethiopian",
    "timezones": [
      {
        "zoneName": "Africa/Addis_Ababa",
        "gmtOffset": 10800,
        "gmtOffsetName": "UTC+03:00",
        "abbreviation": "EAT",
        "tzName": "East Africa Time"
      }
    ],
    "latitude": "8.00000000",
    "longitude": "38.00000000",
    "emoji": "🇪🇹",
    "emojiU": "U+1F1EA U+1F1F9"
  },
  "state": {
    "id": 6,
    "code": "AF",
    "iso2": "AF",
    "iso3166_2": "ET-AF",
    "fips_code": "45",
    "name": "멀리",
    "name_default": "Afar",
    "native": "አፋር",
    "type": "region",
    "level": null,
    "parent_id": null,
    "population": null,
    "latitude": "11.71082060",
    "longitude": "41.03308660",
    "timezone": "Africa/Addis_Ababa",
    "wikiDataId": "Q193494",
    "country_code": "ET"
  },
  "cities": [
    {
      "id": 38589,
      "name": "행정구역 2",
      "name_default": "Administrative Zone 2",
      "native": "አስተዳደራዊ ዞን 2",
      "type": "city",
      "level": null,
      "parent_id": null,
      "population": null,
      "latitude": "13.68513000",
      "longitude": "40.05615000",
      "timezone": "Africa/Addis_Ababa",
      "wikiDataId": "Q3444683",
      "country_code": "ET",
      "state_code": "AF",
      "state_id": 6,
      "country_id": 70
    },
    {
      "id": 38590,
      "name": "행정구역 3",
      "name_default": "Administrative Zone 3",
      "native": "አስተዳደራዊ ዞን 3",
      "type": "city",
      "level": null,
      "parent_id": null,
      "population": null,
      "latitude": "10.00902000",
      "longitude": "40.47394000",
      "timezone": "Africa/Addis_Ababa",
      "wikiDataId": "Q3444674",
      "country_code": "ET",
      "state_code": "AF",
      "state_id": 6,
      "country_id": 70
    },
    {
      "id": 38595,
      "name": "아사이타",
      "name_default": "Asaita",
      "native": "አሳታ",
      "type": "city",
      "level": null,
      "parent_id": null,
      "population": 39400,
      "latitude": "11.56838000",
      "longitude": "41.43869000",
      "timezone": "Africa/Addis_Ababa",
      "wikiDataId": "Q720557",
      "country_code": "ET",
      "state_code": "AF",
      "state_id": 6,
      "country_id": 70
    },
    {
      "id": 38729,
      "name": "아와쉬",
      "name_default": "Āwash",
      "native": "ማኅተም",
      "type": "city",
      "level": null,
      "parent_id": null,
      "population": 36500,
      "latitude": "8.98333000",
      "longitude": "40.16667000",
      "timezone": "Africa/Addis_Ababa",
      "wikiDataId": "Q791636",
      "country_code": "ET",
      "state_code": "AF",
      "state_id": 6,
      "country_id": 70
    },
    {
      "id": 38624,
      "name": "두브티",
      "name_default": "Dubti",
      "native": "ምንም ይሁን ምን",
      "type": "city",
      "level": null,
      "parent_id": null,
      "population": 36100,
      "latitude": "11.73292000",
      "longitude": "41.08200000",
      "timezone": "Africa/Addis_Ababa",
      "wikiDataId": "Q3033674",
      "country_code": "ET",
      "state_code": "AF",
      "state_id": 6,
      "country_id": 70
    },
    {
      "id": 38637,
      "name": "게와네",
      "name_default": "Gewanē",
      "native": "ግሬዋን",
      "type": "city",
      "level": null,
      "parent_id": null,
      "population": 11279,
      "latitude": "10.16658000",
      "longitude": "40.64689000",
      "timezone": "Africa/Addis_Ababa",
      "wikiDataId": "Q585723",
      "country_code": "ET",
      "state_code": "AF",
      "state_id": 6,
      "country_id": 70
    },
    {
      "id": 38691,
      "name": "세메라",
      "name_default": "Semera",
      "native": "ስኩዌር",
      "type": "adm1",
      "level": null,
      "parent_id": null,
      "population": 833,
      "latitude": "11.79342000",
      "longitude": "41.00578000",
      "timezone": "Africa/Addis_Ababa",
      "wikiDataId": "Q2750619",
      "country_code": "ET",
      "state_code": "AF",
      "state_id": 6,
      "country_id": 70
    }
  ]
}
