{
  "locale": "zh-CN",
  "country": {
    "id": 181,
    "code": "RO",
    "iso3": "ROU",
    "numeric_code": "642",
    "name": "罗马尼亚",
    "name_default": "Romania",
    "native": "România",
    "capital": "Bucharest",
    "phonecode": "40",
    "currency": "RON",
    "currency_name": "Romanian leu",
    "currency_symbol": "lei",
    "tld": ".ro",
    "population": 19036031,
    "gdp": 403395,
    "region": "Europe",
    "region_id": 4,
    "subregion": "Eastern Europe",
    "subregion_id": 15,
    "nationality": "Romanian",
    "timezones": [
      {
        "zoneName": "Europe/Bucharest",
        "gmtOffset": 7200,
        "gmtOffsetName": "UTC+02:00",
        "abbreviation": "EET",
        "tzName": "Eastern European Time"
      }
    ],
    "latitude": "46.00000000",
    "longitude": "25.00000000",
    "emoji": "🇷🇴",
    "emojiU": "U+1F1F7 U+1F1F4"
  },
  "state": {
    "id": 4757,
    "code": "VL",
    "iso2": "VL",
    "iso3166_2": "RO-VL",
    "fips_code": "39",
    "name": "沃尔恰",
    "name_default": "Vâlcea",
    "native": "Vâlcea",
    "type": "department",
    "level": null,
    "parent_id": null,
    "population": 341861,
    "latitude": "45.04045360",
    "longitude": "24.15387190",
    "timezone": "Europe/Bucharest",
    "wikiDataId": "Q186838",
    "country_code": "RO"
  },
  "cities": [
    {
      "id": 89944,
      "name": "阿鲁努",
      "name_default": "Alunu",
      "native": "Descărcați utilizarea",
      "type": "adm2",
      "level": null,
      "parent_id": null,
      "population": 3733,
      "latitude": "45.01667000",
      "longitude": "23.81667000",
      "timezone": "Europe/Bucharest",
      "wikiDataId": "Q2721393",
      "country_code": "RO",
      "state_code": "VL",
      "state_id": 4757,
      "country_id": 181
    },
    {
      "id": 89951,
      "name": "阿默勒什蒂",
      "name_default": "Amărăşti",
      "native": "Amărăşti",
      "type": "adm2",
      "level": null,
      "parent_id": null,
      "population": 2109,
      "latitude": "44.76667000",
      "longitude": "24.15000000",
      "timezone": "Europe/Bucharest",
      "wikiDataId": "Q2268881",
      "country_code": "RO",
      "state_code": "VL",
      "state_id": 4757,
      "country_id": 181
    },
    {
      "id": 90470,
      "name": "巴贝尼",
      "name_default": "Băbeni",
      "native": "Băbeni",
      "type": "adm2",
      "level": null,
      "parent_id": null,
      "population": 9350,
      "latitude": "44.96667000",
      "longitude": "24.23333000",
      "timezone": "Europe/Bucharest",
      "wikiDataId": "Q12081427",
      "country_code": "RO",
      "state_code": "VL",
      "state_id": 4757,
      "country_id": 181
    },
    {
      "id": 90471,
      "name": "巴贝尼-奥尔特茨乌",
      "name_default": "Băbeni-Oltețu",
      "native": "Băbeni-Oltețu",
      "type": "city",
      "level": null,
      "parent_id": null,
      "population": 1039,
      "latitude": "44.61404000",
      "longitude": "23.97798000",
      "timezone": "Europe/Bucharest",
      "wikiDataId": "Q12081425",
      "country_code": "RO",
      "state_code": "VL",
      "state_id": 4757,
      "country_id": 181
    },
    {
      "id": 90490,
      "name": "伯伊莱戈沃拉",
      "name_default": "Băile Govora",
      "native": "Băile Govora",
      "type": "adm2",
      "level": null,
      "parent_id": null,
      "population": 2862,
      "latitude": "45.08333000",
      "longitude": "24.18333000",
      "timezone": "Europe/Bucharest",
      "wikiDataId": "Q12082521",
      "country_code": "RO",
      "state_code": "VL",
      "state_id": 4757,
      "country_id": 181
    },
    {
      "id": 90492,
      "name": "伯伊莱·奥勒内什蒂",
      "name_default": "Băile Olăneşti",
      "native": "Băile Olăneşti",
      "type": "adm2",
      "level": null,
      "parent_id": null,
      "population": 3750,
      "latitude": "45.20000000",
      "longitude": "24.23333000",
      "timezone": "Europe/Bucharest",
      "wikiDataId": "Q12082521",
      "country_code": "RO",
      "state_code": "VL",
      "state_id": 4757,
      "country_id": 181
    },
    {
      "id": 90505,
      "name": "伯尔切什蒂",
      "name_default": "Bălceşti",
      "native": "Bălceşti",
      "type": "adm2",
      "level": null,
      "parent_id": null,
      "population": 5683,
      "latitude": "44.61667000",
      "longitude": "23.95000000",
      "timezone": "Europe/Bucharest",
      "wikiDataId": "Q253915",
      "country_code": "RO",
      "state_code": "VL",
      "state_id": 4757,
      "country_id": 181
    },
    {
      "id": 90540,
      "name": "巴尔巴特什蒂",
      "name_default": "Bărbăteşti",
      "native": "Bărbăteşti",
      "type": "adm2",
      "level": null,
      "parent_id": null,
      "population": 3805,
      "latitude": "45.18333000",
      "longitude": "24.11667000",
      "timezone": "Europe/Bucharest",
      "wikiDataId": "Q1840232",
      "country_code": "RO",
      "state_code": "VL",
      "state_id": 4757,
      "country_id": 181
    },
    {
      "id": 90070,
      "name": "巴塔拉什蒂",
      "name_default": "Batârăşti",
      "native": "Batârăşti",
      "type": "adm2",
      "level": null,
      "parent_id": null,
      "population": 2017,
      "latitude": "44.84503940",
      "longitude": "24.13587750",
      "timezone": "Europe/Bucharest",
      "wikiDataId": "Q791370",
      "country_code": "RO",
      "state_code": "VL",
      "state_id": 4757,
      "country_id": 181
    },
    {
      "id": 90095,
      "name": "贝尔贝什蒂",
      "name_default": "Berbeşti",
      "native": "Berbeşti",
      "type": "adm2",
      "level": null,
      "parent_id": null,
      "population": 5606,
      "latitude": "44.98333000",
      "longitude": "23.88333000",
      "timezone": "Europe/Bucharest",
      "wikiDataId": "Q12081875",
      "country_code": "RO",
      "state_code": "VL",
      "state_id": 4757,
      "country_id": 181
    },
    {
      "id": 90110,
      "name": "贝里斯勒韦什蒂",
      "name_default": "Berislăveşti",
      "native": "Berislăveşti",
      "type": "adm2",
      "level": null,
      "parent_id": null,
      "population": 3032,
      "latitude": "45.25000000",
      "longitude": "24.41667000",
      "timezone": "Europe/Bucharest",
      "wikiDataId": "Q526754",
      "country_code": "RO",
      "state_code": "VL",
      "state_id": 4757,
      "country_id": 181
    },
    {
      "id": 90150,
      "name": "比斯特里察",
      "name_default": "Bistrița",
      "native": "Bistrița",
      "type": "city",
      "level": null,
      "parent_id": null,
      "population": 1325,
      "latitude": "45.18612000",
      "longitude": "24.04010000",
      "timezone": "Europe/Bucharest",
      "wikiDataId": "Q12087029",
      "country_code": "RO",
      "state_code": "VL",
      "state_id": 4757,
      "country_id": 181
    },
    {
      "id": 90181,
      "name": "博德什蒂",
      "name_default": "Bodești",
      "native": "Bodești",
      "type": "city",
      "level": null,
      "parent_id": null,
      "population": 1163,
      "latitude": "45.14167000",
      "longitude": "24.11549000",
      "timezone": "Europe/Bucharest",
      "wikiDataId": "Q12083459",
      "country_code": "RO",
      "state_code": "VL",
      "state_id": 4757,
      "country_id": 181
    },
    {
      "id": 90206,
      "name": "博伊什瓦拉",
      "name_default": "Boişoara",
      "native": "Boişoara",
      "type": "adm2",
      "level": null,
      "parent_id": null,
      "population": 1653,
      "latitude": "45.43333000",
      "longitude": "24.38333000",
      "timezone": "Europe/Bucharest",
      "wikiDataId": "Q2298101",
      "country_code": "RO",
      "state_code": "VL",
      "state_id": 4757,
      "country_id": 181
    },
    {
      "id": 90303,
      "name": "布雷佐伊",
      "name_default": "Brezoi",
      "native": "Brezoi",
      "type": "adm2",
      "level": null,
      "parent_id": null,
      "population": 5696,
      "latitude": "45.33797000",
      "longitude": "24.24863000",
      "timezone": "Europe/Bucharest",
      "wikiDataId": "Q12084756",
      "country_code": "RO",
      "state_code": "VL",
      "state_id": 4757,
      "country_id": 181
    },
    {
      "id": 90380,
      "name": "布代什蒂",
      "name_default": "Budeşti",
      "native": "Budeşti",
      "type": "adm2",
      "level": null,
      "parent_id": null,
      "population": 5362,
      "latitude": "45.05000000",
      "longitude": "24.38333000",
      "timezone": "Europe/Bucharest",
      "wikiDataId": "Q12085238",
      "country_code": "RO",
      "state_code": "VL",
      "state_id": 4757,
      "country_id": 181
    },
    {
      "id": 90399,
      "name": "布若雷尼",
      "name_default": "Bujoreni",
      "native": "Bujoreni",
      "type": "section",
      "level": null,
      "parent_id": null,
      "population": 607,
      "latitude": "45.13333000",
      "longitude": "24.35000000",
      "timezone": "Europe/Bucharest",
      "wikiDataId": "Q1889960",
      "country_code": "RO",
      "state_code": "VL",
      "state_id": 4757,
      "country_id": 181
    },
    {
      "id": 90408,
      "name": "布内什蒂",
      "name_default": "Buneşti",
      "native": "Buneşti",
      "type": "adm2",
      "level": null,
      "parent_id": null,
      "population": 2498,
      "latitude": "45.11667000",
      "longitude": "24.18333000",
      "timezone": "Europe/Bucharest",
      "wikiDataId": "Q437181",
      "country_code": "RO",
      "state_code": "VL",
      "state_id": 4757,
      "country_id": 181
    },
    {
      "id": 93790,
      "name": "卡内尼·米奇",
      "name_default": "Câinenii Mici",
      "native": "Câinenii Mici",
      "type": "city",
      "level": null,
      "parent_id": null,
      "population": 2731,
      "latitude": "45.48333000",
      "longitude": "24.30000000",
      "timezone": "Europe/Bucharest",
      "wikiDataId": "Q12109817",
      "country_code": "RO",
      "state_code": "VL",
      "state_id": 4757,
      "country_id": 181
    },
    {
      "id": 93835,
      "name": "克利默内什蒂",
      "name_default": "Călimăneşti",
      "native": "Călimăneşti",
      "type": "adm2",
      "level": null,
      "parent_id": null,
      "population": 8485,
      "latitude": "45.23333000",
      "longitude": "24.33333000",
      "timezone": "Europe/Bucharest",
      "wikiDataId": "Q12109449",
      "country_code": "RO",
      "state_code": "VL",
      "state_id": 4757,
      "country_id": 181
    },
    {
      "id": 93836,
      "name": "卡利娜",
      "name_default": "Călina",
      "native": "Călina",
      "type": "city",
      "level": null,
      "parent_id": null,
      "population": 1757,
      "latitude": "44.70205000",
      "longitude": "24.25439000",
      "timezone": "Europe/Bucharest",
      "wikiDataId": "Q12109522",
      "country_code": "RO",
      "state_code": "VL",
      "state_id": 4757,
      "country_id": 181
    },
    {
      "id": 90636,
      "name": "切尔尼什瓦拉",
      "name_default": "Cernişoara",
      "native": "Cernişoara",
      "type": "adm2",
      "level": null,
      "parent_id": null,
      "population": 3298,
      "latitude": "45.03333000",
      "longitude": "23.98333000",
      "timezone": "Europe/Bucharest",
      "wikiDataId": "Q2627501",
      "country_code": "RO",
      "state_code": "VL",
      "state_id": 4757,
      "country_id": 181
    },
    {
      "id": 90653,
      "name": "切亚",
      "name_default": "Cheia",
      "native": "Deplin",
      "type": "section",
      "level": null,
      "parent_id": null,
      "population": 1097,
      "latitude": "45.18306000",
      "longitude": "24.21666000",
      "timezone": "Europe/Bucharest",
      "wikiDataId": "Q12346145",
      "country_code": "RO",
      "state_code": "VL",
      "state_id": 4757,
      "country_id": 181
    },
    {
      "id": 90861,
      "name": "阿鲁努社区",
      "name_default": "Comuna Alunu",
      "native": "Surail Alaanu",
      "type": "adm2",
      "level": null,
      "parent_id": null,
      "population": 4495,
      "latitude": "45.00954000",
      "longitude": "23.81760000",
      "timezone": "Europe/Bucharest",
      "wikiDataId": "Q5117360",
      "country_code": "RO",
      "state_code": "VL",
      "state_id": 4757,
      "country_id": 181
    },
    {
      "id": 90865,
      "name": "社区",
      "name_default": "Comuna Amărăşti",
      "native": "Comuna Amărăşti",
      "type": "adm2",
      "level": null,
      "parent_id": null,
      "population": null,
      "latitude": "44.76107000",
      "longitude": "24.14382000",
      "timezone": "Europe/Bucharest",
      "wikiDataId": "Q3916038",
      "country_code": "RO",
      "state_code": "VL",
      "state_id": 4757,
      "country_id": 181
    },
    {
      "id": 91239,
      "name": "巴巴特什蒂社区",
      "name_default": "Comuna Bărbăteşti",
      "native": "Comuna Bărbăteşti",
      "type": "city",
      "level": null,
      "parent_id": null,
      "population": null,
      "latitude": "45.14154000",
      "longitude": "24.10933000",
      "timezone": "Europe/Bucharest",
      "wikiDataId": "Q12081956",
      "country_code": "RO",
      "state_code": "VL",
      "state_id": 4757,
      "country_id": 181
    },
    {
      "id": 90969,
      "name": "贝里斯拉维什蒂社区",
      "name_default": "Comuna Berislăveşti",
      "native": "Comuna Berislăveşti",
      "type": "city",
      "level": null,
      "parent_id": null,
      "population": null,
      "latitude": "45.26406000",
      "longitude": "24.43785000",
      "timezone": "Europe/Bucharest",
      "wikiDataId": "Q12724540",
      "country_code": "RO",
      "state_code": "VL",
      "state_id": 4757,
      "country_id": 181
    },
    {
      "id": 91035,
      "name": "博伊什瓦拉市",
      "name_default": "Comuna Boişoara",
      "native": "Comuna Boişoara",
      "type": "adm2",
      "level": null,
      "parent_id": null,
      "population": null,
      "latitude": "45.44232000",
      "longitude": "24.37462000",
      "timezone": "Europe/Bucharest",
      "wikiDataId": "Q12724556",
      "country_code": "RO",
      "state_code": "VL",
      "state_id": 4757,
      "country_id": 181
    },
    {
      "id": 91147,
      "name": "布德什蒂区",
      "name_default": "Comuna Budeşti",
      "native": "Comuna Budeşti",
      "type": "adm2",
      "level": null,
      "parent_id": null,
      "population": null,
      "latitude": "45.04714000",
      "longitude": "24.36603000",
      "timezone": "Europe/Bucharest",
      "wikiDataId": "Q3646461",
      "country_code": "RO",
      "state_code": "VL",
      "state_id": 4757,
      "country_id": 181
    },
    {
      "id": 91155,
      "name": "布约雷尼区",
      "name_default": "Comuna Bujoreni",
      "native": "Comuna Bujoreni",
      "type": "city",
      "level": null,
      "parent_id": null,
      "population": 965,
      "latitude": "45.16235000",
      "longitude": "24.36593000",
      "timezone": "Europe/Bucharest",
      "wikiDataId": "Q12724594",
      "country_code": "RO",
      "state_code": "VL",
      "state_id": 4757,
      "country_id": 181
    },
    {
      "id": 91163,
      "name": "布内什蒂区",
      "name_default": "Comuna Buneşti",
      "native": "Comuna Buneşti",
      "type": "city",
      "level": null,
      "parent_id": null,
      "population": null,
      "latitude": "45.10202000",
      "longitude": "24.21397000",
      "timezone": "Europe/Bucharest",
      "wikiDataId": "Q3915592",
      "country_code": "RO",
      "state_code": "VL",
      "state_id": 4757,
      "country_id": 181
    },
    {
      "id": 91539,
      "name": "卡内尼社区",
      "name_default": "Comuna Câineni",
      "native": "Comuna Câineni",
      "type": "city",
      "level": null,
      "parent_id": null,
      "population": null,
      "latitude": "45.49499000",
      "longitude": "24.30885000",
      "timezone": "Europe/Bucharest",
      "wikiDataId": "Q2298095",
      "country_code": "RO",
      "state_code": "VL",
      "state_id": 4757,
      "country_id": 181
    },
    {
      "id": 91294,
      "name": "切尔尼什瓦拉市",
      "name_default": "Comuna Cernişoara",
      "native": "Comuna Cernişoara",
      "type": "adm2",
      "level": null,
      "parent_id": null,
      "population": null,
      "latitude": "45.03432000",
      "longitude": "24.00487000",
      "timezone": "Europe/Bucharest",
      "wikiDataId": "Q12724627",
      "country_code": "RO",
      "state_code": "VL",
      "state_id": 4757,
      "country_id": 181
    },
    {
      "id": 91419,
      "name": "科帕切尼区",
      "name_default": "Comuna Copăceni",
      "native": "Comuna Copăceni",
      "type": "city",
      "level": null,
      "parent_id": null,
      "population": 628,
      "latitude": "44.98223000",
      "longitude": "23.98164000",
      "timezone": "Europe/Bucharest",
      "wikiDataId": "Q16427867",
      "country_code": "RO",
      "state_code": "VL",
      "state_id": 4757,
      "country_id": 181
    },
    {
      "id": 91456,
      "name": "科斯特什蒂区",
      "name_default": "Comuna Costeşti",
      "native": "Comuna Costeşti",
      "type": "adm2",
      "level": null,
      "parent_id": null,
      "population": null,
      "latitude": "45.16936000",
      "longitude": "24.05813000",
      "timezone": "Europe/Bucharest",
      "wikiDataId": "Q2548677",
      "country_code": "RO",
      "state_code": "VL",
      "state_id": 4757,
      "country_id": 181
    },
    {
      "id": 91492,
      "name": "克雷特尼区",
      "name_default": "Comuna Creţeni",
      "native": "Comuna Creţeni",
      "type": "adm2",
      "level": null,
      "parent_id": null,
      "population": null,
      "latitude": "44.70571000",
      "longitude": "24.18009000",
      "timezone": "Europe/Bucharest",
      "wikiDataId": "Q16427869",
      "country_code": "RO",
      "state_code": "VL",
      "state_id": 4757,
      "country_id": 181
    },
    {
      "id": 91733,
      "name": "德埃什蒂社区",
      "name_default": "Comuna Dăeşti",
      "native": "Comuna Dăeşti",
      "type": "city",
      "level": null,
      "parent_id": null,
      "population": null,
      "latitude": "45.18584000",
      "longitude": "24.39337000",
      "timezone": "Europe/Bucharest",
      "wikiDataId": "Q3915383",
      "country_code": "RO",
      "state_code": "VL",
      "state_id": 4757,
      "country_id": 181
    },
    {
      "id": 91742,
      "name": "丹尼切伊区",
      "name_default": "Comuna Dănicei",
      "native": "Comuna Dănicei",
      "type": "city",
      "level": null,
      "parent_id": null,
      "population": null,
      "latitude": "44.91181000",
      "longitude": "24.44503000",
      "timezone": "Europe/Bucharest",
      "wikiDataId": "Q2240600",
      "country_code": "RO",
      "state_code": "VL",
      "state_id": 4757,
      "country_id": 181
    },
    {
      "id": 91623,
      "name": "社区",
      "name_default": "Comuna Diculeşti",
      "native": "Comuna Diculeşti",
      "type": "adm2",
      "level": null,
      "parent_id": null,
      "population": 651,
      "latitude": "44.60974000",
      "longitude": "23.98795000",
      "timezone": "Europe/Bucharest",
      "wikiDataId": "Q3915323",
      "country_code": "RO",
      "state_code": "VL",
      "state_id": 4757,
      "country_id": 181
    },
    {
      "id": 91690,
      "name": "德拉戈耶什蒂社区",
      "name_default": "Comuna Drăgoeşti",
      "native": "Comuna Drăgoeşti",
      "type": "adm2",
      "level": null,
      "parent_id": null,
      "population": null,
      "latitude": "44.80393000",
      "longitude": "24.29400000",
      "timezone": "Europe/Bucharest",
      "wikiDataId": "Q3915585",
      "country_code": "RO",
      "state_code": "VL",
      "state_id": 4757,
      "country_id": 181
    },
    {
      "id": 91813,
      "name": "社区",
      "name_default": "Comuna Fârtãţeşti",
      "native": "Comuna Fârtãţeşti",
      "type": "adm2",
      "level": null,
      "parent_id": null,
      "population": null,
      "latitude": "44.77577000",
      "longitude": "23.98080000",
      "timezone": "Europe/Bucharest",
      "wikiDataId": "Q3915604",
      "country_code": "RO",
      "state_code": "VL",
      "state_id": 4757,
      "country_id": 181
    },
    {
      "id": 91826,
      "name": "弗雷什蒂社区",
      "name_default": "Comuna Făureşti",
      "native": "Comuna Făureşti",
      "type": "adm2",
      "level": null,
      "parent_id": null,
      "population": null,
      "latitude": "44.57351000",
      "longitude": "24.00871000",
      "timezone": "Europe/Bucharest",
      "wikiDataId": "Q12724793",
      "country_code": "RO",
      "state_code": "VL",
      "state_id": 4757,
      "country_id": 181
    },
    {
      "id": 91791,
      "name": "法国马纳斯提雷尼市",
      "name_default": "Comuna Frânceşti-Mânăstireni",
      "native": "Comuna Frânceşti-Mânăstireni",
      "type": "adm2",
      "level": null,
      "parent_id": null,
      "population": null,
      "latitude": "45.02358000",
      "longitude": "24.16794000",
      "timezone": "Europe/Bucharest",
      "wikiDataId": "Q12724780",
      "country_code": "RO",
      "state_code": "VL",
      "state_id": 4757,
      "country_id": 181
    },
    {
      "id": 91830,
      "name": "加利西亚市",
      "name_default": "Comuna Galicea",
      "native": "Comuna galiciană",
      "type": "city",
      "level": null,
      "parent_id": null,
      "population": 598,
      "latitude": "44.94428000",
      "longitude": "24.29633000",
      "timezone": "Europe/Bucharest",
      "wikiDataId": "Q12724795",
      "country_code": "RO",
      "state_code": "VL",
      "state_id": 4757,
      "country_id": 181
    },
    {
      "id": 91862,
      "name": "吉奥罗尤社区",
      "name_default": "Comuna Ghioroiu",
      "native": "Comuna Ghioroiu",
      "type": "adm2",
      "level": null,
      "parent_id": null,
      "population": null,
      "latitude": "44.67868000",
      "longitude": "23.84740000",
      "timezone": "Europe/Bucharest",
      "wikiDataId": "Q16427878",
      "country_code": "RO",
      "state_code": "VL",
      "state_id": 4757,
      "country_id": 181
    },
    {
      "id": 91885,
      "name": "格勒维尔社区",
      "name_default": "Comuna Glăvile",
      "native": "Comuna Glăvile",
      "type": "city",
      "level": null,
      "parent_id": null,
      "population": null,
      "latitude": "44.80423000",
      "longitude": "24.12255000",
      "timezone": "Europe/Bucharest",
      "wikiDataId": "Q12724804",
      "country_code": "RO",
      "state_code": "VL",
      "state_id": 4757,
      "country_id": 181
    },
    {
      "id": 91897,
      "name": "戈莱什蒂区",
      "name_default": "Comuna Goleşti",
      "native": "Comuna Goleşti",
      "type": "city",
      "level": null,
      "parent_id": null,
      "population": 608,
      "latitude": "45.11370000",
      "longitude": "24.47395000",
      "timezone": "Europe/Bucharest",
      "wikiDataId": "Q2098215",
      "country_code": "RO",
      "state_code": "VL",
      "state_id": 4757,
      "country_id": 181
    },
    {
      "id": 91940,
      "name": "格勒迪什泰亚区",
      "name_default": "Comuna Grădiştea",
      "native": "Comuna Grădiştea",
      "type": "adm2",
      "level": null,
      "parent_id": null,
      "population": null,
      "latitude": "44.89929000",
      "longitude": "23.81621000",
      "timezone": "Europe/Bucharest",
      "wikiDataId": "Q12724824",
      "country_code": "RO",
      "state_code": "VL",
      "state_id": 4757,
      "country_id": 181
    },
    {
      "id": 91960,
      "name": "古索尼区",
      "name_default": "Comuna Guşoeni",
      "native": "Comuna Guşoeni",
      "type": "adm2",
      "level": null,
      "parent_id": null,
      "population": null,
      "latitude": "44.72134000",
      "longitude": "24.12696000",
      "timezone": "Europe/Bucharest",
      "wikiDataId": "Q12724828",
      "country_code": "RO",
      "state_code": "VL",
      "state_id": 4757,
      "country_id": 181
    },
    {
      "id": 92085,
      "name": "约内什蒂区",
      "name_default": "Comuna Ioneşti",
      "native": "Comuna Ioneşti",
      "type": "adm2",
      "level": null,
      "parent_id": null,
      "population": 4379,
      "latitude": "44.85429000",
      "longitude": "24.23134000",
      "timezone": "Europe/Bucharest",
      "wikiDataId": "Q3915641",
      "country_code": "RO",
      "state_code": "VL",
      "state_id": 4757,
      "country_id": 181
    },
    {
      "id": 92219,
      "name": "湖区社区",
      "name_default": "Comuna Lăcusteni",
      "native": "Comuna Lăcusteni",
      "type": "adm2",
      "level": null,
      "parent_id": null,
      "population": null,
      "latitude": "44.70863000",
      "longitude": "23.89214000",
      "timezone": "Europe/Bucharest",
      "wikiDataId": "Q12724915",
      "country_code": "RO",
      "state_code": "VL",
      "state_id": 4757,
      "country_id": 181
    },
    {
      "id": 92220,
      "name": "社区",
      "name_default": "Comuna Lădeşti",
      "native": "Comuna Lădeşti",
      "type": "adm2",
      "level": null,
      "parent_id": null,
      "population": null,
      "latitude": "44.87014000",
      "longitude": "24.04350000",
      "timezone": "Europe/Bucharest",
      "wikiDataId": "Q2068040",
      "country_code": "RO",
      "state_code": "VL",
      "state_id": 4757,
      "country_id": 181
    },
    {
      "id": 92136,
      "name": "拉洛苏区",
      "name_default": "Comuna Laloşu",
      "native": "Comuna Laloşu",
      "type": "city",
      "level": null,
      "parent_id": null,
      "population": null,
      "latitude": "44.53046000",
      "longitude": "24.04689000",
      "timezone": "Europe/Bucharest",
      "wikiDataId": "Q16440124",
      "country_code": "RO",
      "state_code": "VL",
      "state_id": 4757,
      "country_id": 181
    },
    {
      "id": 92222,
      "name": "拉普沙塔区",
      "name_default": "Comuna Lăpuşata",
      "native": "Comuna Lăpuşata",
      "type": "city",
      "level": null,
      "parent_id": null,
      "population": null,
      "latitude": "44.92591000",
      "longitude": "24.00976000",
      "timezone": "Europe/Bucharest",
      "wikiDataId": "Q2482160",
      "country_code": "RO",
      "state_code": "VL",
      "state_id": 4757,
      "country_id": 181
    },
    {
      "id": 92174,
      "name": "利夫齐社区",
      "name_default": "Comuna Livezi",
      "native": "Comuna Livezi",
      "type": "adm2",
      "level": null,
      "parent_id": null,
      "population": null,
      "latitude": "44.83700000",
      "longitude": "23.83209000",
      "timezone": "Europe/Bucharest",
      "wikiDataId": "Q596940",
      "country_code": "RO",
      "state_code": "VL",
      "state_id": 4757,
      "country_id": 181
    },
    {
      "id": 92212,
      "name": "伦格什蒂社区",
      "name_default": "Comuna Lungeşti",
      "native": "Comuna Lungeşti",
      "type": "adm2",
      "level": null,
      "parent_id": null,
      "population": null,
      "latitude": "44.60271000",
      "longitude": "24.17894000",
      "timezone": "Europe/Bucharest",
      "wikiDataId": "Q770195",
      "country_code": "RO",
      "state_code": "VL",
      "state_id": 4757,
      "country_id": 181
    },
    {
      "id": 92380,
      "name": "毛丘卡社区",
      "name_default": "Comuna Măciuca",
      "native": "Comuna Măciuca",
      "type": "city",
      "level": null,
      "parent_id": null,
      "population": null,
      "latitude": "44.75807000",
      "longitude": "24.02408000",
      "timezone": "Europe/Bucharest",
      "wikiDataId": "Q2721521",
      "country_code": "RO",
      "state_code": "VL",
      "state_id": 4757,
      "country_id": 181
    },
    {
      "id": 92381,
      "name": "贝卡市",
      "name_default": "Comuna Mădulari-Beica",
      "native": "Comuna Mădulari-Beica",
      "type": "city",
      "level": null,
      "parent_id": null,
      "population": null,
      "latitude": "44.67820000",
      "longitude": "24.10121000",
      "timezone": "Europe/Bucharest",
      "wikiDataId": "Q12724965",
      "country_code": "RO",
      "state_code": "VL",
      "state_id": 4757,
      "country_id": 181
    },
    {
      "id": 92231,
      "name": "马拉亚区",
      "name_default": "Comuna Malaia",
      "native": "Comuna Malaia",
      "type": "adm2",
      "level": null,
      "parent_id": null,
      "population": null,
      "latitude": "45.36429000",
      "longitude": "24.04456000",
      "timezone": "Europe/Bucharest",
      "wikiDataId": "Q2387281",
      "country_code": "RO",
      "state_code": "VL",
      "state_id": 4757,
      "country_id": 181
    },
    {
      "id": 92397,
      "name": "默尔德雷什蒂社区",
      "name_default": "Comuna Măldăreşti",
      "native": "Comuna Măldăreşti",
      "type": "adm2",
      "level": null,
      "parent_id": null,
      "population": null,
      "latitude": "45.10258000",
      "longitude": "24.00613000",
      "timezone": "Europe/Bucharest",
      "wikiDataId": "Q12724974",
      "country_code": "RO",
      "state_code": "VL",
      "state_id": 4757,
      "country_id": 181
    },
    {
      "id": 92246,
      "name": "马泰什蒂社区",
      "name_default": "Comuna Mateeşti",
      "native": "Comuna Mateeşti",
      "type": "adm2",
      "level": null,
      "parent_id": null,
      "population": null,
      "latitude": "45.06784000",
      "longitude": "23.85490000",
      "timezone": "Europe/Bucharest",
      "wikiDataId": "Q12724926",
      "country_code": "RO",
      "state_code": "VL",
      "state_id": 4757,
      "country_id": 181
    },
    {
      "id": 92280,
      "name": "米哈埃什蒂社区",
      "name_default": "Comuna Mihăeşti",
      "native": "Comuna Mihăeşti",
      "type": "adm2",
      "level": null,
      "parent_id": null,
      "population": null,
      "latitude": "45.03282000",
      "longitude": "24.24501000",
      "timezone": "Europe/Bucharest",
      "wikiDataId": "Q12724936",
      "country_code": "RO",
      "state_code": "VL",
      "state_id": 4757,
      "country_id": 181
    },
    {
      "id": 92288,
      "name": "米尔科尤区",
      "name_default": "Comuna Milcoiu",
      "native": "Comuna Milcoiu",
      "type": "adm2",
      "level": null,
      "parent_id": null,
      "population": 1276,
      "latitude": "45.04046000",
      "longitude": "24.46786000",
      "timezone": "Europe/Bucharest",
      "wikiDataId": "Q5117716",
      "country_code": "RO",
      "state_code": "VL",
      "state_id": 4757,
      "country_id": 181
    },
    {
      "id": 92309,
      "name": "米特罗法尼市",
      "name_default": "Comuna Mitrofani",
      "native": "Comuna Mitrofani",
      "type": "city",
      "level": null,
      "parent_id": null,
      "population": 713,
      "latitude": "44.75104000",
      "longitude": "24.20272000",
      "timezone": "Europe/Bucharest",
      "wikiDataId": "Q12724942",
      "country_code": "RO",
      "state_code": "VL",
      "state_id": 4757,
      "country_id": 181
    },
    {
      "id": 92354,
      "name": "穆埃雷斯卡市",
      "name_default": "Comuna Muereasca",
      "native": "Comuna Muereasca",
      "type": "adm2",
      "level": null,
      "parent_id": null,
      "population": null,
      "latitude": "45.20364000",
      "longitude": "24.29726000",
      "timezone": "Europe/Bucharest",
      "wikiDataId": "Q12724954",
      "country_code": "RO",
      "state_code": "VL",
      "state_id": 4757,
      "country_id": 181
    },
    {
      "id": 92439,
      "name": "尼古拉·伯尔切斯库社区",
      "name_default": "Comuna Nicolae Bãlcescu",
      "native": "Comuna Nicolae Bãlcescu",
      "type": "adm2",
      "level": null,
      "parent_id": null,
      "population": null,
      "latitude": "44.98760000",
      "longitude": "24.41990000",
      "timezone": "Europe/Bucharest",
      "wikiDataId": "Q940856",
      "country_code": "RO",
      "state_code": "VL",
      "state_id": 4757,
      "country_id": 181
    },
    {
      "id": 92492,
      "name": "奥拉努市",
      "name_default": "Comuna Olanu",
      "native": "Comuna Olanu",
      "type": "city",
      "level": null,
      "parent_id": null,
      "population": 736,
      "latitude": "44.87416000",
      "longitude": "24.29169000",
      "timezone": "Europe/Bucharest",
      "wikiDataId": "Q12725003",
      "country_code": "RO",
      "state_code": "VL",
      "state_id": 4757,
      "country_id": 181
    },
    {
      "id": 92510,
      "name": "奥尔莱斯蒂区",
      "name_default": "Comuna Orleşti",
      "native": "Comuna Orleşti",
      "type": "adm2",
      "level": null,
      "parent_id": null,
      "population": null,
      "latitude": "44.78125000",
      "longitude": "24.24623000",
      "timezone": "Europe/Bucharest",
      "wikiDataId": "Q2201998",
      "country_code": "RO",
      "state_code": "VL",
      "state_id": 4757,
      "country_id": 181
    },
    {
      "id": 92522,
      "name": "奥特沙尼区",
      "name_default": "Comuna Oteşani",
      "native": "Comuna Oteşani",
      "type": "adm2",
      "level": null,
      "parent_id": null,
      "population": null,
      "latitude": "45.04807000",
      "longitude": "24.03989000",
      "timezone": "Europe/Bucharest",
      "wikiDataId": "Q12725016",
      "country_code": "RO",
      "state_code": "VL",
      "state_id": 4757,
      "country_id": 181
    },
    {
      "id": 92730,
      "name": "社区",
      "name_default": "Comuna Păuşeşti",
      "native": "Comuna Păuşeşti",
      "type": "adm2",
      "level": null,
      "parent_id": null,
      "population": 0,
      "latitude": "45.07341000",
      "longitude": "24.13552000",
      "timezone": "Europe/Bucharest",
      "wikiDataId": "Q3915644",
      "country_code": "RO",
      "state_code": "VL",
      "state_id": 4757,
      "country_id": 181
    },
    {
      "id": 92731,
      "name": "Comuna Păuşeşti-Măglaşi",
      "name_default": "Comuna Păuşeşti-Măglaşi",
      "native": "Comuna Păuşeşti-Măglaşi",
      "type": "adm2",
      "level": null,
      "parent_id": null,
      "population": null,
      "latitude": "45.14165000",
      "longitude": "24.24474000",
      "timezone": "Europe/Bucharest",
      "wikiDataId": "Q2298482",
      "country_code": "RO",
      "state_code": "VL",
      "state_id": 4757,
      "country_id": 181
    },
    {
      "id": 92554,
      "name": "佩里什尼社区",
      "name_default": "Comuna Perişani",
      "native": "Comuna Perişani",
      "type": "adm2",
      "level": null,
      "parent_id": null,
      "population": null,
      "latitude": "45.37925000",
      "longitude": "24.40776000",
      "timezone": "Europe/Bucharest",
      "wikiDataId": "Q2603579",
      "country_code": "RO",
      "state_code": "VL",
      "state_id": 4757,
      "country_id": 181
    },
    {
      "id": 92560,
      "name": "佩斯恰纳社区",
      "name_default": "Comuna Pesceana",
      "native": "Comuna Pesceana",
      "type": "adm2",
      "level": null,
      "parent_id": null,
      "population": null,
      "latitude": "44.88169000",
      "longitude": "24.12797000",
      "timezone": "Europe/Bucharest",
      "wikiDataId": "Q16427895",
      "country_code": "RO",
      "state_code": "VL",
      "state_id": 4757,
      "country_id": 181
    },
    {
      "id": 92577,
      "name": "皮埃特拉里社区",
      "name_default": "Comuna Pietrari",
      "native": "Comuna Pietrari",
      "type": "city",
      "level": null,
      "parent_id": null,
      "population": null,
      "latitude": "45.11586000",
      "longitude": "24.10242000",
      "timezone": "Europe/Bucharest",
      "wikiDataId": "Q16427898",
      "country_code": "RO",
      "state_code": "VL",
      "state_id": 4757,
      "country_id": 181
    },
    {
      "id": 92656,
      "name": "波佩什蒂区",
      "name_default": "Comuna Popeşti",
      "native": "Comuna Popeşti",
      "type": "city",
      "level": null,
      "parent_id": null,
      "population": null,
      "latitude": "44.97908000",
      "longitude": "24.11014000",
      "timezone": "Europe/Bucharest",
      "wikiDataId": "Q3915283",
      "country_code": "RO",
      "state_code": "VL",
      "state_id": 4757,
      "country_id": 181
    },
    {
      "id": 92684,
      "name": "普伦德尼社区",
      "name_default": "Comuna Prundeni",
      "native": "Comuna Prundeni",
      "type": "city",
      "level": null,
      "parent_id": null,
      "population": null,
      "latitude": "44.73460000",
      "longitude": "24.24863000",
      "timezone": "Europe/Bucharest",
      "wikiDataId": "Q5117634",
      "country_code": "RO",
      "state_code": "VL",
      "state_id": 4757,
      "country_id": 181
    },
    {
      "id": 92736,
      "name": "拉科维塔区",
      "name_default": "Comuna Racoviţa",
      "native": "Comuna Racoviţa",
      "type": "adm2",
      "level": null,
      "parent_id": null,
      "population": 1824,
      "latitude": "45.41200000",
      "longitude": "24.31792000",
      "timezone": "Europe/Bucharest",
      "wikiDataId": "Q12725079",
      "country_code": "RO",
      "state_code": "VL",
      "state_id": 4757,
      "country_id": 181
    },
    {
      "id": 92778,
      "name": "罗斯蒂区",
      "name_default": "Comuna Roeşti",
      "native": "Comuna Roeşti",
      "type": "adm2",
      "level": null,
      "parent_id": null,
      "population": 3164,
      "latitude": "44.92016000",
      "longitude": "24.07793000",
      "timezone": "Europe/Bucharest",
      "wikiDataId": "Q3915110",
      "country_code": "RO",
      "state_code": "VL",
      "state_id": 4757,
      "country_id": 181
    },
    {
      "id": 92801,
      "name": "罗斯伊勒社区",
      "name_default": "Comuna Roşiile",
      "native": "Comuna Roşiile",
      "type": "adm2",
      "level": null,
      "parent_id": null,
      "population": null,
      "latitude": "44.88537000",
      "longitude": "23.92438000",
      "timezone": "Europe/Bucharest",
      "wikiDataId": "Q3915394",
      "country_code": "RO",
      "state_code": "VL",
      "state_id": 4757,
      "country_id": 181
    },
    {
      "id": 92812,
      "name": "伦库市",
      "name_default": "Comuna Runcu",
      "native": "Comuna Runcu",
      "type": "adm2",
      "level": null,
      "parent_id": null,
      "population": null,
      "latitude": "45.18685000",
      "longitude": "24.45979000",
      "timezone": "Europe/Bucharest",
      "wikiDataId": "Q12725100",
      "country_code": "RO",
      "state_code": "VL",
      "state_id": 4757,
      "country_id": 181
    },
    {
      "id": 93099,
      "name": "塞拉特鲁塞尔社区",
      "name_default": "Comuna Sălătrucel",
      "native": "Comuna Sălătrucel",
      "type": "adm2",
      "level": null,
      "parent_id": null,
      "population": null,
      "latitude": "45.26684000",
      "longitude": "24.38921000",
      "timezone": "Europe/Bucharest",
      "wikiDataId": "Q2486161",
      "country_code": "RO",
      "state_code": "VL",
      "state_id": 4757,
      "country_id": 181
    },
    {
      "id": 92898,
      "name": "斯库杜县",
      "name_default": "Comuna Scundu",
      "native": "Comuna Scundu",
      "type": "city",
      "level": null,
      "parent_id": null,
      "population": null,
      "latitude": "44.84880000",
      "longitude": "24.17981000",
      "timezone": "Europe/Bucharest",
      "wikiDataId": "Q12725123",
      "country_code": "RO",
      "state_code": "VL",
      "state_id": 4757,
      "country_id": 181
    },
    {
      "id": 92938,
      "name": "西内什蒂市",
      "name_default": "Comuna Sineşti",
      "native": "Comuna Sineşti",
      "type": "adm2",
      "level": null,
      "parent_id": null,
      "population": null,
      "latitude": "44.93231000",
      "longitude": "23.83951000",
      "timezone": "Europe/Bucharest",
      "wikiDataId": "Q3915650",
      "country_code": "RO",
      "state_code": "VL",
      "state_id": 4757,
      "country_id": 181
    },
    {
      "id": 93530,
      "name": "希里内亚萨社区",
      "name_default": "Comuna Şirineasa",
      "native": "Comuna Șirineasa",
      "type": "adm2",
      "level": null,
      "parent_id": null,
      "population": null,
      "latitude": "44.93871000",
      "longitude": "24.18570000",
      "timezone": "Europe/Bucharest",
      "wikiDataId": "Q16427918",
      "country_code": "RO",
      "state_code": "VL",
      "state_id": 4757,
      "country_id": 181
    },
    {
      "id": 92960,
      "name": "斯拉蒂奥拉区",
      "name_default": "Comuna Slătioara",
      "native": "Comuna Slătioara",
      "type": "city",
      "level": null,
      "parent_id": null,
      "population": null,
      "latitude": "45.12396000",
      "longitude": "23.88581000",
      "timezone": "Europe/Bucharest",
      "wikiDataId": "Q16427911",
      "country_code": "RO",
      "state_code": "VL",
      "state_id": 4757,
      "country_id": 181
    },
    {
      "id": 93018,
      "name": "州立社区",
      "name_default": "Comuna Stăneşti",
      "native": "Comuna Stăneşti",
      "type": "adm2",
      "level": null,
      "parent_id": null,
      "population": null,
      "latitude": "44.81359000",
      "longitude": "24.04264000",
      "timezone": "Europe/Bucharest",
      "wikiDataId": "Q3915317",
      "country_code": "RO",
      "state_code": "VL",
      "state_id": 4757,
      "country_id": 181
    },
    {
      "id": 93555,
      "name": "什特凡内什蒂社区",
      "name_default": "Comuna Ştefăneşti",
      "native": "Comuna Ştefăneşti",
      "type": "adm2",
      "level": null,
      "parent_id": null,
      "population": null,
      "latitude": "44.60541000",
      "longitude": "24.23338000",
      "timezone": "Europe/Bucharest",
      "wikiDataId": "Q3915320",
      "country_code": "RO",
      "state_code": "VL",
      "state_id": 4757,
      "country_id": 181
    },
    {
      "id": 92993,
      "name": "斯托内什蒂区",
      "name_default": "Comuna Stoeneşti",
      "native": "Comuna Stoeneşti",
      "type": "adm2",
      "level": null,
      "parent_id": null,
      "population": null,
      "latitude": "45.14715000",
      "longitude": "24.16337000",
      "timezone": "Europe/Bucharest",
      "wikiDataId": "Q3915596",
      "country_code": "RO",
      "state_code": "VL",
      "state_id": 4757,
      "country_id": 181
    },
    {
      "id": 92996,
      "name": "斯托伊莱什蒂社区",
      "name_default": "Comuna Stoileşti",
      "native": "Comuna Stoileşti",
      "type": "city",
      "level": null,
      "parent_id": null,
      "population": null,
      "latitude": "44.91463000",
      "longitude": "24.35992000",
      "timezone": "Europe/Bucharest",
      "wikiDataId": "Q3915143",
      "country_code": "RO",
      "state_code": "VL",
      "state_id": 4757,
      "country_id": 181
    },
    {
      "id": 93004,
      "name": "斯特罗什蒂区",
      "name_default": "Comuna Stroeşti",
      "native": "Comuna Stroeşti",
      "type": "city",
      "level": null,
      "parent_id": null,
      "population": null,
      "latitude": "45.07519000",
      "longitude": "23.92645000",
      "timezone": "Europe/Bucharest",
      "wikiDataId": "Q2219766",
      "country_code": "RO",
      "state_code": "VL",
      "state_id": 4757,
      "country_id": 181
    },
    {
      "id": 93564,
      "name": "苏沙尼社区",
      "name_default": "Comuna Şuşani",
      "native": "Comuna Şuşani",
      "type": "adm2",
      "level": null,
      "parent_id": null,
      "population": 3875,
      "latitude": "44.61009000",
      "longitude": "24.10021000",
      "timezone": "Europe/Bucharest",
      "wikiDataId": "Q16427923",
      "country_code": "RO",
      "state_code": "VL",
      "state_id": 4757,
      "country_id": 181
    },
    {
      "id": 93042,
      "name": "苏特什蒂社区",
      "name_default": "Comuna Suteşti",
      "native": "Comuna Suteşti",
      "type": "adm2",
      "level": null,
      "parent_id": null,
      "population": null,
      "latitude": "44.67103000",
      "longitude": "24.21893000",
      "timezone": "Europe/Bucharest",
      "wikiDataId": "Q3915589",
      "country_code": "RO",
      "state_code": "VL",
      "state_id": 4757,
      "country_id": 181
    },
    {
      "id": 93146,
      "name": "特托尤市",
      "name_default": "Comuna Tetoiu",
      "native": "Comuna Tetoiu",
      "type": "adm2",
      "level": null,
      "parent_id": null,
      "population": 2995,
      "latitude": "44.78374000",
      "longitude": "23.91735000",
      "timezone": "Europe/Bucharest",
      "wikiDataId": "Q16427926",
      "country_code": "RO",
      "state_code": "VL",
      "state_id": 4757,
      "country_id": 181
    },
    {
      "id": 93172,
      "name": "汤姆萨尼社区",
      "name_default": "Comuna Tomşani",
      "native": "Comuna Tomşani",
      "type": "adm2",
      "level": null,
      "parent_id": null,
      "population": null,
      "latitude": "45.09606000",
      "longitude": "24.06020000",
      "timezone": "Europe/Bucharest",
      "wikiDataId": "Q16427929",
      "country_code": "RO",
      "state_code": "VL",
      "state_id": 4757,
      "country_id": 181
    },
    {
      "id": 93296,
      "name": "瓦迪尼社区",
      "name_default": "Comuna Vaideeni",
      "native": "Comuna Vaideeni",
      "type": "city",
      "level": null,
      "parent_id": null,
      "population": null,
      "latitude": "45.17322000",
      "longitude": "23.88622000",
      "timezone": "Europe/Bucharest",
      "wikiDataId": "Q12725245",
      "country_code": "RO",
      "state_code": "VL",
      "state_id": 4757,
      "country_id": 181
    },
    {
      "id": 93314,
      "name": "瓦莱亚马雷市",
      "name_default": "Comuna Valea Mare",
      "native": "Comuna Valea Mare",
      "type": "adm2",
      "level": null,
      "parent_id": null,
      "population": 3165,
      "latitude": "44.67374000",
      "longitude": "24.00055000",
      "timezone": "Europe/Bucharest",
      "wikiDataId": "Q12725251",
      "country_code": "RO",
      "state_code": "VL",
      "state_id": 4757,
      "country_id": 181
    },
    {
      "id": 93389,
      "name": "弗拉德什蒂社区",
      "name_default": "Comuna Vlădeşti",
      "native": "Comuna Vlădeşti",
      "type": "adm2",
      "level": null,
      "parent_id": null,
      "population": 2411,
      "latitude": "45.13574000",
      "longitude": "24.30181000",
      "timezone": "Europe/Bucharest",
      "wikiDataId": "Q3915164",
      "country_code": "RO",
      "state_code": "VL",
      "state_id": 4757,
      "country_id": 181
    },
    {
      "id": 93394,
      "name": "语音社区",
      "name_default": "Comuna Voiceşti",
      "native": "Comuna Voiceşti",
      "type": "adm2",
      "level": null,
      "parent_id": null,
      "population": null,
      "latitude": "44.59651000",
      "longitude": "24.29980000",
      "timezone": "Europe/Bucharest",
      "wikiDataId": "Q2298539",
      "country_code": "RO",
      "state_code": "VL",
      "state_id": 4757,
      "country_id": 181
    },
    {
      "id": 93397,
      "name": "沃伊内亚萨区",
      "name_default": "Comuna Voineasa",
      "native": "Comuna Voineasa",
      "type": "city",
      "level": null,
      "parent_id": null,
      "population": null,
      "latitude": "45.41128000",
      "longitude": "23.97611000",
      "timezone": "Europe/Bucharest",
      "wikiDataId": "Q16427937",
      "country_code": "RO",
      "state_code": "VL",
      "state_id": 4757,
      "country_id": 181
    },
    {
      "id": 93490,
      "name": "扎特雷尼区",
      "name_default": "Comuna Zătreni",
      "native": "Comuna Zătreni",
      "type": "adm2",
      "level": null,
      "parent_id": null,
      "population": null,
      "latitude": "44.77069000",
      "longitude": "23.84320000",
      "timezone": "Europe/Bucharest",
      "wikiDataId": "Q16427940",
      "country_code": "RO",
      "state_code": "VL",
      "state_id": 4757,
      "country_id": 181
    },
    {
      "id": 93604,
      "name": "科帕切卢",
      "name_default": "Copăcelu",
      "native": "Copăcelu",
      "type": "city",
      "level": null,
      "parent_id": null,
      "population": 1879,
      "latitude": "45.06762000",
      "longitude": "24.31161000",
      "timezone": "Europe/Bucharest",
      "wikiDataId": "Q267117",
      "country_code": "RO",
      "state_code": "VL",
      "state_id": 4757,
      "country_id": 181
    },
    {
      "id": 93606,
      "name": "科帕切尼",
      "name_default": "Copăceni",
      "native": "Copăceni",
      "type": "adm2",
      "level": null,
      "parent_id": null,
      "population": 3129,
      "latitude": "45.00000000",
      "longitude": "23.98333000",
      "timezone": "Europe/Bucharest",
      "wikiDataId": "Q2549153",
      "country_code": "RO",
      "state_code": "VL",
      "state_id": 4757,
      "country_id": 181
    },
    {
      "id": 93697,
      "name": "科沙尼",
      "name_default": "Coșani",
      "native": "Coșani",
      "type": "city",
      "level": null,
      "parent_id": null,
      "population": 1341,
      "latitude": "45.00788000",
      "longitude": "24.19188000",
      "timezone": "Europe/Bucharest",
      "wikiDataId": "Q12113962",
      "country_code": "RO",
      "state_code": "VL",
      "state_id": 4757,
      "country_id": 181
    },
    {
      "id": 93658,
      "name": "科斯特什蒂",
      "name_default": "Costeşti",
      "native": "Costeşti",
      "type": "adm2",
      "level": null,
      "parent_id": null,
      "population": 3616,
      "latitude": "45.15000000",
      "longitude": "24.06667000",
      "timezone": "Europe/Bucharest",
      "wikiDataId": "Q12113565",
      "country_code": "RO",
      "state_code": "VL",
      "state_id": 4757,
      "country_id": 181
    },
    {
      "id": 93713,
      "name": "克雷切尼",
      "name_default": "Creţeni",
      "native": "Creţeni",
      "type": "adm2",
      "level": null,
      "parent_id": null,
      "population": 2602,
      "latitude": "44.68333000",
      "longitude": "24.18333000",
      "timezone": "Europe/Bucharest",
      "wikiDataId": "Q2298118",
      "country_code": "RO",
      "state_code": "VL",
      "state_id": 4757,
      "country_id": 181
    },
    {
      "id": 94117,
      "name": "德埃什蒂",
      "name_default": "Dăeşti",
      "native": "Dăeşti",
      "type": "city",
      "level": null,
      "parent_id": null,
      "population": 2966,
      "latitude": "44.96667000",
      "longitude": "24.13333000",
      "timezone": "Europe/Bucharest",
      "wikiDataId": "Q12100655",
      "country_code": "RO",
      "state_code": "VL",
      "state_id": 4757,
      "country_id": 181
    },
    {
      "id": 93901,
      "name": "德阿鲁·阿鲁尼什",
      "name_default": "Dealu Aluniș",
      "native": "Dealu Aluniș",
      "type": "city",
      "level": null,
      "parent_id": null,
      "population": 2704,
      "latitude": "44.98252000",
      "longitude": "23.86749000",
      "timezone": "Europe/Bucharest",
      "wikiDataId": "Q1070197",
      "country_code": "RO",
      "state_code": "VL",
      "state_id": 4757,
      "country_id": 181
    },
    {
      "id": 93902,
      "name": "德阿鲁·达尼切伊",
      "name_default": "Dealu Dănicei",
      "native": "Dealu Dănicei",
      "type": "section",
      "level": null,
      "parent_id": null,
      "population": 2459,
      "latitude": "44.90000000",
      "longitude": "24.43333000",
      "timezone": "Europe/Bucharest",
      "wikiDataId": "Q1070197",
      "country_code": "RO",
      "state_code": "VL",
      "state_id": 4757,
      "country_id": 181
    },
    {
      "id": 93934,
      "name": "迪库莱什蒂",
      "name_default": "Diculești",
      "native": "Diculești",
      "type": "adm2",
      "level": null,
      "parent_id": null,
      "population": 651,
      "latitude": "44.59351000",
      "longitude": "23.98968000",
      "timezone": "Europe/Bucharest",
      "wikiDataId": "Q968007",
      "country_code": "RO",
      "state_code": "VL",
      "state_id": 4757,
      "country_id": 181
    },
    {
      "id": 93971,
      "name": "多布鲁沙",
      "name_default": "Dobrușa",
      "native": "Bun",
      "type": "city",
      "level": null,
      "parent_id": null,
      "population": 1620,
      "latitude": "44.62642000",
      "longitude": "24.20779000",
      "timezone": "Europe/Bucharest",
      "wikiDataId": "Q12101564",
      "country_code": "RO",
      "state_code": "VL",
      "state_id": 4757,
      "country_id": 181
    },
    {
      "id": 94064,
      "name": "德拉加沙尼",
      "name_default": "Drăgăşani",
      "native": "Drăgăşani",
      "type": "adm2",
      "level": null,
      "parent_id": null,
      "population": 20630,
      "latitude": "44.65000000",
      "longitude": "24.26667000",
      "timezone": "Europe/Bucharest",
      "wikiDataId": "Q2292684",
      "country_code": "RO",
      "state_code": "VL",
      "state_id": 4757,
      "country_id": 181
    },
    {
      "id": 94041,
      "name": "德拉戈耶什蒂",
      "name_default": "Drăgoeşti",
      "native": "Drăgoeşti",
      "type": "adm2",
      "level": null,
      "parent_id": null,
      "population": 2362,
      "latitude": "44.81667000",
      "longitude": "24.30000000",
      "timezone": "Europe/Bucharest",
      "wikiDataId": "Q2180423",
      "country_code": "RO",
      "state_code": "VL",
      "state_id": 4757,
      "country_id": 181
    },
    {
      "id": 94267,
      "name": "法尔塔特什蒂",
      "name_default": "Fărtăţeşti",
      "native": "Fărtăţeşti",
      "type": "adm2",
      "level": null,
      "parent_id": null,
      "population": 4561,
      "latitude": "44.78333000",
      "longitude": "24.00000000",
      "timezone": "Europe/Bucharest",
      "wikiDataId": "Q2297655",
      "country_code": "RO",
      "state_code": "VL",
      "state_id": 4757,
      "country_id": 181
    },
    {
      "id": 94271,
      "name": "弗雷什蒂",
      "name_default": "Făureşti",
      "native": "Făureşti",
      "type": "adm2",
      "level": null,
      "parent_id": null,
      "population": 3623,
      "latitude": "44.56667000",
      "longitude": "24.01667000",
      "timezone": "Europe/Bucharest",
      "wikiDataId": "Q2341339",
      "country_code": "RO",
      "state_code": "VL",
      "state_id": 4757,
      "country_id": 181
    },
    {
      "id": 94277,
      "name": "加利西亚",
      "name_default": "Galicea",
      "native": "Galicea",
      "type": "adm2",
      "level": null,
      "parent_id": null,
      "population": 3268,
      "latitude": "44.91667000",
      "longitude": "24.28333000",
      "timezone": "Europe/Bucharest",
      "wikiDataId": "Q2109923",
      "country_code": "RO",
      "state_code": "VL",
      "state_id": 4757,
      "country_id": 181
    },
    {
      "id": 94334,
      "name": "吉奥罗尤",
      "name_default": "Ghioroiu",
      "native": "Ghioroiu",
      "type": "adm2",
      "level": null,
      "parent_id": null,
      "population": 2144,
      "latitude": "44.70000000",
      "longitude": "23.83333000",
      "timezone": "Europe/Bucharest",
      "wikiDataId": "Q2205585",
      "country_code": "RO",
      "state_code": "VL",
      "state_id": 4757,
      "country_id": 181
    },
    {
      "id": 94365,
      "name": "格勒维尔",
      "name_default": "Glăvile",
      "native": "Glăvile",
      "type": "adm2",
      "level": null,
      "parent_id": null,
      "population": 1514,
      "latitude": "44.82376970",
      "longitude": "24.13638160",
      "timezone": "Europe/Bucharest",
      "wikiDataId": "Q2721408",
      "country_code": "RO",
      "state_code": "VL",
      "state_id": 4757,
      "country_id": 181
    },
    {
      "id": 94381,
      "name": "戈拉努",
      "name_default": "Goranu",
      "native": "Goran",
      "type": "city",
      "level": null,
      "parent_id": null,
      "population": 2220,
      "latitude": "45.10523000",
      "longitude": "24.38431000",
      "timezone": "Europe/Bucharest",
      "wikiDataId": "Q15931660",
      "country_code": "RO",
      "state_code": "VL",
      "state_id": 4757,
      "country_id": 181
    },
    {
      "id": 94439,
      "name": "格拉迪什泰亚",
      "name_default": "Grădiştea",
      "native": "Grădiştea",
      "type": "adm2",
      "level": null,
      "parent_id": null,
      "population": 2115,
      "latitude": "44.86667000",
      "longitude": "23.81667000",
      "timezone": "Europe/Bucharest",
      "wikiDataId": "Q919424",
      "country_code": "RO",
      "state_code": "VL",
      "state_id": 4757,
      "country_id": 181
    },
    {
      "id": 94403,
      "name": "格雷布列什蒂",
      "name_default": "Greblești",
      "native": "Greblești",
      "type": "city",
      "level": null,
      "parent_id": null,
      "population": 1115,
      "latitude": "45.47514000",
      "longitude": "24.31182000",
      "timezone": "Europe/Bucharest",
      "wikiDataId": "Q12097547",
      "country_code": "RO",
      "state_code": "VL",
      "state_id": 4757,
      "country_id": 181
    },
    {
      "id": 94460,
      "name": "古拉·苏哈苏鲁伊",
      "name_default": "Gura Suhașului",
      "native": "Gura Suhașului",
      "type": "adm2",
      "level": null,
      "parent_id": null,
      "population": 1595,
      "latitude": "45.08803000",
      "longitude": "24.29886000",
      "timezone": "Europe/Bucharest",
      "wikiDataId": "Q281607",
      "country_code": "RO",
      "state_code": "VL",
      "state_id": 4757,
      "country_id": 181
    },
    {
      "id": 94474,
      "name": "古索埃尼",
      "name_default": "Guşoeni",
      "native": "Gushoeni",
      "type": "adm2",
      "level": null,
      "parent_id": null,
      "population": 1870,
      "latitude": "44.73333000",
      "longitude": "24.11667000",
      "timezone": "Europe/Bucharest",
      "wikiDataId": "Q2069743",
      "country_code": "RO",
      "state_code": "VL",
      "state_id": 4757,
      "country_id": 181
    },
    {
      "id": 94558,
      "name": "霍雷祖",
      "name_default": "Horezu",
      "native": "Horezu",
      "type": "adm2",
      "level": null,
      "parent_id": null,
      "population": 6743,
      "latitude": "45.15000000",
      "longitude": "24.01667000",
      "timezone": "Europe/Bucharest",
      "wikiDataId": "Q774739",
      "country_code": "RO",
      "state_code": "VL",
      "state_id": 4757,
      "country_id": 181
    },
    {
      "id": 94651,
      "name": "伊戈尤",
      "name_default": "Igoiu",
      "native": "Igleu",
      "type": "city",
      "level": null,
      "parent_id": null,
      "population": 1118,
      "latitude": "45.04824000",
      "longitude": "23.80835000",
      "timezone": "Europe/Bucharest",
      "wikiDataId": "Q12073913",
      "country_code": "RO",
      "state_code": "VL",
      "state_id": 4757,
      "country_id": 181
    },
    {
      "id": 94678,
      "name": "约内什蒂",
      "name_default": "Ioneşti",
      "native": "Ioneşti",
      "type": "adm2",
      "level": null,
      "parent_id": null,
      "population": 4379,
      "latitude": "44.85000000",
      "longitude": "24.23333000",
      "timezone": "Europe/Bucharest",
      "wikiDataId": "Q2297612",
      "country_code": "RO",
      "state_code": "VL",
      "state_id": 4757,
      "country_id": 181
    },
    {
      "id": 94729,
      "name": "吉布利亚·韦什",
      "name_default": "Jiblea Veche",
      "native": "Jiblea Veche",
      "type": "section",
      "level": null,
      "parent_id": null,
      "population": 1776,
      "latitude": "45.24360000",
      "longitude": "24.35163000",
      "timezone": "Europe/Bucharest",
      "wikiDataId": "Q15256295",
      "country_code": "RO",
      "state_code": "VL",
      "state_id": 4757,
      "country_id": 181
    },
    {
      "id": 94891,
      "name": "拉库斯特尼",
      "name_default": "Lăcusteni",
      "native": "Lăcusteni",
      "type": "adm2",
      "level": null,
      "parent_id": null,
      "population": 246,
      "latitude": "44.69544000",
      "longitude": "23.89984000",
      "timezone": "Europe/Bucharest",
      "wikiDataId": "Q2040535",
      "country_code": "RO",
      "state_code": "VL",
      "state_id": 4757,
      "country_id": 181
    },
    {
      "id": 94892,
      "name": "拉德什蒂",
      "name_default": "Lădeşti",
      "native": "Lădeşti",
      "type": "adm2",
      "level": null,
      "parent_id": null,
      "population": 2188,
      "latitude": "44.88333000",
      "longitude": "24.05000000",
      "timezone": "Europe/Bucharest",
      "wikiDataId": "Q12117482",
      "country_code": "RO",
      "state_code": "VL",
      "state_id": 4757,
      "country_id": 181
    },
    {
      "id": 94757,
      "name": "拉洛舒",
      "name_default": "Laloşu",
      "native": "Laloşu",
      "type": "adm2",
      "level": null,
      "parent_id": null,
      "population": 2164,
      "latitude": "44.55000000",
      "longitude": "24.01667000",
      "timezone": "Europe/Bucharest",
      "wikiDataId": "Q2008165",
      "country_code": "RO",
      "state_code": "VL",
      "state_id": 4757,
      "country_id": 181
    },
    {
      "id": 94817,
      "name": "利瓦迪亚",
      "name_default": "Livadia",
      "native": "Lividia",
      "type": "section",
      "level": null,
      "parent_id": null,
      "population": 1945,
      "latitude": "45.20546000",
      "longitude": "24.24192000",
      "timezone": "Europe/Bucharest",
      "wikiDataId": "Q12119544",
      "country_code": "RO",
      "state_code": "VL",
      "state_id": 4757,
      "country_id": 181
    },
    {
      "id": 94819,
      "name": "利维齐",
      "name_default": "Livezi",
      "native": "Livezi",
      "type": "adm2",
      "level": null,
      "parent_id": null,
      "population": 2586,
      "latitude": "44.84029000",
      "longitude": "23.82505000",
      "timezone": "Europe/Bucharest",
      "wikiDataId": "Q12119556",
      "country_code": "RO",
      "state_code": "VL",
      "state_id": 4757,
      "country_id": 181
    },
    {
      "id": 94881,
      "name": "伦格什蒂",
      "name_default": "Lungeşti",
      "native": "Lungeşti",
      "type": "adm2",
      "level": null,
      "parent_id": null,
      "population": 3149,
      "latitude": "44.56667000",
      "longitude": "24.18333000",
      "timezone": "Europe/Bucharest",
      "wikiDataId": "Q3915152",
      "country_code": "RO",
      "state_code": "VL",
      "state_id": 4757,
      "country_id": 181
    },
    {
      "id": 95231,
      "name": "默杜拉里",
      "name_default": "Mădulari",
      "native": "Mădulari",
      "type": "city",
      "level": null,
      "parent_id": null,
      "population": 1197,
      "latitude": "45.03333000",
      "longitude": "24.00000000",
      "timezone": "Europe/Bucharest",
      "wikiDataId": "Q12122250",
      "country_code": "RO",
      "state_code": "VL",
      "state_id": 4757,
      "country_id": 181
    },
    {
      "id": 94910,
      "name": "马拉亚",
      "name_default": "Malaia",
      "native": "La naiba",
      "type": "adm2",
      "level": null,
      "parent_id": null,
      "population": 1639,
      "latitude": "45.35000000",
      "longitude": "24.03333000",
      "timezone": "Europe/Bucharest",
      "wikiDataId": "Q12734752",
      "country_code": "RO",
      "state_code": "VL",
      "state_id": 4757,
      "country_id": 181
    },
    {
      "id": 95252,
      "name": "默尔德雷什蒂",
      "name_default": "Măldăreşti",
      "native": "Măldăreşti",
      "type": "adm2",
      "level": null,
      "parent_id": null,
      "population": 1715,
      "latitude": "45.11667000",
      "longitude": "24.00000000",
      "timezone": "Europe/Bucharest",
      "wikiDataId": "Q2347603",
      "country_code": "RO",
      "state_code": "VL",
      "state_id": 4757,
      "country_id": 181
    },
    {
      "id": 95260,
      "name": "默奈莱什蒂",
      "name_default": "Mănăilești",
      "native": "Mănăilești",
      "type": "city",
      "level": null,
      "parent_id": null,
      "population": 1015,
      "latitude": "45.02464000",
      "longitude": "24.12451000",
      "timezone": "Europe/Bucharest",
      "wikiDataId": "Q12122597",
      "country_code": "RO",
      "state_code": "VL",
      "state_id": 4757,
      "country_id": 181
    },
    {
      "id": 94935,
      "name": "马泰什蒂",
      "name_default": "Mateeşti",
      "native": "Mateeşti",
      "type": "adm2",
      "level": null,
      "parent_id": null,
      "population": 2898,
      "latitude": "45.06667000",
      "longitude": "23.85000000",
      "timezone": "Europe/Bucharest",
      "wikiDataId": "Q2721425",
      "country_code": "RO",
      "state_code": "VL",
      "state_id": 4757,
      "country_id": 181
    },
    {
      "id": 94987,
      "name": "米哈埃什蒂",
      "name_default": "Mihăeşti",
      "native": "Mihăeşti",
      "type": "adm2",
      "level": null,
      "parent_id": null,
      "population": 5726,
      "latitude": "45.03333000",
      "longitude": "24.25000000",
      "timezone": "Europe/Bucharest",
      "wikiDataId": "Q2245804",
      "country_code": "RO",
      "state_code": "VL",
      "state_id": 4757,
      "country_id": 181
    },
    {
      "id": 95001,
      "name": "米尔科尤",
      "name_default": "Milcoiu",
      "native": "Lăptos",
      "type": "adm2",
      "level": null,
      "parent_id": null,
      "population": 1083,
      "latitude": "45.05000000",
      "longitude": "24.46667000",
      "timezone": "Europe/Bucharest",
      "wikiDataId": "Q2721399",
      "country_code": "RO",
      "state_code": "VL",
      "state_id": 4757,
      "country_id": 181
    },
    {
      "id": 95033,
      "name": "米特罗法尼",
      "name_default": "Mitrofani",
      "native": "Mitrofani",
      "type": "adm2",
      "level": null,
      "parent_id": null,
      "population": 800,
      "latitude": "44.73268000",
      "longitude": "24.20910000",
      "timezone": "Europe/Bucharest",
      "wikiDataId": "Q2355316",
      "country_code": "RO",
      "state_code": "VL",
      "state_id": 4757,
      "country_id": 181
    },
    {
      "id": 95051,
      "name": "莫格什蒂",
      "name_default": "Mogești",
      "native": "Mogești",
      "type": "city",
      "level": null,
      "parent_id": null,
      "population": 985,
      "latitude": "45.11667000",
      "longitude": "23.91667000",
      "timezone": "Europe/Bucharest",
      "wikiDataId": "Q12124070",
      "country_code": "RO",
      "state_code": "VL",
      "state_id": 4757,
      "country_id": 181
    },
    {
      "id": 95098,
      "name": "穆埃雷斯卡",
      "name_default": "Muereasca",
      "native": "Muereasca",
      "type": "adm2",
      "level": null,
      "parent_id": null,
      "population": 8485,
      "latitude": "45.18333000",
      "longitude": "24.33333000",
      "timezone": "Europe/Bucharest",
      "wikiDataId": "Q2722750",
      "country_code": "RO",
      "state_code": "VL",
      "state_id": 4757,
      "country_id": 181
    },
    {
      "id": 95139,
      "name": "德拉甘沙尼市",
      "name_default": "Municipiul Drãgãşani",
      "native": "Municipiul Drãgãşani",
      "type": "city",
      "level": null,
      "parent_id": null,
      "population": null,
      "latitude": "44.64414000",
      "longitude": "24.24632000",
      "timezone": "Europe/Bucharest",
      "wikiDataId": "Q754726",
      "country_code": "RO",
      "state_code": "VL",
      "state_id": 4757,
      "country_id": 181
    },
    {
      "id": 95175,
      "name": "勒姆尼库沃尔恰市",
      "name_default": "Municipiul Râmnicu Vâlcea",
      "native": "Municipiul Râmnicu Vâlcea",
      "type": "adm1",
      "level": null,
      "parent_id": null,
      "population": null,
      "latitude": "45.09448000",
      "longitude": "24.35215000",
      "timezone": "Europe/Bucharest",
      "wikiDataId": "Q192758",
      "country_code": "RO",
      "state_code": "VL",
      "state_id": 4757,
      "country_id": 181
    },
    {
      "id": 95435,
      "name": "奥勒内什蒂",
      "name_default": "Olănești",
      "native": "Olănești",
      "type": "section",
      "level": null,
      "parent_id": null,
      "population": 1227,
      "latitude": "45.18209000",
      "longitude": "24.25990000",
      "timezone": "Europe/Bucharest",
      "wikiDataId": "Q1188214",
      "country_code": "RO",
      "state_code": "VL",
      "state_id": 4757,
      "country_id": 181
    },
    {
      "id": 95422,
      "name": "奥拉努",
      "name_default": "Olanu",
      "native": "Olan",
      "type": "adm2",
      "level": null,
      "parent_id": null,
      "population": 524,
      "latitude": "44.86667000",
      "longitude": "24.30000000",
      "timezone": "Europe/Bucharest",
      "wikiDataId": "Q431328",
      "country_code": "RO",
      "state_code": "VL",
      "state_id": 4757,
      "country_id": 181
    },
    {
      "id": 95480,
      "name": "奥拉斯·巴贝尼",
      "name_default": "Oraş Bãbeni",
      "native": "Oraş Bãbeni",
      "type": "city",
      "level": null,
      "parent_id": null,
      "population": null,
      "latitude": "44.97023000",
      "longitude": "24.22555000",
      "timezone": "Europe/Bucharest",
      "wikiDataId": "Q275890",
      "country_code": "RO",
      "state_code": "VL",
      "state_id": 4757,
      "country_id": 181
    },
    {
      "id": 95482,
      "name": "奥拉斯·伯伊莱·戈沃拉",
      "name_default": "Oraş Bãile Govora",
      "native": "Oraş Bãile Govora",
      "type": "adm2",
      "level": null,
      "parent_id": null,
      "population": 2620,
      "latitude": "45.08174000",
      "longitude": "24.18246000",
      "timezone": "Europe/Bucharest",
      "wikiDataId": "Q855719",
      "country_code": "RO",
      "state_code": "VL",
      "state_id": 4757,
      "country_id": 181
    },
    {
      "id": 95484,
      "name": "奥拉什·伯伊莱·奥莱内什蒂",
      "name_default": "Oraş Bãile Olãneşti",
      "native": "Oraş Bãile Olãneşti",
      "type": "city",
      "level": null,
      "parent_id": null,
      "population": null,
      "latitude": "45.20059000",
      "longitude": "24.23416000",
      "timezone": "Europe/Bucharest",
      "wikiDataId": "Q855721",
      "country_code": "RO",
      "state_code": "VL",
      "state_id": 4757,
      "country_id": 181
    },
    {
      "id": 95487,
      "name": "奥拉斯·巴切什蒂",
      "name_default": "Oraş Bãlceşti",
      "native": "Oraş Bãlceşti",
      "type": "city",
      "level": null,
      "parent_id": null,
      "population": null,
      "latitude": "44.62941000",
      "longitude": "23.94052000",
      "timezone": "Europe/Bucharest",
      "wikiDataId": "Q276127",
      "country_code": "RO",
      "state_code": "VL",
      "state_id": 4757,
      "country_id": 181
    },
    {
      "id": 95461,
      "name": "奥拉斯·贝尔贝什蒂",
      "name_default": "Oraş Berbeşti",
      "native": "Oraş Berbeşti",
      "type": "adm2",
      "level": null,
      "parent_id": null,
      "population": null,
      "latitude": "44.99915000",
      "longitude": "23.88013000",
      "timezone": "Europe/Bucharest",
      "wikiDataId": "Q276156",
      "country_code": "RO",
      "state_code": "VL",
      "state_id": 4757,
      "country_id": 181
    },
    {
      "id": 95471,
      "name": "奥拉斯·布雷佐伊",
      "name_default": "Oraş Brezoi",
      "native": "Oraş Brezoi",
      "type": "section",
      "level": null,
      "parent_id": null,
      "population": null,
      "latitude": "45.35088000",
      "longitude": "24.25681000",
      "timezone": "Europe/Bucharest",
      "wikiDataId": "Q526019",
      "country_code": "RO",
      "state_code": "VL",
      "state_id": 4757,
      "country_id": 181
    },
    {
      "id": 95505,
      "name": "奥拉斯·卡利芒内什蒂",
      "name_default": "Oraş Cãlimãneşti",
      "native": "Oraş Cãlimãneşti",
      "type": "city",
      "level": null,
      "parent_id": null,
      "population": null,
      "latitude": "45.24252000",
      "longitude": "24.34375000",
      "timezone": "Europe/Bucharest",
      "wikiDataId": "Q375371",
      "country_code": "RO",
      "state_code": "VL",
      "state_id": 4757,
      "country_id": 181
    },
    {
      "id": 95529,
      "name": "奥拉斯·霍雷祖",
      "name_default": "Oraş Horezu",
      "native": "Oraş Horezu",
      "type": "adm2",
      "level": null,
      "parent_id": null,
      "population": null,
      "latitude": "45.16962000",
      "longitude": "23.98448000",
      "timezone": "Europe/Bucharest",
      "wikiDataId": "Q899461",
      "country_code": "RO",
      "state_code": "VL",
      "state_id": 4757,
      "country_id": 181
    },
    {
      "id": 95558,
      "name": "奥拉斯·奥克内莱·马里",
      "name_default": "Oraş Ocnele Mari",
      "native": "Oraş Ocnele Mari",
      "type": "city",
      "level": null,
      "parent_id": null,
      "population": 614,
      "latitude": "45.08904000",
      "longitude": "24.28162000",
      "timezone": "Europe/Bucharest",
      "wikiDataId": "Q585548",
      "country_code": "RO",
      "state_code": "VL",
      "state_id": 4757,
      "country_id": 181
    },
    {
      "id": 95661,
      "name": "奥尔莱什蒂",
      "name_default": "Orleşti",
      "native": "Orientat",
      "type": "adm2",
      "level": null,
      "parent_id": null,
      "population": 3372,
      "latitude": "44.80000000",
      "longitude": "24.21667000",
      "timezone": "Europe/Bucharest",
      "wikiDataId": "Q12136362",
      "country_code": "RO",
      "state_code": "VL",
      "state_id": 4757,
      "country_id": 181
    },
    {
      "id": 95683,
      "name": "奥特沙尼",
      "name_default": "Oteşani",
      "native": "Oteseșani",
      "type": "adm2",
      "level": null,
      "parent_id": null,
      "population": 3001,
      "latitude": "45.06667000",
      "longitude": "24.03333000",
      "timezone": "Europe/Bucharest",
      "wikiDataId": "Q1857158",
      "country_code": "RO",
      "state_code": "VL",
      "state_id": 4757,
      "country_id": 181
    },
    {
      "id": 95682,
      "name": "奥特特利苏",
      "name_default": "Otetelișu",
      "native": "Otetelișu",
      "type": "city",
      "level": null,
      "parent_id": null,
      "population": 1197,
      "latitude": "44.63839000",
      "longitude": "23.95917000",
      "timezone": "Europe/Bucharest",
      "wikiDataId": "Q12136907",
      "country_code": "RO",
      "state_code": "VL",
      "state_id": 4757,
      "country_id": 181
    },
    {
      "id": 95685,
      "name": "奥韦塞卢",
      "name_default": "Oveselu",
      "native": "Acest",
      "type": "city",
      "level": null,
      "parent_id": null,
      "population": 2193,
      "latitude": "44.75000000",
      "longitude": "24.01667000",
      "timezone": "Europe/Bucharest",
      "wikiDataId": "Q12135076",
      "country_code": "RO",
      "state_code": "VL",
      "state_id": 4757,
      "country_id": 181
    },
    {
      "id": 96034,
      "name": "保乌谢什蒂",
      "name_default": "Păuşeşti",
      "native": "Păuşeşti",
      "type": "adm2",
      "level": null,
      "parent_id": null,
      "population": 0,
      "latitude": "45.07358000",
      "longitude": "24.13473000",
      "timezone": "Europe/Bucharest",
      "wikiDataId": "Q2298088",
      "country_code": "RO",
      "state_code": "VL",
      "state_id": 4757,
      "country_id": 181
    },
    {
      "id": 96035,
      "name": "Păuşeşti-Măglaşi",
      "name_default": "Păuşeşti-Măglaşi",
      "native": "Păuşeşti-Măglaşi",
      "type": "adm2",
      "level": null,
      "parent_id": null,
      "population": 3929,
      "latitude": "45.13333000",
      "longitude": "24.25000000",
      "timezone": "Europe/Bucharest",
      "wikiDataId": "Q3915603",
      "country_code": "RO",
      "state_code": "VL",
      "state_id": 4757,
      "country_id": 181
    },
    {
      "id": 95736,
      "name": "佩里沙尼",
      "name_default": "Perişani",
      "native": "Mizerabil",
      "type": "adm2",
      "level": null,
      "parent_id": null,
      "population": 3781,
      "latitude": "45.38333000",
      "longitude": "24.40000000",
      "timezone": "Europe/Bucharest",
      "wikiDataId": "Q12140051",
      "country_code": "RO",
      "state_code": "VL",
      "state_id": 4757,
      "country_id": 181
    },
    {
      "id": 95744,
      "name": "佩斯恰纳",
      "name_default": "Pesceana",
      "native": "Fisana",
      "type": "section",
      "level": null,
      "parent_id": null,
      "population": 2532,
      "latitude": "44.88333000",
      "longitude": "24.15000000",
      "timezone": "Europe/Bucharest",
      "wikiDataId": "Q523672",
      "country_code": "RO",
      "state_code": "VL",
      "state_id": 4757,
      "country_id": 181
    },
    {
      "id": 95777,
      "name": "皮埃特拉里",
      "name_default": "Pietrari",
      "native": "Pietrari",
      "type": "adm2",
      "level": null,
      "parent_id": null,
      "population": 2647,
      "latitude": "45.10000000",
      "longitude": "24.13333000",
      "timezone": "Europe/Bucharest",
      "wikiDataId": "Q2029422",
      "country_code": "RO",
      "state_code": "VL",
      "state_id": 4757,
      "country_id": 181
    },
    {
      "id": 95778,
      "name": "猪皮埃特拉里",
      "name_default": "Pietrarii de Sus",
      "native": "Porcul lui Pierarii",
      "type": "city",
      "level": null,
      "parent_id": null,
      "population": 1599,
      "latitude": "45.11697000",
      "longitude": "24.09336000",
      "timezone": "Europe/Bucharest",
      "wikiDataId": "Q12137202",
      "country_code": "RO",
      "state_code": "VL",
      "state_id": 4757,
      "country_id": 181
    },
    {
      "id": 95910,
      "name": "波佩什蒂",
      "name_default": "Popeşti",
      "native": "Popeşti",
      "type": "city",
      "level": null,
      "parent_id": null,
      "population": 166,
      "latitude": "44.98333000",
      "longitude": "24.10000000",
      "timezone": "Europe/Bucharest",
      "wikiDataId": "Q2298513",
      "country_code": "RO",
      "state_code": "VL",
      "state_id": 4757,
      "country_id": 181
    },
    {
      "id": 95939,
      "name": "普拉吉拉",
      "name_default": "Prajila",
      "native": "Prajila",
      "type": "city",
      "level": null,
      "parent_id": null,
      "population": 2570,
      "latitude": "45.08270000",
      "longitude": "24.16949000",
      "timezone": "Europe/Bucharest",
      "wikiDataId": "Q1077203",
      "country_code": "RO",
      "state_code": "VL",
      "state_id": 4757,
      "country_id": 181
    },
    {
      "id": 95964,
      "name": "普伦德尼",
      "name_default": "Prundeni",
      "native": "Prundeni",
      "type": "adm2",
      "level": null,
      "parent_id": null,
      "population": 4596,
      "latitude": "44.73333000",
      "longitude": "24.26667000",
      "timezone": "Europe/Bucharest",
      "wikiDataId": "Q2721534",
      "country_code": "RO",
      "state_code": "VL",
      "state_id": 4757,
      "country_id": 181
    },
    {
      "id": 96042,
      "name": "拉科维察",
      "name_default": "Racoviţa",
      "native": "Racoviţa",
      "type": "adm2",
      "level": null,
      "parent_id": null,
      "population": 1824,
      "latitude": "45.41667000",
      "longitude": "24.31667000",
      "timezone": "Europe/Bucharest",
      "wikiDataId": "Q2332005",
      "country_code": "RO",
      "state_code": "VL",
      "state_id": 4757,
      "country_id": 181
    },
    {
      "id": 96166,
      "name": "拉梅什蒂",
      "name_default": "Râmești",
      "native": "Râmești",
      "type": "city",
      "level": null,
      "parent_id": null,
      "population": 1044,
      "latitude": "44.56667000",
      "longitude": "24.10000000",
      "timezone": "Europe/Bucharest",
      "wikiDataId": "Q12147969",
      "country_code": "RO",
      "state_code": "VL",
      "state_id": 4757,
      "country_id": 181
    },
    {
      "id": 96171,
      "name": "勒姆尼库沃尔恰",
      "name_default": "Râmnicu Vâlcea",
      "native": "Râmnicu Vâlcea",
      "type": "adm1",
      "level": null,
      "parent_id": null,
      "population": 93151,
      "latitude": "45.10000000",
      "longitude": "24.36667000",
      "timezone": "Europe/Bucharest",
      "wikiDataId": "Q12147974",
      "country_code": "RO",
      "state_code": "VL",
      "state_id": 4757,
      "country_id": 181
    },
    {
      "id": 96100,
      "name": "罗什蒂",
      "name_default": "Roeşti",
      "native": "Roeşti",
      "type": "adm2",
      "level": null,
      "parent_id": null,
      "population": 1942,
      "latitude": "44.91667000",
      "longitude": "24.08333000",
      "timezone": "Europe/Bucharest",
      "wikiDataId": "Q2298496",
      "country_code": "RO",
      "state_code": "VL",
      "state_id": 4757,
      "country_id": 181
    },
    {
      "id": 96114,
      "name": "罗姆人",
      "name_default": "Români",
      "native": "Români",
      "type": "city",
      "level": null,
      "parent_id": null,
      "population": 1280,
      "latitude": "44.97310000",
      "longitude": "24.20513000",
      "timezone": "Europe/Bucharest",
      "wikiDataId": "Q2534357",
      "country_code": "RO",
      "state_code": "VL",
      "state_id": 4757,
      "country_id": 181
    },
    {
      "id": 96131,
      "name": "罗西莱",
      "name_default": "Roşiile",
      "native": "Roşiile",
      "type": "adm2",
      "level": null,
      "parent_id": null,
      "population": 2985,
      "latitude": "44.86667000",
      "longitude": "23.93333000",
      "timezone": "Europe/Bucharest",
      "wikiDataId": "Q2104955",
      "country_code": "RO",
      "state_code": "VL",
      "state_id": 4757,
      "country_id": 181
    },
    {
      "id": 96152,
      "name": "伦库",
      "name_default": "Runcu",
      "native": "Runcu",
      "type": "adm2",
      "level": null,
      "parent_id": null,
      "population": 1138,
      "latitude": "45.16667000",
      "longitude": "24.45000000",
      "timezone": "Europe/Bucharest",
      "wikiDataId": "Q2691175",
      "country_code": "RO",
      "state_code": "VL",
      "state_id": 4757,
      "country_id": 181
    },
    {
      "id": 106022,
      "name": "萨拉特鲁塞尔",
      "name_default": "Sălătrucel",
      "native": "Sălătrucel",
      "type": "adm2",
      "level": null,
      "parent_id": null,
      "population": 1932,
      "latitude": "45.25000000",
      "longitude": "24.38333000",
      "timezone": "Europe/Bucharest",
      "wikiDataId": "Q12151788",
      "country_code": "RO",
      "state_code": "VL",
      "state_id": 4757,
      "country_id": 181
    },
    {
      "id": 96286,
      "name": "斯昆杜",
      "name_default": "Scundu",
      "native": "Înșurubat",
      "type": "adm2",
      "level": null,
      "parent_id": null,
      "population": 2203,
      "latitude": "44.83333000",
      "longitude": "24.20000000",
      "timezone": "Europe/Bucharest",
      "wikiDataId": "Q2602827",
      "country_code": "RO",
      "state_code": "VL",
      "state_id": 4757,
      "country_id": 181
    },
    {
      "id": 96351,
      "name": "西内什蒂",
      "name_default": "Sineşti",
      "native": "Sineşti",
      "type": "adm2",
      "level": null,
      "parent_id": null,
      "population": 2636,
      "latitude": "44.95000000",
      "longitude": "23.85000000",
      "timezone": "Europe/Bucharest",
      "wikiDataId": "Q2219463",
      "country_code": "RO",
      "state_code": "VL",
      "state_id": 4757,
      "country_id": 181
    },
    {
      "id": 97059,
      "name": "希里内亚萨",
      "name_default": "Şirineasa",
      "native": "Sirineasa",
      "type": "adm2",
      "level": null,
      "parent_id": null,
      "population": 2099,
      "latitude": "44.93333000",
      "longitude": "24.20000000",
      "timezone": "Europe/Bucharest",
      "wikiDataId": "Q2722167",
      "country_code": "RO",
      "state_code": "VL",
      "state_id": 4757,
      "country_id": 181
    },
    {
      "id": 96479,
      "name": "斯塔内什蒂",
      "name_default": "Stănești",
      "native": "Stănești",
      "type": "adm2",
      "level": null,
      "parent_id": null,
      "population": 161,
      "latitude": "44.81667000",
      "longitude": "24.05000000",
      "timezone": "Europe/Bucharest",
      "wikiDataId": "Q2298467",
      "country_code": "RO",
      "state_code": "VL",
      "state_id": 4757,
      "country_id": 181
    },
    {
      "id": 97085,
      "name": "Ştefăneşti",
      "name_default": "Ştefăneşti",
      "native": "Ştefăneşti",
      "type": "adm2",
      "level": null,
      "parent_id": null,
      "population": 3663,
      "latitude": "44.61667000",
      "longitude": "24.25000000",
      "timezone": "Europe/Bucharest",
      "wikiDataId": "Q2298923",
      "country_code": "RO",
      "state_code": "VL",
      "state_id": 4757,
      "country_id": 181
    },
    {
      "id": 96434,
      "name": "斯托内什蒂",
      "name_default": "Stoeneşti",
      "native": "Stoeneşti",
      "type": "adm2",
      "level": null,
      "parent_id": null,
      "population": 3863,
      "latitude": "45.11667000",
      "longitude": "24.16667000",
      "timezone": "Europe/Bucharest",
      "wikiDataId": "Q2298902",
      "country_code": "RO",
      "state_code": "VL",
      "state_id": 4757,
      "country_id": 181
    },
    {
      "id": 96439,
      "name": "斯托伊莱什蒂",
      "name_default": "Stoileşti",
      "native": "Sitelsti",
      "type": "adm2",
      "level": null,
      "parent_id": null,
      "population": 4316,
      "latitude": "44.90000000",
      "longitude": "24.38333000",
      "timezone": "Europe/Bucharest",
      "wikiDataId": "Q2280881",
      "country_code": "RO",
      "state_code": "VL",
      "state_id": 4757,
      "country_id": 181
    },
    {
      "id": 96441,
      "name": "斯托尔尼切尼",
      "name_default": "Stolniceni",
      "native": "Catedrală",
      "type": "city",
      "level": null,
      "parent_id": null,
      "population": 1656,
      "latitude": "45.03948000",
      "longitude": "24.30640000",
      "timezone": "Europe/Bucharest",
      "wikiDataId": "Q2717755",
      "country_code": "RO",
      "state_code": "VL",
      "state_id": 4757,
      "country_id": 181
    },
    {
      "id": 96454,
      "name": "斯特罗什蒂",
      "name_default": "Stroeşti",
      "native": "Stroeşti",
      "type": "adm2",
      "level": null,
      "parent_id": null,
      "population": 3076,
      "latitude": "45.08333000",
      "longitude": "23.90000000",
      "timezone": "Europe/Bucharest",
      "wikiDataId": "Q3915150",
      "country_code": "RO",
      "state_code": "VL",
      "state_id": 4757,
      "country_id": 181
    },
    {
      "id": 97096,
      "name": "苏沙尼",
      "name_default": "Şuşani",
      "native": "Şuşani",
      "type": "adm2",
      "level": null,
      "parent_id": null,
      "population": 3875,
      "latitude": "44.58333000",
      "longitude": "24.10000000",
      "timezone": "Europe/Bucharest",
      "wikiDataId": "Q2548749",
      "country_code": "RO",
      "state_code": "VL",
      "state_id": 4757,
      "country_id": 181
    },
    {
      "id": 96514,
      "name": "苏特什蒂",
      "name_default": "Sutești",
      "native": "Sutești",
      "type": "adm2",
      "level": null,
      "parent_id": null,
      "population": 837,
      "latitude": "44.66851000",
      "longitude": "24.21476000",
      "timezone": "Europe/Bucharest",
      "wikiDataId": "Q2298126",
      "country_code": "RO",
      "state_code": "VL",
      "state_id": 4757,
      "country_id": 181
    },
    {
      "id": 106089,
      "name": "泰托尤",
      "name_default": "Tetoiu",
      "native": "Tetouu",
      "type": "adm2",
      "level": null,
      "parent_id": null,
      "population": 2995,
      "latitude": "44.75000000",
      "longitude": "23.91667000",
      "timezone": "Europe/Bucharest",
      "wikiDataId": "Q2285348",
      "country_code": "RO",
      "state_code": "VL",
      "state_id": 4757,
      "country_id": 181
    },
    {
      "id": 106109,
      "name": "蒂特什蒂",
      "name_default": "Titești",
      "native": "Titești",
      "type": "adm2",
      "level": null,
      "parent_id": null,
      "population": 646,
      "latitude": "45.41865810",
      "longitude": "24.39005710",
      "timezone": "Europe/Bucharest",
      "wikiDataId": "Q12163256",
      "country_code": "RO",
      "state_code": "VL",
      "state_id": 4757,
      "country_id": 181
    },
    {
      "id": 106125,
      "name": "汤姆沙尼",
      "name_default": "Tomşani",
      "native": "Tomşani",
      "type": "adm2",
      "level": null,
      "parent_id": null,
      "population": 4123,
      "latitude": "45.11667000",
      "longitude": "24.05000000",
      "timezone": "Europe/Bucharest",
      "wikiDataId": "Q1909026",
      "country_code": "RO",
      "state_code": "VL",
      "state_id": 4757,
      "country_id": 181
    },
    {
      "id": 96554,
      "name": "图尔切什蒂",
      "name_default": "Turcești",
      "native": "Turcești",
      "type": "city",
      "level": null,
      "parent_id": null,
      "population": 1133,
      "latitude": "45.04023000",
      "longitude": "23.86574000",
      "timezone": "Europe/Bucharest",
      "wikiDataId": "Q2606841",
      "country_code": "RO",
      "state_code": "VL",
      "state_id": 4757,
      "country_id": 181
    },
    {
      "id": 96690,
      "name": "乌尔希",
      "name_default": "Urși",
      "native": "Urși",
      "type": "city",
      "level": null,
      "parent_id": null,
      "population": 1085,
      "latitude": "44.99404000",
      "longitude": "24.08895000",
      "timezone": "Europe/Bucharest",
      "wikiDataId": "Q12164838",
      "country_code": "RO",
      "state_code": "VL",
      "state_id": 4757,
      "country_id": 181
    },
    {
      "id": 96705,
      "name": "瓦伊迪尼",
      "name_default": "Vaideeni",
      "native": "Vaideeni",
      "type": "adm2",
      "level": null,
      "parent_id": null,
      "population": 3634,
      "latitude": "45.16667000",
      "longitude": "23.93333000",
      "timezone": "Europe/Bucharest",
      "wikiDataId": "Q1833002",
      "country_code": "RO",
      "state_code": "VL",
      "state_id": 4757,
      "country_id": 181
    },
    {
      "id": 96736,
      "name": "瓦莱亚马雷",
      "name_default": "Valea Mare",
      "native": "Valea Mare",
      "type": "adm2",
      "level": null,
      "parent_id": null,
      "population": 3165,
      "latitude": "44.66667000",
      "longitude": "24.00000000",
      "timezone": "Europe/Bucharest",
      "wikiDataId": "Q2192326",
      "country_code": "RO",
      "state_code": "VL",
      "state_id": 4757,
      "country_id": 181
    },
    {
      "id": 96866,
      "name": "弗勒德什蒂",
      "name_default": "Vlădeşti",
      "native": "Vlădeşti",
      "type": "adm2",
      "level": null,
      "parent_id": null,
      "population": 2978,
      "latitude": "45.11667000",
      "longitude": "24.30000000",
      "timezone": "Europe/Bucharest",
      "wikiDataId": "Q1820060",
      "country_code": "RO",
      "state_code": "VL",
      "state_id": 4757,
      "country_id": 181
    },
    {
      "id": 96874,
      "name": "声音",
      "name_default": "Voiceşti",
      "native": "Voiceşti",
      "type": "adm2",
      "level": null,
      "parent_id": null,
      "population": 1416,
      "latitude": "44.60000000",
      "longitude": "24.28333000",
      "timezone": "Europe/Bucharest",
      "wikiDataId": "Q3915485",
      "country_code": "RO",
      "state_code": "VL",
      "state_id": 4757,
      "country_id": 181
    },
    {
      "id": 96877,
      "name": "沃伊内亚萨",
      "name_default": "Voineasa",
      "native": "Voineasa",
      "type": "adm2",
      "level": null,
      "parent_id": null,
      "population": 1695,
      "latitude": "45.41667000",
      "longitude": "23.95000000",
      "timezone": "Europe/Bucharest",
      "wikiDataId": "Q2548640",
      "country_code": "RO",
      "state_code": "VL",
      "state_id": 4757,
      "country_id": 181
    },
    {
      "id": 97018,
      "name": "扎特雷尼",
      "name_default": "Zătreni",
      "native": "Zătreni",
      "type": "adm2",
      "level": null,
      "parent_id": null,
      "population": 4524,
      "latitude": "44.76667000",
      "longitude": "23.85000000",
      "timezone": "Europe/Bucharest",
      "wikiDataId": "Q2721673",
      "country_code": "RO",
      "state_code": "VL",
      "state_id": 4757,
      "country_id": 181
    },
    {
      "id": 97000,
      "name": "兹勒塔雷伊",
      "name_default": "Zlătărei",
      "native": "Zlătărei",
      "type": "city",
      "level": null,
      "parent_id": null,
      "population": 1387,
      "latitude": "44.63057000",
      "longitude": "24.25788000",
      "timezone": "Europe/Bucharest",
      "wikiDataId": "Q12106746",
      "country_code": "RO",
      "state_code": "VL",
      "state_id": 4757,
      "country_id": 181
    }
  ]
}
