{
  "locale": "br",
  "country": {
    "id": 31,
    "code": "BR",
    "iso3": "BRA",
    "numeric_code": "076",
    "name": "Brazil",
    "name_default": "Brazil",
    "native": "Brasil",
    "capital": "Brasilia",
    "phonecode": "55",
    "currency": "BRL",
    "currency_name": "Brazilian real",
    "currency_symbol": "R$",
    "tld": ".br",
    "population": 213421037,
    "gdp": 2125958,
    "region": "Americas",
    "region_id": 2,
    "subregion": "South America",
    "subregion_id": 8,
    "nationality": "Brazilian",
    "timezones": [
      {
        "zoneName": "America/Araguaina",
        "gmtOffset": -10800,
        "gmtOffsetName": "UTC-03:00",
        "abbreviation": "BRT",
        "tzName": "Brasília Time"
      },
      {
        "zoneName": "America/Bahia",
        "gmtOffset": -10800,
        "gmtOffsetName": "UTC-03:00",
        "abbreviation": "BRT",
        "tzName": "Brasília Time"
      },
      {
        "zoneName": "America/Belem",
        "gmtOffset": -10800,
        "gmtOffsetName": "UTC-03:00",
        "abbreviation": "BRT",
        "tzName": "Brasília Time"
      },
      {
        "zoneName": "America/Boa_Vista",
        "gmtOffset": -14400,
        "gmtOffsetName": "UTC-04:00",
        "abbreviation": "AMT",
        "tzName": "Amazon Time (Brazil)[3"
      },
      {
        "zoneName": "America/Campo_Grande",
        "gmtOffset": -14400,
        "gmtOffsetName": "UTC-04:00",
        "abbreviation": "AMT",
        "tzName": "Amazon Time (Brazil)[3"
      },
      {
        "zoneName": "America/Cuiaba",
        "gmtOffset": -14400,
        "gmtOffsetName": "UTC-04:00",
        "abbreviation": "BRT",
        "tzName": "Brasilia Time"
      },
      {
        "zoneName": "America/Eirunepe",
        "gmtOffset": -18000,
        "gmtOffsetName": "UTC-05:00",
        "abbreviation": "ACT",
        "tzName": "Acre Time"
      },
      {
        "zoneName": "America/Fortaleza",
        "gmtOffset": -10800,
        "gmtOffsetName": "UTC-03:00",
        "abbreviation": "BRT",
        "tzName": "Brasília Time"
      },
      {
        "zoneName": "America/Maceio",
        "gmtOffset": -10800,
        "gmtOffsetName": "UTC-03:00",
        "abbreviation": "BRT",
        "tzName": "Brasília Time"
      },
      {
        "zoneName": "America/Manaus",
        "gmtOffset": -14400,
        "gmtOffsetName": "UTC-04:00",
        "abbreviation": "AMT",
        "tzName": "Amazon Time (Brazil)"
      },
      {
        "zoneName": "America/Noronha",
        "gmtOffset": -7200,
        "gmtOffsetName": "UTC-02:00",
        "abbreviation": "FNT",
        "tzName": "Fernando de Noronha Time"
      },
      {
        "zoneName": "America/Porto_Velho",
        "gmtOffset": -14400,
        "gmtOffsetName": "UTC-04:00",
        "abbreviation": "AMT",
        "tzName": "Amazon Time (Brazil)[3"
      },
      {
        "zoneName": "America/Recife",
        "gmtOffset": -10800,
        "gmtOffsetName": "UTC-03:00",
        "abbreviation": "BRT",
        "tzName": "Brasília Time"
      },
      {
        "zoneName": "America/Rio_Branco",
        "gmtOffset": -18000,
        "gmtOffsetName": "UTC-05:00",
        "abbreviation": "ACT",
        "tzName": "Acre Time"
      },
      {
        "zoneName": "America/Santarem",
        "gmtOffset": -10800,
        "gmtOffsetName": "UTC-03:00",
        "abbreviation": "BRT",
        "tzName": "Brasília Time"
      },
      {
        "zoneName": "America/Sao_Paulo",
        "gmtOffset": -10800,
        "gmtOffsetName": "UTC-03:00",
        "abbreviation": "BRT",
        "tzName": "Brasília Time"
      }
    ],
    "latitude": "-10.00000000",
    "longitude": "-55.00000000",
    "emoji": "🇧🇷",
    "emojiU": "U+1F1E7 U+1F1F7"
  },
  "state": {
    "id": 2008,
    "code": "PI",
    "iso2": "PI",
    "iso3166_2": "BR-PI",
    "fips_code": "20",
    "name": "Piauí",
    "name_default": "Piauí",
    "native": "Piauí",
    "type": "state",
    "level": "1",
    "parent_id": null,
    "population": 3271199,
    "latitude": "-7.69927820",
    "longitude": "-42.50437870",
    "timezone": "America/Fortaleza",
    "wikiDataId": "Q42722",
    "country_code": "BR"
  },
  "cities": [
    {
      "id": 10074,
      "name": "Acauã",
      "name_default": "Acauã",
      "native": "Acauã",
      "type": "city",
      "level": null,
      "parent_id": null,
      "population": 6323,
      "latitude": "-8.31552000",
      "longitude": "-40.91283000",
      "timezone": "America/Sao_Paulo",
      "wikiDataId": "Q1804839",
      "country_code": "BR",
      "state_code": "PI",
      "state_id": 2008,
      "country_id": 31
    },
    {
      "id": 10092,
      "name": "Labour-douar",
      "name_default": "Agricolândia",
      "native": "Agricolândia",
      "type": "adm2",
      "level": null,
      "parent_id": null,
      "population": 5016,
      "latitude": "-5.74819000",
      "longitude": "-42.67458000",
      "timezone": "America/Fortaleza",
      "wikiDataId": "Q1787629",
      "country_code": "BR",
      "state_code": "PI",
      "state_id": 2008,
      "country_id": 31
    },
    {
      "id": 15651,
      "name": "Água Branca",
      "name_default": "Água Branca",
      "native": "Água Branca",
      "type": "city",
      "level": null,
      "parent_id": null,
      "population": 19550,
      "latitude": "-5.89222000",
      "longitude": "-42.63611000",
      "timezone": "America/Fortaleza",
      "wikiDataId": "Q578114",
      "country_code": "BR",
      "state_code": "PI",
      "state_id": 2008,
      "country_id": 31
    },
    {
      "id": 10112,
      "name": "Alagoinha do Piauí",
      "name_default": "Alagoinha do Piauí",
      "native": "Alagoinha do Piauí",
      "type": "adm2",
      "level": null,
      "parent_id": null,
      "population": 6876,
      "latitude": "-6.98016000",
      "longitude": "-40.91814000",
      "timezone": "America/Sao_Paulo",
      "wikiDataId": "Q938278",
      "country_code": "BR",
      "state_code": "PI",
      "state_id": 2008,
      "country_id": 31
    },
    {
      "id": 10125,
      "name": "Alegret do Piauí",
      "name_default": "Alegrete do Piauí",
      "native": "Alegrete do Piauí",
      "type": "adm2",
      "level": null,
      "parent_id": null,
      "population": 4707,
      "latitude": "-7.16226000",
      "longitude": "-40.82488000",
      "timezone": "America/Sao_Paulo",
      "wikiDataId": "Q851276",
      "country_code": "BR",
      "state_code": "PI",
      "state_id": 2008,
      "country_id": 31
    },
    {
      "id": 10173,
      "name": "Alto Longá",
      "name_default": "Alto Longá",
      "native": "Alto Longá",
      "type": "city",
      "level": null,
      "parent_id": null,
      "population": 13729,
      "latitude": "-5.40788000",
      "longitude": "-42.06612000",
      "timezone": "America/Sao_Paulo",
      "wikiDataId": "Q636564",
      "country_code": "BR",
      "state_code": "PI",
      "state_id": 2008,
      "country_id": 31
    },
    {
      "id": 10186,
      "name": "Altos",
      "name_default": "Altos",
      "native": "Altos",
      "type": "city",
      "level": null,
      "parent_id": null,
      "population": 47453,
      "latitude": "-5.03806000",
      "longitude": "-42.46000000",
      "timezone": "America/Fortaleza",
      "wikiDataId": "Q22060469",
      "country_code": "BR",
      "state_code": "PI",
      "state_id": 2008,
      "country_id": 31
    },
    {
      "id": 10198,
      "name": "Alvorada e Gurguéia",
      "name_default": "Alvorada do Gurguéia",
      "native": "Alvorada do Gurguéia",
      "type": "adm2",
      "level": null,
      "parent_id": null,
      "population": 5474,
      "latitude": "-8.38553000",
      "longitude": "-43.83237000",
      "timezone": "America/Sao_Paulo",
      "wikiDataId": "Q449593",
      "country_code": "BR",
      "state_code": "PI",
      "state_id": 2008,
      "country_id": 31
    },
    {
      "id": 10209,
      "name": "Amarante",
      "name_default": "Amarante",
      "native": "Amarante",
      "type": "adm2",
      "level": null,
      "parent_id": null,
      "population": 17234,
      "latitude": "-6.37020000",
      "longitude": "-42.78806000",
      "timezone": "America/Sao_Paulo",
      "wikiDataId": "Q22059801",
      "country_code": "BR",
      "state_code": "PI",
      "state_id": 2008,
      "country_id": 31
    },
    {
      "id": 10254,
      "name": "Angical do Piauí",
      "name_default": "Angical do Piauí",
      "native": "Angical do Piauí",
      "type": "city",
      "level": null,
      "parent_id": null,
      "population": 6991,
      "latitude": "-6.09884000",
      "longitude": "-42.72022000",
      "timezone": "America/Sao_Paulo",
      "wikiDataId": "Q1756210",
      "country_code": "BR",
      "state_code": "PI",
      "state_id": 2008,
      "country_id": 31
    },
    {
      "id": 10283,
      "name": "Anísio de Abreu",
      "name_default": "Anísio de Abreu",
      "native": "Anísio de Abreu",
      "type": "adm2",
      "level": null,
      "parent_id": null,
      "population": 9649,
      "latitude": "-9.24779000",
      "longitude": "-43.05238000",
      "timezone": "America/Fortaleza",
      "wikiDataId": "Q223422",
      "country_code": "BR",
      "state_code": "PI",
      "state_id": 2008,
      "country_id": 31
    },
    {
      "id": 10271,
      "name": "Antônio Almeida",
      "name_default": "Antônio Almeida",
      "native": "Antônio Almeida",
      "type": "city",
      "level": null,
      "parent_id": null,
      "population": 3234,
      "latitude": "-7.12211000",
      "longitude": "-44.25307000",
      "timezone": "America/Sao_Paulo",
      "wikiDataId": "Q599068",
      "country_code": "BR",
      "state_code": "PI",
      "state_id": 2008,
      "country_id": 31
    },
    {
      "id": 10404,
      "name": "Aroazes",
      "name_default": "Aroazes",
      "native": "Aroazes",
      "type": "city",
      "level": null,
      "parent_id": null,
      "population": 5413,
      "latitude": "-6.20348000",
      "longitude": "-41.86926000",
      "timezone": "America/Sao_Paulo",
      "wikiDataId": "Q680119",
      "country_code": "BR",
      "state_code": "PI",
      "state_id": 2008,
      "country_id": 31
    },
    {
      "id": 10406,
      "name": "Aroeiras do Itaim",
      "name_default": "Aroeiras do Itaim",
      "native": "Aroeiras do Itaim",
      "type": "adm2",
      "level": null,
      "parent_id": null,
      "population": 2777,
      "latitude": "-7.27000000",
      "longitude": "-41.56000000",
      "timezone": "America/Fortaleza",
      "wikiDataId": "Q2095297",
      "country_code": "BR",
      "state_code": "PI",
      "state_id": 2008,
      "country_id": 31
    },
    {
      "id": 10407,
      "name": "Arraial",
      "name_default": "Arraial",
      "native": "Arraial",
      "type": "city",
      "level": null,
      "parent_id": null,
      "population": 4517,
      "latitude": "-6.62721000",
      "longitude": "-42.49393000",
      "timezone": "America/Sao_Paulo",
      "wikiDataId": "Q2095297",
      "country_code": "BR",
      "state_code": "PI",
      "state_id": 2008,
      "country_id": 31
    },
    {
      "id": 10431,
      "name": "Assunção do Piauí",
      "name_default": "Assunção do Piauí",
      "native": "Assunção do Piauí",
      "type": "adm2",
      "level": null,
      "parent_id": null,
      "population": 7596,
      "latitude": "-5.85575000",
      "longitude": "-40.94796000",
      "timezone": "America/Sao_Paulo",
      "wikiDataId": "Q742227",
      "country_code": "BR",
      "state_code": "PI",
      "state_id": 2008,
      "country_id": 31
    },
    {
      "id": 10459,
      "name": "Avelino Lopes",
      "name_default": "Avelino Lopes",
      "native": "Avelino Lopes",
      "type": "city",
      "level": null,
      "parent_id": null,
      "population": 11118,
      "latitude": "-10.11463000",
      "longitude": "-43.89286000",
      "timezone": "America/Sao_Paulo",
      "wikiDataId": "Q782812",
      "country_code": "BR",
      "state_code": "PI",
      "state_id": 2008,
      "country_id": 31
    },
    {
      "id": 10477,
      "name": "Baixa Veur ar Ribeiro",
      "name_default": "Baixa Grande do Ribeiro",
      "native": "Baixa Grande do Ribeiro",
      "type": "city",
      "level": null,
      "parent_id": null,
      "population": 13983,
      "latitude": "-8.69171000",
      "longitude": "-45.12583000",
      "timezone": "America/Sao_Paulo",
      "wikiDataId": "Q1762467",
      "country_code": "BR",
      "state_code": "PI",
      "state_id": 2008,
      "country_id": 31
    },
    {
      "id": 10522,
      "name": "Barra d'Alcântara",
      "name_default": "Barra d'Alcântara",
      "native": "Barra d'Alcântara",
      "type": "city",
      "level": null,
      "parent_id": null,
      "population": 4099,
      "latitude": "-6.54095000",
      "longitude": "-42.11504000",
      "timezone": "America/Fortaleza",
      "wikiDataId": "Q1938757",
      "country_code": "BR",
      "state_code": "PI",
      "state_id": 2008,
      "country_id": 31
    },
    {
      "id": 10549,
      "name": "Barras",
      "name_default": "Barras",
      "native": "Barras",
      "type": "city",
      "level": null,
      "parent_id": null,
      "population": 49703,
      "latitude": "-4.24444000",
      "longitude": "-42.29444000",
      "timezone": "America/Fortaleza",
      "wikiDataId": "Q808836",
      "country_code": "BR",
      "state_code": "PI",
      "state_id": 2008,
      "country_id": 31
    },
    {
      "id": 10552,
      "name": "Barreiras do Piauí",
      "name_default": "Barreiras do Piauí",
      "native": "Barreiras do Piauí",
      "type": "city",
      "level": null,
      "parent_id": null,
      "population": 3336,
      "latitude": "-9.99042000",
      "longitude": "-45.69329000",
      "timezone": "America/Sao_Paulo",
      "wikiDataId": "Q31859686",
      "country_code": "BR",
      "state_code": "PI",
      "state_id": 2008,
      "country_id": 31
    },
    {
      "id": 10562,
      "name": "Barro Duro",
      "name_default": "Barro Duro",
      "native": "Lama dura",
      "type": "city",
      "level": null,
      "parent_id": null,
      "population": 6731,
      "latitude": "-5.85063000",
      "longitude": "-42.45878000",
      "timezone": "America/Sao_Paulo",
      "wikiDataId": "Q2155729",
      "country_code": "BR",
      "state_code": "PI",
      "state_id": 2008,
      "country_id": 31
    },
    {
      "id": 10582,
      "name": "Batalha",
      "name_default": "Batalha",
      "native": "Batalha",
      "type": "city",
      "level": null,
      "parent_id": null,
      "population": 27129,
      "latitude": "-3.99736000",
      "longitude": "-42.10645000",
      "timezone": "America/Sao_Paulo",
      "wikiDataId": "Q2012017",
      "country_code": "BR",
      "state_code": "PI",
      "state_id": 2008,
      "country_id": 31
    },
    {
      "id": 10600,
      "name": "Bela Vista do Piauí",
      "name_default": "Bela Vista do Piauí",
      "native": "Bela Vista do Piauí",
      "type": "city",
      "level": null,
      "parent_id": null,
      "population": 4225,
      "latitude": "-7.91606000",
      "longitude": "-41.90091000",
      "timezone": "America/Sao_Paulo",
      "wikiDataId": "Q1805395",
      "country_code": "BR",
      "state_code": "PI",
      "state_id": 2008,
      "country_id": 31
    },
    {
      "id": 10620,
      "name": "Belém do Piauí",
      "name_default": "Belém do Piauí",
      "native": "Belém do Piauí",
      "type": "city",
      "level": null,
      "parent_id": null,
      "population": 3515,
      "latitude": "-7.40657000",
      "longitude": "-40.98873000",
      "timezone": "America/Sao_Paulo",
      "wikiDataId": "Q285051",
      "country_code": "BR",
      "state_code": "PI",
      "state_id": 2008,
      "country_id": 31
    },
    {
      "id": 10622,
      "name": "Benedined",
      "name_default": "Beneditinos",
      "native": "Beneditinos",
      "type": "city",
      "level": null,
      "parent_id": null,
      "population": 10093,
      "latitude": "-5.45000000",
      "longitude": "-42.36667000",
      "timezone": "America/Fortaleza",
      "wikiDataId": "Q1981008",
      "country_code": "BR",
      "state_code": "PI",
      "state_id": 2008,
      "country_id": 31
    },
    {
      "id": 10639,
      "name": "Bertolínia",
      "name_default": "Bertolínia",
      "native": "Bertolínia",
      "type": "city",
      "level": null,
      "parent_id": null,
      "population": 5715,
      "latitude": "-7.75477000",
      "longitude": "-43.79588000",
      "timezone": "America/Sao_Paulo",
      "wikiDataId": "Q828319",
      "country_code": "BR",
      "state_code": "PI",
      "state_id": 2008,
      "country_id": 31
    },
    {
      "id": 10644,
      "name": "Betânia do Piauí",
      "name_default": "Betânia do Piauí",
      "native": "Betânia do Piauí",
      "type": "city",
      "level": null,
      "parent_id": null,
      "population": 6596,
      "latitude": "-8.06430000",
      "longitude": "-40.85924000",
      "timezone": "America/Sao_Paulo",
      "wikiDataId": "Q737644",
      "country_code": "BR",
      "state_code": "PI",
      "state_id": 2008,
      "country_id": 31
    },
    {
      "id": 10662,
      "name": "Boa Hora",
      "name_default": "Boa Hora",
      "native": "Boa Hora",
      "type": "adm2",
      "level": null,
      "parent_id": null,
      "population": 7140,
      "latitude": "-4.35576000",
      "longitude": "-42.14109000",
      "timezone": "America/Fortaleza",
      "wikiDataId": "Q268938",
      "country_code": "BR",
      "state_code": "PI",
      "state_id": 2008,
      "country_id": 31
    },
    {
      "id": 10679,
      "name": "Bocaina",
      "name_default": "Bocaina",
      "native": "Bocaina",
      "type": "city",
      "level": null,
      "parent_id": null,
      "population": 4078,
      "latitude": "-6.89508000",
      "longitude": "-41.32746000",
      "timezone": "America/Fortaleza",
      "wikiDataId": "Q1793334",
      "country_code": "BR",
      "state_code": "PI",
      "state_id": 2008,
      "country_id": 31
    },
    {
      "id": 10698,
      "name": "Ganet Jezuz",
      "name_default": "Bom Jesus",
      "native": "Bom Jesus",
      "type": "adm2",
      "level": null,
      "parent_id": null,
      "population": 28796,
      "latitude": "-9.07444000",
      "longitude": "-44.35861000",
      "timezone": "America/Fortaleza",
      "wikiDataId": "Q891715",
      "country_code": "BR",
      "state_code": "PI",
      "state_id": 2008,
      "country_id": 31
    },
    {
      "id": 10720,
      "name": "Ganet e oa bet Priñs Piauí",
      "name_default": "Bom Princípio do Piauí",
      "native": "Bom Princípio do Piauí",
      "type": "adm2",
      "level": null,
      "parent_id": null,
      "population": 5805,
      "latitude": "-3.23751000",
      "longitude": "-41.64572000",
      "timezone": "America/Fortaleza",
      "wikiDataId": "Q1648506",
      "country_code": "BR",
      "state_code": "PI",
      "state_id": 2008,
      "country_id": 31
    },
    {
      "id": 10732,
      "name": "Bonfim do Piauí",
      "name_default": "Bonfim do Piauí",
      "native": "Bonfim do Piauí",
      "type": "adm2",
      "level": null,
      "parent_id": null,
      "population": 6117,
      "latitude": "-9.16462000",
      "longitude": "-42.88253000",
      "timezone": "America/Fortaleza",
      "wikiDataId": "Q2089257",
      "country_code": "BR",
      "state_code": "PI",
      "state_id": 2008,
      "country_id": 31
    },
    {
      "id": 10745,
      "name": "Boqueirão do Piauí",
      "name_default": "Boqueirão do Piauí",
      "native": "Boqueirão do Piauí",
      "type": "city",
      "level": null,
      "parent_id": null,
      "population": 6751,
      "latitude": "-4.56650000",
      "longitude": "-42.13601000",
      "timezone": "America/Fortaleza",
      "wikiDataId": "Q22027642",
      "country_code": "BR",
      "state_code": "PI",
      "state_id": 2008,
      "country_id": 31
    },
    {
      "id": 10769,
      "name": "Brazileira",
      "name_default": "Brasileira",
      "native": "Brasileira",
      "type": "adm2",
      "level": null,
      "parent_id": null,
      "population": 8684,
      "latitude": "-4.13325000",
      "longitude": "-41.58774000",
      "timezone": "America/Sao_Paulo",
      "wikiDataId": "Q2329749",
      "country_code": "BR",
      "state_code": "PI",
      "state_id": 2008,
      "country_id": 31
    },
    {
      "id": 10796,
      "name": "Brejo do Piauí",
      "name_default": "Brejo do Piauí",
      "native": "Brejo do Piauí",
      "type": "adm2",
      "level": null,
      "parent_id": null,
      "population": 3964,
      "latitude": "-8.26858000",
      "longitude": "-42.78801000",
      "timezone": "America/Sao_Paulo",
      "wikiDataId": "Q1808002",
      "country_code": "BR",
      "state_code": "PI",
      "state_id": 2008,
      "country_id": 31
    },
    {
      "id": 10828,
      "name": "Buriti dos Lopes",
      "name_default": "Buriti dos Lopes",
      "native": "Buriti dos Lopes",
      "type": "city",
      "level": null,
      "parent_id": null,
      "population": 20130,
      "latitude": "-3.17500000",
      "longitude": "-41.86694000",
      "timezone": "America/Fortaleza",
      "wikiDataId": "Q2064004",
      "country_code": "BR",
      "state_code": "PI",
      "state_id": 2008,
      "country_id": 31
    },
    {
      "id": 10829,
      "name": "Buriti dos Montes",
      "name_default": "Buriti dos Montes",
      "native": "Buriti dos Montes",
      "type": "city",
      "level": null,
      "parent_id": null,
      "population": 7517,
      "latitude": "-5.20888000",
      "longitude": "-41.25078000",
      "timezone": "America/Sao_Paulo",
      "wikiDataId": "Q2064004",
      "country_code": "BR",
      "state_code": "PI",
      "state_id": 2008,
      "country_id": 31
    },
    {
      "id": 10849,
      "name": "Cabeceiras do Piauí",
      "name_default": "Cabeceiras do Piauí",
      "native": "Cabeceiras do Piauí",
      "type": "adm2",
      "level": null,
      "parent_id": null,
      "population": 10466,
      "latitude": "-4.43347000",
      "longitude": "-42.23060000",
      "timezone": "America/Sao_Paulo",
      "wikiDataId": "Q279492",
      "country_code": "BR",
      "state_code": "PI",
      "state_id": 2008,
      "country_id": 31
    },
    {
      "id": 10916,
      "name": "Cajazeiras do Piauí",
      "name_default": "Cajazeiras do Piauí",
      "native": "Cajazeiras do Piauí",
      "type": "adm2",
      "level": null,
      "parent_id": null,
      "population": 3135,
      "latitude": "-6.78182000",
      "longitude": "-42.39243000",
      "timezone": "America/Fortaleza",
      "wikiDataId": "Q1808637",
      "country_code": "BR",
      "state_code": "PI",
      "state_id": 2008,
      "country_id": 31
    },
    {
      "id": 10920,
      "name": "Cajueiro da Praia",
      "name_default": "Cajueiro da Praia",
      "native": "Cajueiro da Praia",
      "type": "adm2",
      "level": null,
      "parent_id": null,
      "population": 8246,
      "latitude": "-2.98747000",
      "longitude": "-41.35439000",
      "timezone": "America/Fortaleza",
      "wikiDataId": "Q22023546",
      "country_code": "BR",
      "state_code": "PI",
      "state_id": 2008,
      "country_id": 31
    },
    {
      "id": 10928,
      "name": "Caldeirão Grande do Piauí",
      "name_default": "Caldeirão Grande do Piauí",
      "native": "Caldeirão Grande do Piauí",
      "type": "adm2",
      "level": null,
      "parent_id": null,
      "population": 5602,
      "latitude": "-7.34361000",
      "longitude": "-40.58774000",
      "timezone": "America/Sao_Paulo",
      "wikiDataId": "Q2064592",
      "country_code": "BR",
      "state_code": "PI",
      "state_id": 2008,
      "country_id": 31
    },
    {
      "id": 10971,
      "name": "Campinas do Piauí",
      "name_default": "Campinas do Piauí",
      "native": "Campinas do Piauí",
      "type": "city",
      "level": null,
      "parent_id": null,
      "population": 4964,
      "latitude": "-7.67905000",
      "longitude": "-41.87938000",
      "timezone": "America/Fortaleza",
      "wikiDataId": "Q171617",
      "country_code": "BR",
      "state_code": "PI",
      "state_id": 2008,
      "country_id": 31
    },
    {
      "id": 10980,
      "name": "Campo Alegre do Fidalgo",
      "name_default": "Campo Alegre do Fidalgo",
      "native": "Campo Alegre do Fidalgo",
      "type": "adm2",
      "level": null,
      "parent_id": null,
      "population": 4698,
      "latitude": "-8.31452000",
      "longitude": "-41.79184000",
      "timezone": "America/Sao_Paulo",
      "wikiDataId": "Q2028275",
      "country_code": "BR",
      "state_code": "PI",
      "state_id": 2008,
      "country_id": 31
    },
    {
      "id": 10991,
      "name": "Campo Grande do Piauí",
      "name_default": "Campo Grande do Piauí",
      "native": "Campo Grande do Piauí",
      "type": "adm2",
      "level": null,
      "parent_id": null,
      "population": 6211,
      "latitude": "-7.22070000",
      "longitude": "-41.04511000",
      "timezone": "America/Fortaleza",
      "wikiDataId": "Q1814259",
      "country_code": "BR",
      "state_code": "PI",
      "state_id": 2008,
      "country_id": 31
    },
    {
      "id": 10993,
      "name": "Campo Largo do Piauí",
      "name_default": "Campo Largo do Piauí",
      "native": "Campo Largo do Piauí",
      "type": "adm2",
      "level": null,
      "parent_id": null,
      "population": 7669,
      "latitude": "-3.85518000",
      "longitude": "-42.60317000",
      "timezone": "America/Sao_Paulo",
      "wikiDataId": "Q1026376",
      "country_code": "BR",
      "state_code": "PI",
      "state_id": 2008,
      "country_id": 31
    },
    {
      "id": 10997,
      "name": "Campo Maior",
      "name_default": "Campo Maior",
      "native": "Campo Maior",
      "type": "city",
      "level": null,
      "parent_id": null,
      "population": 47119,
      "latitude": "-4.82778000",
      "longitude": "-42.16861000",
      "timezone": "America/Fortaleza",
      "wikiDataId": "Q2105005",
      "country_code": "BR",
      "state_code": "PI",
      "state_id": 2008,
      "country_id": 31
    },
    {
      "id": 11028,
      "name": "Canavieira",
      "name_default": "Canavieira",
      "native": "Canavieira",
      "type": "city",
      "level": null,
      "parent_id": null,
      "population": 3404,
      "latitude": "-7.50756000",
      "longitude": "-43.68630000",
      "timezone": "America/Sao_Paulo",
      "wikiDataId": "Q1795838",
      "country_code": "BR",
      "state_code": "PI",
      "state_id": 2008,
      "country_id": 31
    },
    {
      "id": 11056,
      "name": "Canto do Buriti",
      "name_default": "Canto do Buriti",
      "native": "Canto do Buriti",
      "type": "city",
      "level": null,
      "parent_id": null,
      "population": 19639,
      "latitude": "-8.11000000",
      "longitude": "-42.94444000",
      "timezone": "America/Fortaleza",
      "wikiDataId": "Q2079682",
      "country_code": "BR",
      "state_code": "PI",
      "state_id": 2008,
      "country_id": 31
    },
    {
      "id": 11086,
      "name": "Penn ar C'hampoù",
      "name_default": "Capitão de Campos",
      "native": "Capitão de Campos",
      "type": "city",
      "level": null,
      "parent_id": null,
      "population": 11362,
      "latitude": "-4.47203000",
      "longitude": "-41.88512000",
      "timezone": "America/Sao_Paulo",
      "wikiDataId": "Q955914",
      "country_code": "BR",
      "state_code": "PI",
      "state_id": 2008,
      "country_id": 31
    },
    {
      "id": 11083,
      "name": "Kabiten Gervásio Oliveira",
      "name_default": "Capitão Gervásio Oliveira",
      "native": "Capitão Gervásio Oliveira",
      "type": "city",
      "level": null,
      "parent_id": null,
      "population": 4071,
      "latitude": "-8.52938000",
      "longitude": "-41.90126000",
      "timezone": "America/Sao_Paulo",
      "wikiDataId": "Q1791913",
      "country_code": "BR",
      "state_code": "PI",
      "state_id": 2008,
      "country_id": 31
    },
    {
      "id": 11101,
      "name": "Caracol",
      "name_default": "Caracol",
      "native": "Lesma",
      "type": "adm2",
      "level": null,
      "parent_id": null,
      "population": 5096,
      "latitude": "-9.34943000",
      "longitude": "-43.27078000",
      "timezone": "America/Sao_Paulo",
      "wikiDataId": "Q1803147",
      "country_code": "BR",
      "state_code": "PI",
      "state_id": 2008,
      "country_id": 31
    },
    {
      "id": 11119,
      "name": "Caraúbas do Piauí",
      "name_default": "Caraúbas do Piauí",
      "native": "Caraúbas do Piauí",
      "type": "city",
      "level": null,
      "parent_id": null,
      "population": 5581,
      "latitude": "-3.53699000",
      "longitude": "-41.84588000",
      "timezone": "America/Fortaleza",
      "wikiDataId": "Q2078721",
      "country_code": "BR",
      "state_code": "PI",
      "state_id": 2008,
      "country_id": 31
    },
    {
      "id": 11130,
      "name": "Karidad do Piauí",
      "name_default": "Caridade do Piauí",
      "native": "Caridade do Piauí",
      "type": "adm2",
      "level": null,
      "parent_id": null,
      "population": null,
      "latitude": "-7.70139000",
      "longitude": "-40.89597000",
      "timezone": "America/Sao_Paulo",
      "wikiDataId": "Q2027136",
      "country_code": "BR",
      "state_code": "PI",
      "state_id": 2008,
      "country_id": 31
    },
    {
      "id": 11188,
      "name": "Kastell ar Piauí",
      "name_default": "Castelo do Piauí",
      "native": "Castelo do Piauí",
      "type": "city",
      "level": null,
      "parent_id": null,
      "population": 19669,
      "latitude": "-5.21580000",
      "longitude": "-41.55735000",
      "timezone": "America/Sao_Paulo",
      "wikiDataId": "Q2078710",
      "country_code": "BR",
      "state_code": "PI",
      "state_id": 2008,
      "country_id": 31
    },
    {
      "id": 11220,
      "name": "Caxingó",
      "name_default": "Caxingó",
      "native": "Caxingo",
      "type": "city",
      "level": null,
      "parent_id": null,
      "population": 5682,
      "latitude": "-3.40863000",
      "longitude": "-41.88771000",
      "timezone": "America/Fortaleza",
      "wikiDataId": "Q110017",
      "country_code": "BR",
      "state_code": "PI",
      "state_id": 2008,
      "country_id": 31
    },
    {
      "id": 11306,
      "name": "Kokal",
      "name_default": "Cocal",
      "native": "Cocal",
      "type": "city",
      "level": null,
      "parent_id": null,
      "population": 29302,
      "latitude": "-3.43751000",
      "longitude": "-41.54594000",
      "timezone": "America/Fortaleza",
      "wikiDataId": "Q511764",
      "country_code": "BR",
      "state_code": "PI",
      "state_id": 2008,
      "country_id": 31
    },
    {
      "id": 11307,
      "name": "Cocal de Telha",
      "name_default": "Cocal de Telha",
      "native": "Cocal de Telha",
      "type": "city",
      "level": null,
      "parent_id": null,
      "population": 5046,
      "latitude": "-4.64857000",
      "longitude": "-41.99568000",
      "timezone": "America/Sao_Paulo",
      "wikiDataId": "Q511764",
      "country_code": "BR",
      "state_code": "PI",
      "state_id": 2008,
      "country_id": 31
    },
    {
      "id": 11309,
      "name": "Cocal dos Alves",
      "name_default": "Cocal dos Alves",
      "native": "Cocal dos Alves",
      "type": "city",
      "level": null,
      "parent_id": null,
      "population": 6596,
      "latitude": "-3.57383000",
      "longitude": "-41.45183000",
      "timezone": "America/Fortaleza",
      "wikiDataId": "Q511764",
      "country_code": "BR",
      "state_code": "PI",
      "state_id": 2008,
      "country_id": 31
    },
    {
      "id": 11318,
      "name": "Coivaras",
      "name_default": "Coivaras",
      "native": "Coakal",
      "type": "city",
      "level": null,
      "parent_id": null,
      "population": 4249,
      "latitude": "-5.11661000",
      "longitude": "-42.26583000",
      "timezone": "America/Sao_Paulo",
      "wikiDataId": "Q1816142",
      "country_code": "BR",
      "state_code": "PI",
      "state_id": 2008,
      "country_id": 31
    },
    {
      "id": 11337,
      "name": "Colônia do Gurgueia",
      "name_default": "Colônia do Gurguéia",
      "native": "Colônia do Gurguéia",
      "type": "adm2",
      "level": null,
      "parent_id": null,
      "population": 6294,
      "latitude": "-8.14465000",
      "longitude": "-43.77459000",
      "timezone": "America/Sao_Paulo",
      "wikiDataId": "Q1795581",
      "country_code": "BR",
      "state_code": "PI",
      "state_id": 2008,
      "country_id": 31
    },
    {
      "id": 11338,
      "name": "Colônia do Piauí",
      "name_default": "Colônia do Piauí",
      "native": "Colônia do Piauí",
      "type": "adm2",
      "level": null,
      "parent_id": null,
      "population": 7067,
      "latitude": "-7.22638000",
      "longitude": "-42.21262000",
      "timezone": "America/Sao_Paulo",
      "wikiDataId": "Q2066010",
      "country_code": "BR",
      "state_code": "PI",
      "state_id": 2008,
      "country_id": 31
    },
    {
      "id": 11355,
      "name": "Konsevadur ar C'hanin",
      "name_default": "Conceição do Canindé",
      "native": "Conceição do Canindé",
      "type": "city",
      "level": null,
      "parent_id": null,
      "population": 5078,
      "latitude": "-7.98695000",
      "longitude": "-41.57544000",
      "timezone": "America/Sao_Paulo",
      "wikiDataId": "Q1788037",
      "country_code": "BR",
      "state_code": "PI",
      "state_id": 2008,
      "country_id": 31
    },
    {
      "id": 11421,
      "name": "Ar c'horonal José Dias",
      "name_default": "Coronel José Dias",
      "native": "Coronel José Dias",
      "type": "city",
      "level": null,
      "parent_id": null,
      "population": 4291,
      "latitude": "-9.07216000",
      "longitude": "-42.27241000",
      "timezone": "America/Sao_Paulo",
      "wikiDataId": "Q80004",
      "country_code": "BR",
      "state_code": "PI",
      "state_id": 2008,
      "country_id": 31
    },
    {
      "id": 11434,
      "name": "Reizh",
      "name_default": "Corrente",
      "native": "Corrente",
      "type": "city",
      "level": null,
      "parent_id": null,
      "population": 28381,
      "latitude": "-10.47219000",
      "longitude": "-45.04691000",
      "timezone": "America/Sao_Paulo",
      "wikiDataId": "Q2662106",
      "country_code": "BR",
      "state_code": "PI",
      "state_id": 2008,
      "country_id": 31
    },
    {
      "id": 11473,
      "name": "Cristalândia do Piauí",
      "name_default": "Cristalândia do Piauí",
      "native": "Cristalândia do Piauí",
      "type": "adm2",
      "level": null,
      "parent_id": null,
      "population": 7431,
      "latitude": "-10.82007000",
      "longitude": "-45.11052000",
      "timezone": "America/Sao_Paulo",
      "wikiDataId": "Q1012541",
      "country_code": "BR",
      "state_code": "PI",
      "state_id": 2008,
      "country_id": 31
    },
    {
      "id": 11477,
      "name": "Cristino Castro",
      "name_default": "Cristino Castro",
      "native": "Cristino Castro",
      "type": "city",
      "level": null,
      "parent_id": null,
      "population": 10801,
      "latitude": "-8.69043000",
      "longitude": "-44.04806000",
      "timezone": "America/Sao_Paulo",
      "wikiDataId": "Q1796446",
      "country_code": "BR",
      "state_code": "PI",
      "state_id": 2008,
      "country_id": 31
    },
    {
      "id": 11522,
      "name": "Curimatá",
      "name_default": "Curimatá",
      "native": "Curimatá",
      "type": "adm2",
      "level": null,
      "parent_id": null,
      "population": 11581,
      "latitude": "-9.86209000",
      "longitude": "-44.38994000",
      "timezone": "America/Sao_Paulo",
      "wikiDataId": "Q655584",
      "country_code": "BR",
      "state_code": "PI",
      "state_id": 2008,
      "country_id": 31
    },
    {
      "id": 11527,
      "name": "Currais",
      "name_default": "Currais",
      "native": "Currais",
      "type": "city",
      "level": null,
      "parent_id": null,
      "population": 4977,
      "latitude": "-8.73985000",
      "longitude": "-44.86466000",
      "timezone": "America/Sao_Paulo",
      "wikiDataId": "Q2007405",
      "country_code": "BR",
      "state_code": "PI",
      "state_id": 2008,
      "country_id": 31
    },
    {
      "id": 11529,
      "name": "Curral Novo do Piauí",
      "name_default": "Curral Novo do Piauí",
      "native": "Curral Novo do Piauí",
      "type": "city",
      "level": null,
      "parent_id": null,
      "population": 5191,
      "latitude": "-7.88978000",
      "longitude": "-40.76427000",
      "timezone": "America/Sao_Paulo",
      "wikiDataId": "Q1759405",
      "country_code": "BR",
      "state_code": "PI",
      "state_id": 2008,
      "country_id": 31
    },
    {
      "id": 11534,
      "name": "Curralinhos",
      "name_default": "Curralinhos",
      "native": "Curralinhos",
      "type": "city",
      "level": null,
      "parent_id": null,
      "population": 4555,
      "latitude": "-5.58488000",
      "longitude": "-42.86082000",
      "timezone": "America/Sao_Paulo",
      "wikiDataId": "Q2010383",
      "country_code": "BR",
      "state_code": "PI",
      "state_id": 2008,
      "country_id": 31
    },
    {
      "id": 11571,
      "name": "Demerval Lobão",
      "name_default": "Demerval Lobão",
      "native": "Demerval Lobão",
      "type": "city",
      "level": null,
      "parent_id": null,
      "population": 16352,
      "latitude": "-5.35833000",
      "longitude": "-42.67639000",
      "timezone": "America/Fortaleza",
      "wikiDataId": "Q1851653",
      "country_code": "BR",
      "state_code": "PI",
      "state_id": 2008,
      "country_id": 31
    },
    {
      "id": 11598,
      "name": "Dirceu Arcoverde",
      "name_default": "Dirceu Arcoverde",
      "native": "Dirceu Arcoverde",
      "type": "adm2",
      "level": null,
      "parent_id": null,
      "population": 7259,
      "latitude": "-9.33230000",
      "longitude": "-42.43422000",
      "timezone": "America/Fortaleza",
      "wikiDataId": "Q2296402",
      "country_code": "BR",
      "state_code": "PI",
      "state_id": 2008,
      "country_id": 31
    },
    {
      "id": 11627,
      "name": "Dom Expedito Lopes",
      "name_default": "Dom Expedito Lopes",
      "native": "Dom Expedito Lopes",
      "type": "city",
      "level": null,
      "parent_id": null,
      "population": 6410,
      "latitude": "-6.95806000",
      "longitude": "-41.71629000",
      "timezone": "America/Sao_Paulo",
      "wikiDataId": "Q1755986",
      "country_code": "BR",
      "state_code": "PI",
      "state_id": 2008,
      "country_id": 31
    },
    {
      "id": 11629,
      "name": "Dom Inocêncio",
      "name_default": "Dom Inocêncio",
      "native": "Dom Inocêncio",
      "type": "city",
      "level": null,
      "parent_id": null,
      "population": 9332,
      "latitude": "-8.88480000",
      "longitude": "-41.72000000",
      "timezone": "America/Sao_Paulo",
      "wikiDataId": "Q1755986",
      "country_code": "BR",
      "state_code": "PI",
      "state_id": 2008,
      "country_id": 31
    },
    {
      "id": 11638,
      "name": "Domingos Mourão",
      "name_default": "Domingos Mourão",
      "native": "Domingos Mourão",
      "type": "city",
      "level": null,
      "parent_id": null,
      "population": 4129,
      "latitude": "-4.19141000",
      "longitude": "-41.34833000",
      "timezone": "America/Sao_Paulo",
      "wikiDataId": "Q616475",
      "country_code": "BR",
      "state_code": "PI",
      "state_id": 2008,
      "country_id": 31
    },
    {
      "id": 11681,
      "name": "Elesbão Veloso",
      "name_default": "Elesbão Veloso",
      "native": "Elesbão Veloso",
      "type": "city",
      "level": null,
      "parent_id": null,
      "population": 13743,
      "latitude": "-6.19359000",
      "longitude": "-42.16607000",
      "timezone": "America/Sao_Paulo",
      "wikiDataId": "Q2078352",
      "country_code": "BR",
      "state_code": "PI",
      "state_id": 2008,
      "country_id": 31
    },
    {
      "id": 11683,
      "name": "Eliseu Martins",
      "name_default": "Eliseu Martins",
      "native": "Eliseu Martins",
      "type": "city",
      "level": null,
      "parent_id": null,
      "population": 4421,
      "latitude": "-7.90155000",
      "longitude": "-43.77769000",
      "timezone": "America/Sao_Paulo",
      "wikiDataId": "Q1750262",
      "country_code": "BR",
      "state_code": "PI",
      "state_id": 2008,
      "country_id": 31
    },
    {
      "id": 11729,
      "name": "Esperantina",
      "name_default": "Esperantina",
      "native": "Esperantina",
      "type": "city",
      "level": null,
      "parent_id": null,
      "population": 42710,
      "latitude": "-3.84898000",
      "longitude": "-42.17102000",
      "timezone": "America/Sao_Paulo",
      "wikiDataId": "Q2009973",
      "country_code": "BR",
      "state_code": "PI",
      "state_id": 2008,
      "country_id": 31
    },
    {
      "id": 11780,
      "name": "Fartura do Piauí",
      "name_default": "Fartura do Piauí",
      "native": "Fartura do Piauí",
      "type": "adm2",
      "level": null,
      "parent_id": null,
      "population": 5426,
      "latitude": "-9.52033000",
      "longitude": "-42.78927000",
      "timezone": "America/Fortaleza",
      "wikiDataId": "Q1936286",
      "country_code": "BR",
      "state_code": "PI",
      "state_id": 2008,
      "country_id": 31
    },
    {
      "id": 11833,
      "name": "Flores do Piauí",
      "name_default": "Flores do Piauí",
      "native": "Flores do Piauí",
      "type": "city",
      "level": null,
      "parent_id": null,
      "population": 4512,
      "latitude": "-7.64121000",
      "longitude": "-42.84551000",
      "timezone": "America/Sao_Paulo",
      "wikiDataId": "Q1757597",
      "country_code": "BR",
      "state_code": "PI",
      "state_id": 2008,
      "country_id": 31
    },
    {
      "id": 11838,
      "name": "Floresta do Piauí",
      "name_default": "Floresta do Piauí",
      "native": "Floresta do Piauí",
      "type": "adm2",
      "level": null,
      "parent_id": null,
      "population": 2354,
      "latitude": "-7.47628000",
      "longitude": "-41.84428000",
      "timezone": "America/Sao_Paulo",
      "wikiDataId": "Q2464842",
      "country_code": "BR",
      "state_code": "PI",
      "state_id": 2008,
      "country_id": 31
    },
    {
      "id": 11841,
      "name": "Floriano",
      "name_default": "Floriano",
      "native": "Floriano",
      "type": "adm2",
      "level": null,
      "parent_id": null,
      "population": 64393,
      "latitude": "-6.76694000",
      "longitude": "-43.02250000",
      "timezone": "America/Fortaleza",
      "wikiDataId": "Q2008644",
      "country_code": "BR",
      "state_code": "PI",
      "state_id": 2008,
      "country_id": 31
    },
    {
      "id": 11875,
      "name": "Frañsez",
      "name_default": "Francinópolis",
      "native": "Francinópolis",
      "type": "city",
      "level": null,
      "parent_id": null,
      "population": 4481,
      "latitude": "-6.41032000",
      "longitude": "-42.24638000",
      "timezone": "America/Sao_Paulo",
      "wikiDataId": "Q504587",
      "country_code": "BR",
      "state_code": "PI",
      "state_id": 2008,
      "country_id": 31
    },
    {
      "id": 11877,
      "name": "Francisco Ayres",
      "name_default": "Francisco Ayres",
      "native": "Francisco Ayres",
      "type": "city",
      "level": null,
      "parent_id": null,
      "population": 4548,
      "latitude": "-6.69130000",
      "longitude": "-42.69202000",
      "timezone": "America/Fortaleza",
      "wikiDataId": "Q504587",
      "country_code": "BR",
      "state_code": "PI",
      "state_id": 2008,
      "country_id": 31
    },
    {
      "id": 11882,
      "name": "Francisco Macedo",
      "name_default": "Francisco Macedo",
      "native": "Francisco Macedo",
      "type": "city",
      "level": null,
      "parent_id": null,
      "population": 2985,
      "latitude": "-7.35845000",
      "longitude": "-40.77056000",
      "timezone": "America/Sao_Paulo",
      "wikiDataId": "Q2064534",
      "country_code": "BR",
      "state_code": "PI",
      "state_id": 2008,
      "country_id": 31
    },
    {
      "id": 11884,
      "name": "Francisco Santos",
      "name_default": "Francisco Santos",
      "native": "Francisco Santos",
      "type": "city",
      "level": null,
      "parent_id": null,
      "population": 8349,
      "latitude": "-7.10293000",
      "longitude": "-41.14500000",
      "timezone": "America/Sao_Paulo",
      "wikiDataId": "Q2078798",
      "country_code": "BR",
      "state_code": "PI",
      "state_id": 2008,
      "country_id": 31
    },
    {
      "id": 11900,
      "name": "Fronteiras",
      "name_default": "Fronteiras",
      "native": "Fronteiras",
      "type": "city",
      "level": null,
      "parent_id": null,
      "population": 10344,
      "latitude": "-7.01250000",
      "longitude": "-40.56213000",
      "timezone": "America/Sao_Paulo",
      "wikiDataId": "Q588822",
      "country_code": "BR",
      "state_code": "PI",
      "state_id": 2008,
      "country_id": 31
    },
    {
      "id": 11933,
      "name": "Geminiano",
      "name_default": "Geminiano",
      "native": "Geminiano",
      "type": "city",
      "level": null,
      "parent_id": null,
      "population": 5604,
      "latitude": "-7.16595000",
      "longitude": "-41.38802000",
      "timezone": "America/Sao_Paulo",
      "wikiDataId": "Q1852620",
      "country_code": "BR",
      "state_code": "PI",
      "state_id": 2008,
      "country_id": 31
    },
    {
      "id": 11944,
      "name": "Gilbués",
      "name_default": "Gilbués",
      "native": "Gilbués",
      "type": "adm2",
      "level": null,
      "parent_id": null,
      "population": 11193,
      "latitude": "-9.72737000",
      "longitude": "-45.52017000",
      "timezone": "America/Sao_Paulo",
      "wikiDataId": "Q677076",
      "country_code": "BR",
      "state_code": "PI",
      "state_id": 2008,
      "country_id": 31
    },
    {
      "id": 12013,
      "name": "Gwadalupa",
      "name_default": "Guadalupe",
      "native": "Guadalupe",
      "type": "city",
      "level": null,
      "parent_id": null,
      "population": 10480,
      "latitude": "-6.82297000",
      "longitude": "-43.77762000",
      "timezone": "America/Sao_Paulo",
      "wikiDataId": "Q2104157",
      "country_code": "BR",
      "state_code": "PI",
      "state_id": 2008,
      "country_id": 31
    },
    {
      "id": 12066,
      "name": "Guaribas",
      "name_default": "Guaribas",
      "native": "Guaribas",
      "type": "city",
      "level": null,
      "parent_id": null,
      "population": 4344,
      "latitude": "-9.28870000",
      "longitude": "-43.58188000",
      "timezone": "America/Sao_Paulo",
      "wikiDataId": "Q1759773",
      "country_code": "BR",
      "state_code": "PI",
      "state_id": 2008,
      "country_id": 31
    },
    {
      "id": 12108,
      "name": "Hugo Napoleão",
      "name_default": "Hugo Napoleão",
      "native": "Hugo Napoleão",
      "type": "city",
      "level": null,
      "parent_id": null,
      "population": 3550,
      "latitude": "-6.03293000",
      "longitude": "-42.46773000",
      "timezone": "America/Sao_Paulo",
      "wikiDataId": "Q952617",
      "country_code": "BR",
      "state_code": "PI",
      "state_id": 2008,
      "country_id": 31
    },
    {
      "id": 12208,
      "name": "Ilha Grande",
      "name_default": "Ilha Grande",
      "native": "Ilha Grande",
      "type": "adm2",
      "level": null,
      "parent_id": null,
      "population": 9522,
      "latitude": "-2.84022000",
      "longitude": "-41.82881000",
      "timezone": "America/Fortaleza",
      "wikiDataId": "Q2078225",
      "country_code": "BR",
      "state_code": "PI",
      "state_id": 2008,
      "country_id": 31
    },
    {
      "id": 12252,
      "name": "Inhuma",
      "name_default": "Inhuma",
      "native": "Mesmo",
      "type": "city",
      "level": null,
      "parent_id": null,
      "population": 15268,
      "latitude": "-6.66187000",
      "longitude": "-41.68135000",
      "timezone": "America/Sao_Paulo",
      "wikiDataId": "Q2104143",
      "country_code": "BR",
      "state_code": "PI",
      "state_id": 2008,
      "country_id": 31
    },
    {
      "id": 12278,
      "name": "Ipiranga do Piauí",
      "name_default": "Ipiranga do Piauí",
      "native": "Ipiranga do Piauí",
      "type": "city",
      "level": null,
      "parent_id": null,
      "population": 9627,
      "latitude": "-6.84634000",
      "longitude": "-41.74687000",
      "timezone": "America/Fortaleza",
      "wikiDataId": "Q2089652",
      "country_code": "BR",
      "state_code": "PI",
      "state_id": 2008,
      "country_id": 31
    },
    {
      "id": 12292,
      "name": "Ipueiras",
      "name_default": "Ipueiras",
      "native": "Ipueiras",
      "type": "city",
      "level": null,
      "parent_id": null,
      "population": 17111,
      "latitude": "-7.03333000",
      "longitude": "-40.45000000",
      "timezone": "America/Fortaleza",
      "wikiDataId": "Q22021028",
      "country_code": "BR",
      "state_code": "PI",
      "state_id": 2008,
      "country_id": 31
    },
    {
      "id": 12322,
      "name": "Isaías Coelho",
      "name_default": "Isaías Coelho",
      "native": "Isaías Coelho",
      "type": "city",
      "level": null,
      "parent_id": null,
      "population": 7867,
      "latitude": "-7.54521000",
      "longitude": "-41.64289000",
      "timezone": "America/Sao_Paulo",
      "wikiDataId": "Q1807920",
      "country_code": "BR",
      "state_code": "PI",
      "state_id": 2008,
      "country_id": 31
    },
    {
      "id": 12358,
      "name": "Itanopolis",
      "name_default": "Itainópolis",
      "native": "Itainópolis",
      "type": "city",
      "level": null,
      "parent_id": null,
      "population": 10969,
      "latitude": "-7.45524000",
      "longitude": "-41.54165000",
      "timezone": "America/Sao_Paulo",
      "wikiDataId": "Q662237",
      "country_code": "BR",
      "state_code": "PI",
      "state_id": 2008,
      "country_id": 31
    },
    {
      "id": 12463,
      "name": "Itaueira",
      "name_default": "Itaueira",
      "native": "Itaueira",
      "type": "city",
      "level": null,
      "parent_id": null,
      "population": 10477,
      "latitude": "-7.60333000",
      "longitude": "-43.02556000",
      "timezone": "America/Fortaleza",
      "wikiDataId": "Q2079025",
      "country_code": "BR",
      "state_code": "PI",
      "state_id": 2008,
      "country_id": 31
    },
    {
      "id": 12528,
      "name": "Jacobina do Piauí",
      "name_default": "Jacobina do Piauí",
      "native": "Jacobina do Piauí",
      "type": "adm2",
      "level": null,
      "parent_id": null,
      "population": 5711,
      "latitude": "-7.96488000",
      "longitude": "-41.17396000",
      "timezone": "America/Sao_Paulo",
      "wikiDataId": "Q1798719",
      "country_code": "BR",
      "state_code": "PI",
      "state_id": 2008,
      "country_id": 31
    },
    {
      "id": 12551,
      "name": "Jaicos",
      "name_default": "Jaicós",
      "native": "Jaicós",
      "type": "city",
      "level": null,
      "parent_id": null,
      "population": 17789,
      "latitude": "-7.45645000",
      "longitude": "-41.22016000",
      "timezone": "America/Sao_Paulo",
      "wikiDataId": "Q953959",
      "country_code": "BR",
      "state_code": "PI",
      "state_id": 2008,
      "country_id": 31
    },
    {
      "id": 12590,
      "name": "Jardim do Mulato",
      "name_default": "Jardim do Mulato",
      "native": "Jardim do Mulato",
      "type": "city",
      "level": null,
      "parent_id": null,
      "population": 4235,
      "latitude": "-6.15734000",
      "longitude": "-42.47763000",
      "timezone": "America/Sao_Paulo",
      "wikiDataId": "Q368917",
      "country_code": "BR",
      "state_code": "PI",
      "state_id": 2008,
      "country_id": 31
    },
    {
      "id": 12604,
      "name": "Jatobá do Piauí",
      "name_default": "Jatobá do Piauí",
      "native": "Jatobá do Piauí",
      "type": "city",
      "level": null,
      "parent_id": null,
      "population": 4560,
      "latitude": "-4.80296000",
      "longitude": "-41.89545000",
      "timezone": "America/Sao_Paulo",
      "wikiDataId": "Q2472554",
      "country_code": "BR",
      "state_code": "PI",
      "state_id": 2008,
      "country_id": 31
    },
    {
      "id": 12623,
      "name": "Jerumenha",
      "name_default": "Jerumenha",
      "native": "Jerumenha",
      "type": "city",
      "level": null,
      "parent_id": null,
      "population": 4606,
      "latitude": "-7.09885000",
      "longitude": "-43.54675000",
      "timezone": "America/Sao_Paulo",
      "wikiDataId": "Q1761820",
      "country_code": "BR",
      "state_code": "PI",
      "state_id": 2008,
      "country_id": 31
    },
    {
      "id": 12658,
      "name": "João Costa",
      "name_default": "João Costa",
      "native": "João Costa",
      "type": "city",
      "level": null,
      "parent_id": null,
      "population": 3033,
      "latitude": "-8.54315000",
      "longitude": "-42.41513000",
      "timezone": "America/Fortaleza",
      "wikiDataId": "Q786899",
      "country_code": "BR",
      "state_code": "PI",
      "state_id": 2008,
      "country_id": 31
    },
    {
      "id": 12639,
      "name": "Joaquim Pires",
      "name_default": "Joaquim Pires",
      "native": "Joaquim Pires",
      "type": "city",
      "level": null,
      "parent_id": null,
      "population": 14265,
      "latitude": "-3.53692000",
      "longitude": "-42.07750000",
      "timezone": "America/Sao_Paulo",
      "wikiDataId": "Q1401082",
      "country_code": "BR",
      "state_code": "PI",
      "state_id": 2008,
      "country_id": 31
    },
    {
      "id": 12644,
      "name": "Joca Marques",
      "name_default": "Joca Marques",
      "native": "Joca Marques",
      "type": "city",
      "level": null,
      "parent_id": null,
      "population": 5552,
      "latitude": "-3.54211000",
      "longitude": "-42.43579000",
      "timezone": "America/Fortaleza",
      "wikiDataId": "Q2098422",
      "country_code": "BR",
      "state_code": "PI",
      "state_id": 2008,
      "country_id": 31
    },
    {
      "id": 12655,
      "name": "José de Freitas",
      "name_default": "José de Freitas",
      "native": "José de Freitas",
      "type": "city",
      "level": null,
      "parent_id": null,
      "population": 44689,
      "latitude": "-4.72992000",
      "longitude": "-42.61373000",
      "timezone": "America/Sao_Paulo",
      "wikiDataId": "Q2078167",
      "country_code": "BR",
      "state_code": "PI",
      "state_id": 2008,
      "country_id": 31
    },
    {
      "id": 12675,
      "name": "Juazeiro do Piauí",
      "name_default": "Juazeiro do Piauí",
      "native": "Juazeiro do Piauí",
      "type": "adm2",
      "level": null,
      "parent_id": null,
      "population": 5308,
      "latitude": "-5.02486000",
      "longitude": "-41.52841000",
      "timezone": "America/Sao_Paulo",
      "wikiDataId": "Q817227",
      "country_code": "BR",
      "state_code": "PI",
      "state_id": 2008,
      "country_id": 31
    },
    {
      "id": 12717,
      "name": "Júlio Borges",
      "name_default": "Júlio Borges",
      "native": "Júlio Borges",
      "type": "adm2",
      "level": null,
      "parent_id": null,
      "population": 5501,
      "latitude": "-10.51580000",
      "longitude": "-44.19178000",
      "timezone": "America/Sao_Paulo",
      "wikiDataId": "Q22021479",
      "country_code": "BR",
      "state_code": "PI",
      "state_id": 2008,
      "country_id": 31
    },
    {
      "id": 12696,
      "name": "Jurema",
      "name_default": "Jurema",
      "native": "Jurema",
      "type": "adm2",
      "level": null,
      "parent_id": null,
      "population": 14002,
      "latitude": "-9.29862000",
      "longitude": "-43.15301000",
      "timezone": "America/Sao_Paulo",
      "wikiDataId": "Q1941164",
      "country_code": "BR",
      "state_code": "PI",
      "state_id": 2008,
      "country_id": 31
    },
    {
      "id": 12734,
      "name": "Lagoa Alegre",
      "name_default": "Lagoa Alegre",
      "native": "Lagoa Alegre",
      "type": "city",
      "level": null,
      "parent_id": null,
      "population": 8464,
      "latitude": "-4.49510000",
      "longitude": "-42.56555000",
      "timezone": "America/Sao_Paulo",
      "wikiDataId": "Q305180",
      "country_code": "BR",
      "state_code": "PI",
      "state_id": 2008,
      "country_id": 31
    },
    {
      "id": 12755,
      "name": "Lagoa de São Francisco",
      "name_default": "Lagoa de São Francisco",
      "native": "Lagoa de São Francisco",
      "type": "adm2",
      "level": null,
      "parent_id": null,
      "population": 6446,
      "latitude": "-4.35468000",
      "longitude": "-41.59168000",
      "timezone": "America/Fortaleza",
      "wikiDataId": "Q1114540",
      "country_code": "BR",
      "state_code": "PI",
      "state_id": 2008,
      "country_id": 31
    },
    {
      "id": 12757,
      "name": "Lagoa do Barro do Piauí",
      "name_default": "Lagoa do Barro do Piauí",
      "native": "Lagoa do Barro do Piauí",
      "type": "adm2",
      "level": null,
      "parent_id": null,
      "population": 5171,
      "latitude": "-8.73535000",
      "longitude": "-41.54813000",
      "timezone": "America/Sao_Paulo",
      "wikiDataId": "Q1114540",
      "country_code": "BR",
      "state_code": "PI",
      "state_id": 2008,
      "country_id": 31
    },
    {
      "id": 12762,
      "name": "Lagoa do Piauí",
      "name_default": "Lagoa do Piauí",
      "native": "Lagoa do Piauí",
      "type": "city",
      "level": null,
      "parent_id": null,
      "population": 5017,
      "latitude": "-5.47513000",
      "longitude": "-42.54814000",
      "timezone": "America/Sao_Paulo",
      "wikiDataId": "Q1887813",
      "country_code": "BR",
      "state_code": "PI",
      "state_id": 2008,
      "country_id": 31
    },
    {
      "id": 12763,
      "name": "Lagoa do Sítio",
      "name_default": "Lagoa do Sítio",
      "native": "Lagoa do Sítio",
      "type": "city",
      "level": null,
      "parent_id": null,
      "population": 4559,
      "latitude": "-6.51918000",
      "longitude": "-41.42058000",
      "timezone": "America/Sao_Paulo",
      "wikiDataId": "Q1887813",
      "country_code": "BR",
      "state_code": "PI",
      "state_id": 2008,
      "country_id": 31
    },
    {
      "id": 12769,
      "name": "Lagoinha do Piauí",
      "name_default": "Lagoinha do Piauí",
      "native": "Lagoinha do Piauí",
      "type": "adm2",
      "level": null,
      "parent_id": null,
      "population": 3044,
      "latitude": "-5.80702000",
      "longitude": "-42.62796000",
      "timezone": "America/Fortaleza",
      "wikiDataId": "Q2064145",
      "country_code": "BR",
      "state_code": "PI",
      "state_id": 2008,
      "country_id": 31
    },
    {
      "id": 12791,
      "name": "Landri Sales",
      "name_default": "Landri Sales",
      "native": "Vendas Landri",
      "type": "city",
      "level": null,
      "parent_id": null,
      "population": 5309,
      "latitude": "-7.23268000",
      "longitude": "-43.86456000",
      "timezone": "America/Sao_Paulo",
      "wikiDataId": "Q1871942",
      "country_code": "BR",
      "state_code": "PI",
      "state_id": 2008,
      "country_id": 31
    },
    {
      "id": 12879,
      "name": "Luís Correia",
      "name_default": "Luís Correia",
      "native": "Luís Correia",
      "type": "adm2",
      "level": null,
      "parent_id": null,
      "population": 31901,
      "latitude": "-3.03117000",
      "longitude": "-41.51665000",
      "timezone": "America/Sao_Paulo",
      "wikiDataId": "Q2064046",
      "country_code": "BR",
      "state_code": "PI",
      "state_id": 2008,
      "country_id": 31
    },
    {
      "id": 12875,
      "name": "Luzilândia",
      "name_default": "Luzilândia",
      "native": "Luzilândia",
      "type": "adm2",
      "level": null,
      "parent_id": null,
      "population": 26143,
      "latitude": "-3.60743000",
      "longitude": "-42.36456000",
      "timezone": "America/Sao_Paulo",
      "wikiDataId": "Q1924294",
      "country_code": "BR",
      "state_code": "PI",
      "state_id": 2008,
      "country_id": 31
    },
    {
      "id": 12906,
      "name": "Madeiro",
      "name_default": "Madeiro",
      "native": "Madeiro",
      "type": "city",
      "level": null,
      "parent_id": null,
      "population": 8231,
      "latitude": "-3.54658000",
      "longitude": "-42.51114000",
      "timezone": "America/Fortaleza",
      "wikiDataId": "Q1815712",
      "country_code": "BR",
      "state_code": "PI",
      "state_id": 2008,
      "country_id": 31
    },
    {
      "id": 12952,
      "name": "Manoel Emídio",
      "name_default": "Manoel Emídio",
      "native": "Manoel Emídio",
      "type": "adm2",
      "level": null,
      "parent_id": null,
      "population": 5315,
      "latitude": "-8.16469000",
      "longitude": "-43.83360000",
      "timezone": "America/Sao_Paulo",
      "wikiDataId": "Q43490",
      "country_code": "BR",
      "state_code": "PI",
      "state_id": 2008,
      "country_id": 31
    },
    {
      "id": 12996,
      "name": "Marcolândia",
      "name_default": "Marcolândia",
      "native": "Marcolândia",
      "type": "city",
      "level": null,
      "parent_id": null,
      "population": 8822,
      "latitude": "-7.40891000",
      "longitude": "-40.74945000",
      "timezone": "America/Sao_Paulo",
      "wikiDataId": "Q22059549",
      "country_code": "BR",
      "state_code": "PI",
      "state_id": 2008,
      "country_id": 31
    },
    {
      "id": 12997,
      "name": "Marcos Parente",
      "name_default": "Marcos Parente",
      "native": "Marcos Parente",
      "type": "adm2",
      "level": null,
      "parent_id": null,
      "population": 4863,
      "latitude": "-7.05412000",
      "longitude": "-43.91664000",
      "timezone": "America/Sao_Paulo",
      "wikiDataId": "Q22059549",
      "country_code": "BR",
      "state_code": "PI",
      "state_id": 2008,
      "country_id": 31
    },
    {
      "id": 13042,
      "name": "Massapê do Piauí",
      "name_default": "Massapê do Piauí",
      "native": "Massapê do Piauí",
      "type": "adm2",
      "level": null,
      "parent_id": null,
      "population": 5165,
      "latitude": "-7.53879000",
      "longitude": "-41.01755000",
      "timezone": "America/Sao_Paulo",
      "wikiDataId": "Q2028110",
      "country_code": "BR",
      "state_code": "PI",
      "state_id": 2008,
      "country_id": 31
    },
    {
      "id": 13058,
      "name": "Matias Olímpio",
      "name_default": "Matias Olímpio",
      "native": "Matias Olímpio",
      "type": "city",
      "level": null,
      "parent_id": null,
      "population": 10886,
      "latitude": "-3.68774000",
      "longitude": "-42.60695000",
      "timezone": "America/Sao_Paulo",
      "wikiDataId": "Q1894372",
      "country_code": "BR",
      "state_code": "PI",
      "state_id": 2008,
      "country_id": 31
    },
    {
      "id": 13109,
      "name": "Miguel Alves",
      "name_default": "Miguel Alves",
      "native": "Miguel Alves",
      "type": "city",
      "level": null,
      "parent_id": null,
      "population": 33074,
      "latitude": "-4.15790000",
      "longitude": "-42.77263000",
      "timezone": "America/Sao_Paulo",
      "wikiDataId": "Q677160",
      "country_code": "BR",
      "state_code": "PI",
      "state_id": 2008,
      "country_id": 31
    },
    {
      "id": 13111,
      "name": "Miguel Leão",
      "name_default": "Miguel Leão",
      "native": "Miguel Leão",
      "type": "city",
      "level": null,
      "parent_id": null,
      "population": 1355,
      "latitude": "-5.72867000",
      "longitude": "-42.68942000",
      "timezone": "America/Sao_Paulo",
      "wikiDataId": "Q1793651",
      "country_code": "BR",
      "state_code": "PI",
      "state_id": 2008,
      "country_id": 31
    },
    {
      "id": 13118,
      "name": "Milton Brandão",
      "name_default": "Milton Brandão",
      "native": "Milton Brandão",
      "type": "city",
      "level": null,
      "parent_id": null,
      "population": 6681,
      "latitude": "-4.74021000",
      "longitude": "-41.59457000",
      "timezone": "America/Sao_Paulo",
      "wikiDataId": "Q2092809",
      "country_code": "BR",
      "state_code": "PI",
      "state_id": 2008,
      "country_id": 31
    },
    {
      "id": 13177,
      "name": "Monsenhor Gil",
      "name_default": "Monsenhor Gil",
      "native": "Monsenhor Gil",
      "type": "city",
      "level": null,
      "parent_id": null,
      "population": 10513,
      "latitude": "-5.64162000",
      "longitude": "-42.54879000",
      "timezone": "America/Sao_Paulo",
      "wikiDataId": "Q1935712",
      "country_code": "BR",
      "state_code": "PI",
      "state_id": 2008,
      "country_id": 31
    },
    {
      "id": 13178,
      "name": "Monsenhor Hipólito",
      "name_default": "Monsenhor Hipólito",
      "native": "Monsenhor Hipólito",
      "type": "city",
      "level": null,
      "parent_id": null,
      "population": 7762,
      "latitude": "-6.94982000",
      "longitude": "-41.03155000",
      "timezone": "America/Fortaleza",
      "wikiDataId": "Q1935712",
      "country_code": "BR",
      "state_code": "PI",
      "state_id": 2008,
      "country_id": 31
    },
    {
      "id": 13191,
      "name": "Monte Alegre do Piauí",
      "name_default": "Monte Alegre do Piauí",
      "native": "Monte Alegre do Piauí",
      "type": "adm2",
      "level": null,
      "parent_id": null,
      "population": 10928,
      "latitude": "-9.74213000",
      "longitude": "-44.98266000",
      "timezone": "America/Sao_Paulo",
      "wikiDataId": "Q22038204",
      "country_code": "BR",
      "state_code": "PI",
      "state_id": 2008,
      "country_id": 31
    },
    {
      "id": 13241,
      "name": "Morro Cabeça no Tempo",
      "name_default": "Morro Cabeça no Tempo",
      "native": "Morro Cabeça no Tempo",
      "type": "adm2",
      "level": null,
      "parent_id": null,
      "population": 4456,
      "latitude": "-9.87713000",
      "longitude": "-43.90657000",
      "timezone": "America/Sao_Paulo",
      "wikiDataId": "Q1806964",
      "country_code": "BR",
      "state_code": "PI",
      "state_id": 2008,
      "country_id": 31
    },
    {
      "id": 13249,
      "name": "Morro do Chapéu do Piauí",
      "name_default": "Morro do Chapéu do Piauí",
      "native": "Morro do Chapéu do Piauí",
      "type": "adm2",
      "level": null,
      "parent_id": null,
      "population": 6548,
      "latitude": "-3.68694000",
      "longitude": "-42.22185000",
      "timezone": "America/Sao_Paulo",
      "wikiDataId": "Q1807821",
      "country_code": "BR",
      "state_code": "PI",
      "state_id": 2008,
      "country_id": 31
    },
    {
      "id": 13281,
      "name": "Murici dos Portelas",
      "name_default": "Murici dos Portelas",
      "native": "Murici dos Portelas",
      "type": "adm2",
      "level": null,
      "parent_id": null,
      "population": 10210,
      "latitude": "-3.36504000",
      "longitude": "-42.00218000",
      "timezone": "America/Sao_Paulo",
      "wikiDataId": "Q1795628",
      "country_code": "BR",
      "state_code": "PI",
      "state_id": 2008,
      "country_id": 31
    },
    {
      "id": 13314,
      "name": "Nazaré do Piauí",
      "name_default": "Nazaré do Piauí",
      "native": "Nazaré do Piauí",
      "type": "city",
      "level": null,
      "parent_id": null,
      "population": 6697,
      "latitude": "-7.03279000",
      "longitude": "-42.73216000",
      "timezone": "America/Sao_Paulo",
      "wikiDataId": "Q1811182",
      "country_code": "BR",
      "state_code": "PI",
      "state_id": 2008,
      "country_id": 31
    },
    {
      "id": 13315,
      "name": "Nazária",
      "name_default": "Nazária",
      "native": "Nazária",
      "type": "city",
      "level": null,
      "parent_id": null,
      "population": 10821,
      "latitude": "-5.44546000",
      "longitude": "-42.86840000",
      "timezone": "America/Sao_Paulo",
      "wikiDataId": "Q10335889",
      "country_code": "BR",
      "state_code": "PI",
      "state_id": 2008,
      "country_id": 31
    },
    {
      "id": 13341,
      "name": "Nossa Senhora de Nazaré",
      "name_default": "Nossa Senhora de Nazaré",
      "native": "Nossa Senhora de Nazaré",
      "type": "adm2",
      "level": null,
      "parent_id": null,
      "population": 5442,
      "latitude": "-4.63841000",
      "longitude": "-42.19017000",
      "timezone": "America/Fortaleza",
      "wikiDataId": "Q963907",
      "country_code": "BR",
      "state_code": "PI",
      "state_id": 2008,
      "country_id": 31
    },
    {
      "id": 13344,
      "name": "Nossa Senhora dos Remédios",
      "name_default": "Nossa Senhora dos Remédios",
      "native": "Nossa Senhora dos Remédios",
      "type": "city",
      "level": null,
      "parent_id": null,
      "population": 8751,
      "latitude": "-4.05765000",
      "longitude": "-42.60651000",
      "timezone": "America/Fortaleza",
      "wikiDataId": "Q2104808",
      "country_code": "BR",
      "state_code": "PI",
      "state_id": 2008,
      "country_id": 31
    },
    {
      "id": 13433,
      "name": "Nova Santa Rita",
      "name_default": "Nova Santa Rita",
      "native": "Nova Santa Rita",
      "type": "adm2",
      "level": null,
      "parent_id": null,
      "population": 30189,
      "latitude": "-8.11204000",
      "longitude": "-42.01361000",
      "timezone": "America/Sao_Paulo",
      "wikiDataId": "Q2103222",
      "country_code": "BR",
      "state_code": "PI",
      "state_id": 2008,
      "country_id": 31
    },
    {
      "id": 13473,
      "name": "Novo Oriente do Piauí",
      "name_default": "Novo Oriente do Piauí",
      "native": "Novo Oriente do Piauí",
      "type": "adm2",
      "level": null,
      "parent_id": null,
      "population": 6158,
      "latitude": "-6.55034000",
      "longitude": "-41.98555000",
      "timezone": "America/Sao_Paulo",
      "wikiDataId": "Q22059540",
      "country_code": "BR",
      "state_code": "PI",
      "state_id": 2008,
      "country_id": 31
    },
    {
      "id": 13477,
      "name": "Novo Santo Antônio",
      "name_default": "Novo Santo Antônio",
      "native": "Novo Santo Antônio",
      "type": "city",
      "level": null,
      "parent_id": null,
      "population": 2041,
      "latitude": "-5.32848000",
      "longitude": "-41.96256000",
      "timezone": "America/Sao_Paulo",
      "wikiDataId": "Q2169201",
      "country_code": "BR",
      "state_code": "PI",
      "state_id": 2008,
      "country_id": 31
    },
    {
      "id": 13490,
      "name": "Oeiras",
      "name_default": "Oeiras",
      "native": "Oeiras",
      "type": "city",
      "level": null,
      "parent_id": null,
      "population": 39687,
      "latitude": "-6.90686000",
      "longitude": "-42.17529000",
      "timezone": "America/Sao_Paulo",
      "wikiDataId": "Q2077764",
      "country_code": "BR",
      "state_code": "PI",
      "state_id": 2008,
      "country_id": 31
    },
    {
      "id": 13499,
      "name": "Olho d'Água do Piauí",
      "name_default": "Olho d'Água do Piauí",
      "native": "Olho d'Água do Piauí",
      "type": "city",
      "level": null,
      "parent_id": null,
      "population": 2730,
      "latitude": "-5.84854000",
      "longitude": "-42.53937000",
      "timezone": "America/Sao_Paulo",
      "wikiDataId": "Q1940465",
      "country_code": "BR",
      "state_code": "PI",
      "state_id": 2008,
      "country_id": 31
    },
    {
      "id": 13563,
      "name": "Padre Marcos",
      "name_default": "Padre Marcos",
      "native": "Padre Marcos",
      "type": "city",
      "level": null,
      "parent_id": null,
      "population": 6468,
      "latitude": "-7.36533000",
      "longitude": "-40.93416000",
      "timezone": "America/Sao_Paulo",
      "wikiDataId": "Q22037037",
      "country_code": "BR",
      "state_code": "PI",
      "state_id": 2008,
      "country_id": 31
    },
    {
      "id": 13565,
      "name": "Paes Landim",
      "name_default": "Paes Landim",
      "native": "Paes Landim",
      "type": "city",
      "level": null,
      "parent_id": null,
      "population": 4176,
      "latitude": "-7.77461000",
      "longitude": "-42.35087000",
      "timezone": "America/Sao_Paulo",
      "wikiDataId": "Q1755581",
      "country_code": "BR",
      "state_code": "PI",
      "state_id": 2008,
      "country_id": 31
    },
    {
      "id": 13574,
      "name": "Pajeú do Piauí",
      "name_default": "Pajeú do Piauí",
      "native": "Pajeú do Piauí",
      "type": "city",
      "level": null,
      "parent_id": null,
      "population": 3032,
      "latitude": "-8.05364000",
      "longitude": "-42.86625000",
      "timezone": "America/Sao_Paulo",
      "wikiDataId": "Q2005187",
      "country_code": "BR",
      "state_code": "PI",
      "state_id": 2008,
      "country_id": 31
    },
    {
      "id": 13593,
      "name": "Palmeira do Piauí",
      "name_default": "Palmeira do Piauí",
      "native": "Palmeira do Piauí",
      "type": "city",
      "level": null,
      "parent_id": null,
      "population": 5047,
      "latitude": "-8.51549000",
      "longitude": "-44.43642000",
      "timezone": "America/Sao_Paulo",
      "wikiDataId": "Q1750240",
      "country_code": "BR",
      "state_code": "PI",
      "state_id": 2008,
      "country_id": 31
    },
    {
      "id": 13595,
      "name": "Palmeirais",
      "name_default": "Palmeirais",
      "native": "Palmeirais",
      "type": "city",
      "level": null,
      "parent_id": null,
      "population": 13458,
      "latitude": "-5.78548000",
      "longitude": "-43.02434000",
      "timezone": "America/Sao_Paulo",
      "wikiDataId": "Q2064013",
      "country_code": "BR",
      "state_code": "PI",
      "state_id": 2008,
      "country_id": 31
    },
    {
      "id": 13622,
      "name": "Paquetá",
      "name_default": "Paquetá",
      "native": "Paquetá",
      "type": "city",
      "level": null,
      "parent_id": null,
      "population": 3873,
      "latitude": "-7.10746000",
      "longitude": "-41.64719000",
      "timezone": "America/Sao_Paulo",
      "wikiDataId": "Q2065325",
      "country_code": "BR",
      "state_code": "PI",
      "state_id": 2008,
      "country_id": 31
    },
    {
      "id": 13678,
      "name": "Parnaguá",
      "name_default": "Parnaguá",
      "native": "Parnaguá",
      "type": "adm2",
      "level": null,
      "parent_id": null,
      "population": 10282,
      "latitude": "-10.12155000",
      "longitude": "-44.56012000",
      "timezone": "America/Sao_Paulo",
      "wikiDataId": "Q1760286",
      "country_code": "BR",
      "state_code": "PI",
      "state_id": 2008,
      "country_id": 31
    },
    {
      "id": 13682,
      "name": "Parnaíba",
      "name_default": "Parnaíba",
      "native": "Parnaíba",
      "type": "city",
      "level": null,
      "parent_id": null,
      "population": 170491,
      "latitude": "-2.92278000",
      "longitude": "-41.73536000",
      "timezone": "America/Sao_Paulo",
      "wikiDataId": "Q1643864",
      "country_code": "BR",
      "state_code": "PI",
      "state_id": 2008,
      "country_id": 31
    },
    {
      "id": 13694,
      "name": "Passagem Franca do Piauí",
      "name_default": "Passagem Franca do Piauí",
      "native": "Passagem Franca do Piauí",
      "type": "city",
      "level": null,
      "parent_id": null,
      "population": 4222,
      "latitude": "-5.82734000",
      "longitude": "-42.40584000",
      "timezone": "America/Sao_Paulo",
      "wikiDataId": "Q2043365",
      "country_code": "BR",
      "state_code": "PI",
      "state_id": 2008,
      "country_id": 31
    },
    {
      "id": 13708,
      "name": "Patos do Piauí",
      "name_default": "Patos do Piauí",
      "native": "Patos do Piauí",
      "type": "adm2",
      "level": null,
      "parent_id": null,
      "population": 5427,
      "latitude": "-7.60918000",
      "longitude": "-41.29464000",
      "timezone": "America/Sao_Paulo",
      "wikiDataId": "Q984571",
      "country_code": "BR",
      "state_code": "PI",
      "state_id": 2008,
      "country_id": 31
    },
    {
      "id": 13715,
      "name": "Pau D'arco do Piauí",
      "name_default": "Pau D'arco do Piauí",
      "native": "Pau D'arco do Piauí",
      "type": "adm2",
      "level": null,
      "parent_id": null,
      "population": 3979,
      "latitude": "-5.24511000",
      "longitude": "-42.45473000",
      "timezone": "America/Sao_Paulo",
      "wikiDataId": "Q1933647",
      "country_code": "BR",
      "state_code": "PI",
      "state_id": 2008,
      "country_id": 31
    },
    {
      "id": 13728,
      "name": "Paulistana",
      "name_default": "Paulistana",
      "native": "Paulistana",
      "type": "city",
      "level": null,
      "parent_id": null,
      "population": 21633,
      "latitude": "-8.22526000",
      "longitude": "-41.22746000",
      "timezone": "America/Sao_Paulo",
      "wikiDataId": "Q22045212",
      "country_code": "BR",
      "state_code": "PI",
      "state_id": 2008,
      "country_id": 31
    },
    {
      "id": 13740,
      "name": "Pavussu",
      "name_default": "Pavussu",
      "native": "Passuse",
      "type": "city",
      "level": null,
      "parent_id": null,
      "population": 3697,
      "latitude": "-7.88646000",
      "longitude": "-43.19694000",
      "timezone": "America/Sao_Paulo",
      "wikiDataId": "Q40706",
      "country_code": "BR",
      "state_code": "PI",
      "state_id": 2008,
      "country_id": 31
    },
    {
      "id": 13777,
      "name": "Pedro II",
      "name_default": "Pedro II",
      "native": "Pedro II",
      "type": "city",
      "level": null,
      "parent_id": null,
      "population": 39072,
      "latitude": "-4.49028000",
      "longitude": "-41.39962000",
      "timezone": "America/Sao_Paulo",
      "wikiDataId": "Q1934329",
      "country_code": "BR",
      "state_code": "PI",
      "state_id": 2008,
      "country_id": 31
    },
    {
      "id": 13778,
      "name": "Pedro Laurentino",
      "name_default": "Pedro Laurentino",
      "native": "Pedro Laurentino",
      "type": "adm2",
      "level": null,
      "parent_id": null,
      "population": 2517,
      "latitude": "-8.11766000",
      "longitude": "-42.23542000",
      "timezone": "America/Sao_Paulo",
      "wikiDataId": "Q1934329",
      "country_code": "BR",
      "state_code": "PI",
      "state_id": 2008,
      "country_id": 31
    },
    {
      "id": 13829,
      "name": "Picos",
      "name_default": "Picos",
      "native": "Picos",
      "type": "city",
      "level": null,
      "parent_id": null,
      "population": 86701,
      "latitude": "-7.10697000",
      "longitude": "-41.51271000",
      "timezone": "America/Sao_Paulo",
      "wikiDataId": "Q1810825",
      "country_code": "BR",
      "state_code": "PI",
      "state_id": 2008,
      "country_id": 31
    },
    {
      "id": 13846,
      "name": "Pimenteiras",
      "name_default": "Pimenteiras",
      "native": "Pimenteiras",
      "type": "city",
      "level": null,
      "parent_id": null,
      "population": 11341,
      "latitude": "-6.24528000",
      "longitude": "-41.41917000",
      "timezone": "America/Fortaleza",
      "wikiDataId": "Q2077685",
      "country_code": "BR",
      "state_code": "PI",
      "state_id": 2008,
      "country_id": 31
    },
    {
      "id": 13878,
      "name": "Pio IX",
      "name_default": "Pio IX",
      "native": "Hexadecimal",
      "type": "city",
      "level": null,
      "parent_id": null,
      "population": 17948,
      "latitude": "-6.86982000",
      "longitude": "-40.59717000",
      "timezone": "America/Sao_Paulo",
      "wikiDataId": "Q2089220",
      "country_code": "BR",
      "state_code": "PI",
      "state_id": 2008,
      "country_id": 31
    },
    {
      "id": 13887,
      "name": "Piracuruca",
      "name_default": "Piracuruca",
      "native": "Piracuruca",
      "type": "city",
      "level": null,
      "parent_id": null,
      "population": 29721,
      "latitude": "-3.86656000",
      "longitude": "-41.74153000",
      "timezone": "America/Sao_Paulo",
      "wikiDataId": "Q2063996",
      "country_code": "BR",
      "state_code": "PI",
      "state_id": 2008,
      "country_id": 31
    },
    {
      "id": 13917,
      "name": "Piripiri",
      "name_default": "Piripiri",
      "native": "Adesivo",
      "type": "city",
      "level": null,
      "parent_id": null,
      "population": 67887,
      "latitude": "-4.39488000",
      "longitude": "-41.78819000",
      "timezone": "America/Sao_Paulo",
      "wikiDataId": "Q996763",
      "country_code": "BR",
      "state_code": "PI",
      "state_id": 2008,
      "country_id": 31
    },
    {
      "id": 13992,
      "name": "Porto",
      "name_default": "Porto",
      "native": "Porto",
      "type": "city",
      "level": null,
      "parent_id": null,
      "population": 12323,
      "latitude": "-3.94558000",
      "longitude": "-42.68879000",
      "timezone": "America/Fortaleza",
      "wikiDataId": "Q2113232",
      "country_code": "BR",
      "state_code": "PI",
      "state_id": 2008,
      "country_id": 31
    },
    {
      "id": 13996,
      "name": "Porto Alegre do Piauí",
      "name_default": "Porto Alegre do Piauí",
      "native": "Porto Alegre do Piauí",
      "type": "adm2",
      "level": null,
      "parent_id": null,
      "population": 2382,
      "latitude": "-6.95931000",
      "longitude": "-44.07411000",
      "timezone": "America/Sao_Paulo",
      "wikiDataId": "Q40269",
      "country_code": "BR",
      "state_code": "PI",
      "state_id": 2008,
      "country_id": 31
    },
    {
      "id": 14070,
      "name": "Prata do Piauí",
      "name_default": "Prata do Piauí",
      "native": "Prata do Piauí",
      "type": "city",
      "level": null,
      "parent_id": null,
      "population": 3096,
      "latitude": "-5.71099000",
      "longitude": "-42.15331000",
      "timezone": "America/Sao_Paulo",
      "wikiDataId": "Q22066969",
      "country_code": "BR",
      "state_code": "PI",
      "state_id": 2008,
      "country_id": 31
    },
    {
      "id": 14138,
      "name": "Queimada Nova",
      "name_default": "Queimada Nova",
      "native": "Queimada Nova",
      "type": "city",
      "level": null,
      "parent_id": null,
      "population": 8948,
      "latitude": "-8.53997000",
      "longitude": "-41.24753000",
      "timezone": "America/Sao_Paulo",
      "wikiDataId": "Q1772591",
      "country_code": "BR",
      "state_code": "PI",
      "state_id": 2008,
      "country_id": 31
    },
    {
      "id": 14186,
      "name": "Redenção e Gurgueia",
      "name_default": "Redenção do Gurguéia",
      "native": "Redenção do Gurguéia",
      "type": "adm2",
      "level": null,
      "parent_id": null,
      "population": 8565,
      "latitude": "-9.58205000",
      "longitude": "-44.53802000",
      "timezone": "America/Sao_Paulo",
      "wikiDataId": "Q2266648",
      "country_code": "BR",
      "state_code": "PI",
      "state_id": 2008,
      "country_id": 31
    },
    {
      "id": 14188,
      "name": "Adsavidigezh",
      "name_default": "Regeneração",
      "native": "Regeneração",
      "type": "city",
      "level": null,
      "parent_id": null,
      "population": 17400,
      "latitude": "-6.27844000",
      "longitude": "-42.48165000",
      "timezone": "America/Sao_Paulo",
      "wikiDataId": "Q1879913",
      "country_code": "BR",
      "state_code": "PI",
      "state_id": 2008,
      "country_id": 31
    },
    {
      "id": 14210,
      "name": "Riacho Frio",
      "name_default": "Riacho Frio",
      "native": "Riacho Frio",
      "type": "adm2",
      "level": null,
      "parent_id": null,
      "population": 4238,
      "latitude": "-9.83660000",
      "longitude": "-44.67899000",
      "timezone": "America/Sao_Paulo",
      "wikiDataId": "Q1936273",
      "country_code": "BR",
      "state_code": "PI",
      "state_id": 2008,
      "country_id": 31
    },
    {
      "id": 14233,
      "name": "Ribeira do Piauí",
      "name_default": "Ribeira do Piauí",
      "native": "Ribeira do Piauí",
      "type": "city",
      "level": null,
      "parent_id": null,
      "population": 4105,
      "latitude": "-8.09706000",
      "longitude": "-42.57609000",
      "timezone": "America/Sao_Paulo",
      "wikiDataId": "Q691658",
      "country_code": "BR",
      "state_code": "PI",
      "state_id": 2008,
      "country_id": 31
    },
    {
      "id": 14235,
      "name": "Ribeiro Gonçalves",
      "name_default": "Ribeiro Gonçalves",
      "native": "Ribeiro Gonçalves",
      "type": "city",
      "level": null,
      "parent_id": null,
      "population": 6182,
      "latitude": "-8.08721000",
      "longitude": "-45.47197000",
      "timezone": "America/Sao_Paulo",
      "wikiDataId": "Q1793776",
      "country_code": "BR",
      "state_code": "PI",
      "state_id": 2008,
      "country_id": 31
    },
    {
      "id": 14278,
      "name": "Rio Grande do Piauí",
      "name_default": "Rio Grande do Piauí",
      "native": "Rio Grande do Piauí",
      "type": "adm2",
      "level": null,
      "parent_id": null,
      "population": 5845,
      "latitude": "-7.86062000",
      "longitude": "-43.14551000",
      "timezone": "America/Fortaleza",
      "wikiDataId": "Q629855",
      "country_code": "BR",
      "state_code": "PI",
      "state_id": 2008,
      "country_id": 31
    },
    {
      "id": 14454,
      "name": "Santa Cruz do Piauí",
      "name_default": "Santa Cruz do Piauí",
      "native": "Santa Cruz do Piauí",
      "type": "city",
      "level": null,
      "parent_id": null,
      "population": 5872,
      "latitude": "-7.26490000",
      "longitude": "-41.76380000",
      "timezone": "America/Fortaleza",
      "wikiDataId": "Q1124627",
      "country_code": "BR",
      "state_code": "PI",
      "state_id": 2008,
      "country_id": 31
    },
    {
      "id": 14458,
      "name": "Santa Cruz dos Milagres",
      "name_default": "Santa Cruz dos Milagres",
      "native": "Santa Cruz dos Milagres",
      "type": "city",
      "level": null,
      "parent_id": null,
      "population": 3448,
      "latitude": "-5.83227000",
      "longitude": "-41.95795000",
      "timezone": "America/Fortaleza",
      "wikiDataId": "Q781510",
      "country_code": "BR",
      "state_code": "PI",
      "state_id": 2008,
      "country_id": 31
    },
    {
      "id": 14461,
      "name": "Tad Nedeleg Filomena",
      "name_default": "Santa Filomena",
      "native": "Santa Filomena",
      "type": "city",
      "level": null,
      "parent_id": null,
      "population": 6210,
      "latitude": "-8.89582000",
      "longitude": "-45.66715000",
      "timezone": "America/Sao_Paulo",
      "wikiDataId": "Q2340263",
      "country_code": "BR",
      "state_code": "PI",
      "state_id": 2008,
      "country_id": 31
    },
    {
      "id": 14488,
      "name": "Santa Luz",
      "name_default": "Santa Luz",
      "native": "Santa Luz",
      "type": "city",
      "level": null,
      "parent_id": null,
      "population": 5418,
      "latitude": "-8.97437000",
      "longitude": "-44.27778000",
      "timezone": "America/Sao_Paulo",
      "wikiDataId": "Q1938964",
      "country_code": "BR",
      "state_code": "PI",
      "state_id": 2008,
      "country_id": 31
    },
    {
      "id": 14546,
      "name": "Santa Rosa do Piauí",
      "name_default": "Santa Rosa do Piauí",
      "native": "Santa Rosa do Piauí",
      "type": "adm2",
      "level": null,
      "parent_id": null,
      "population": 4666,
      "latitude": "-6.82877000",
      "longitude": "-42.24627000",
      "timezone": "America/Sao_Paulo",
      "wikiDataId": "Q1097771",
      "country_code": "BR",
      "state_code": "PI",
      "state_id": 2008,
      "country_id": 31
    },
    {
      "id": 14591,
      "name": "Santana do Piauí",
      "name_default": "Santana do Piauí",
      "native": "Santana do Piauí",
      "type": "city",
      "level": null,
      "parent_id": null,
      "population": 4159,
      "latitude": "-6.95247000",
      "longitude": "-41.46185000",
      "timezone": "America/Sao_Paulo",
      "wikiDataId": "Q929590",
      "country_code": "BR",
      "state_code": "PI",
      "state_id": 2008,
      "country_id": 31
    },
    {
      "id": 14618,
      "name": "Sant Antonio Lisboa",
      "name_default": "Santo Antônio de Lisboa",
      "native": "Santo Antônio de Lisboa",
      "type": "city",
      "level": null,
      "parent_id": null,
      "population": 5930,
      "latitude": "-6.87642000",
      "longitude": "-41.18103000",
      "timezone": "America/Sao_Paulo",
      "wikiDataId": "Q659267",
      "country_code": "BR",
      "state_code": "PI",
      "state_id": 2008,
      "country_id": 31
    },
    {
      "id": 14643,
      "name": "Santo Antônio dos Milagres",
      "name_default": "Santo Antônio dos Milagres",
      "native": "Santo Antônio dos Milagres",
      "type": "city",
      "level": null,
      "parent_id": null,
      "population": 2169,
      "latitude": "-6.05399000",
      "longitude": "-42.70083000",
      "timezone": "America/Fortaleza",
      "wikiDataId": "Q1984524",
      "country_code": "BR",
      "state_code": "PI",
      "state_id": 2008,
      "country_id": 31
    },
    {
      "id": 14651,
      "name": "Santo Inácio do Piauí",
      "name_default": "Santo Inácio do Piauí",
      "native": "Santo Inácio do Piauí",
      "type": "adm2",
      "level": null,
      "parent_id": null,
      "population": 3682,
      "latitude": "-7.46906000",
      "longitude": "-41.91794000",
      "timezone": "America/Fortaleza",
      "wikiDataId": "Q1798847",
      "country_code": "BR",
      "state_code": "PI",
      "state_id": 2008,
      "country_id": 31
    },
    {
      "id": 14849,
      "name": "São Braz do Piauí",
      "name_default": "São Braz do Piauí",
      "native": "São Braz do Piauí",
      "type": "adm2",
      "level": null,
      "parent_id": null,
      "population": 4454,
      "latitude": "-8.97380000",
      "longitude": "-42.97568000",
      "timezone": "America/Sao_Paulo",
      "wikiDataId": "Q2078851",
      "country_code": "BR",
      "state_code": "PI",
      "state_id": 2008,
      "country_id": 31
    },
    {
      "id": 14904,
      "name": "São Félix do Piauí",
      "name_default": "São Félix do Piauí",
      "native": "São Félix do Piauí",
      "type": "city",
      "level": null,
      "parent_id": null,
      "population": 2879,
      "latitude": "-5.88422000",
      "longitude": "-42.10830000",
      "timezone": "America/Fortaleza",
      "wikiDataId": "Q1788630",
      "country_code": "BR",
      "state_code": "PI",
      "state_id": 2008,
      "country_id": 31
    },
    {
      "id": 14884,
      "name": "São Francisco de Assis do Piauí",
      "name_default": "São Francisco de Assis do Piauí",
      "native": "São Francisco de Assis do Piauí",
      "type": "city",
      "level": null,
      "parent_id": null,
      "population": 5713,
      "latitude": "-8.12334000",
      "longitude": "-41.48056000",
      "timezone": "America/Sao_Paulo",
      "wikiDataId": "Q1750146",
      "country_code": "BR",
      "state_code": "PI",
      "state_id": 2008,
      "country_id": 31
    },
    {
      "id": 14897,
      "name": "São Francisco do Piauí",
      "name_default": "São Francisco do Piauí",
      "native": "São Francisco do Piauí",
      "type": "city",
      "level": null,
      "parent_id": null,
      "population": 5358,
      "latitude": "-7.16899000",
      "longitude": "-42.55086000",
      "timezone": "America/Fortaleza",
      "wikiDataId": "Q2008769",
      "country_code": "BR",
      "state_code": "PI",
      "state_id": 2008,
      "country_id": 31
    },
    {
      "id": 14920,
      "name": "São Gonçalo do Gurgueia",
      "name_default": "São Gonçalo do Gurguéia",
      "native": "São Gonçalo do Gurguéia",
      "type": "adm2",
      "level": null,
      "parent_id": null,
      "population": 3026,
      "latitude": "-10.07630000",
      "longitude": "-45.42387000",
      "timezone": "America/Sao_Paulo",
      "wikiDataId": "Q2088944",
      "country_code": "BR",
      "state_code": "PI",
      "state_id": 2008,
      "country_id": 31
    },
    {
      "id": 14922,
      "name": "São Gonçalo do Piauí",
      "name_default": "São Gonçalo do Piauí",
      "native": "São Gonçalo do Piauí",
      "type": "city",
      "level": null,
      "parent_id": null,
      "population": 4985,
      "latitude": "-6.02033000",
      "longitude": "-42.67020000",
      "timezone": "America/Sao_Paulo",
      "wikiDataId": "Q1788460",
      "country_code": "BR",
      "state_code": "PI",
      "state_id": 2008,
      "country_id": 31
    },
    {
      "id": 15008,
      "name": "São João da Canabrava",
      "name_default": "São João da Canabrava",
      "native": "São João da Canabrava",
      "type": "adm2",
      "level": null,
      "parent_id": null,
      "population": 4359,
      "latitude": "-6.72756000",
      "longitude": "-41.38226000",
      "timezone": "America/Sao_Paulo",
      "wikiDataId": "Q925419",
      "country_code": "BR",
      "state_code": "PI",
      "state_id": 2008,
      "country_id": 31
    },
    {
      "id": 15009,
      "name": "São João da Fronteira",
      "name_default": "São João da Fronteira",
      "native": "São João da Fronteira",
      "type": "city",
      "level": null,
      "parent_id": null,
      "population": 5608,
      "latitude": "-4.09363000",
      "longitude": "-41.21552000",
      "timezone": "America/Sao_Paulo",
      "wikiDataId": "Q925419",
      "country_code": "BR",
      "state_code": "PI",
      "state_id": 2008,
      "country_id": 31
    },
    {
      "id": 15015,
      "name": "São João da Serra",
      "name_default": "São João da Serra",
      "native": "São João da Serra",
      "type": "city",
      "level": null,
      "parent_id": null,
      "population": 6232,
      "latitude": "-5.44173000",
      "longitude": "-41.85793000",
      "timezone": "America/Sao_Paulo",
      "wikiDataId": "Q2099643",
      "country_code": "BR",
      "state_code": "PI",
      "state_id": 2008,
      "country_id": 31
    },
    {
      "id": 15017,
      "name": "São João da Varjota",
      "name_default": "São João da Varjota",
      "native": "São João da Varjota",
      "type": "adm2",
      "level": null,
      "parent_id": null,
      "population": 4430,
      "latitude": "-6.94733000",
      "longitude": "-41.92917000",
      "timezone": "America/Sao_Paulo",
      "wikiDataId": "Q2099643",
      "country_code": "BR",
      "state_code": "PI",
      "state_id": 2008,
      "country_id": 31
    },
    {
      "id": 15025,
      "name": "São João do Arraial",
      "name_default": "São João do Arraial",
      "native": "São João do Arraial",
      "type": "adm2",
      "level": null,
      "parent_id": null,
      "population": 8494,
      "latitude": "-3.80325000",
      "longitude": "-42.46973000",
      "timezone": "America/Fortaleza",
      "wikiDataId": "Q740965",
      "country_code": "BR",
      "state_code": "PI",
      "state_id": 2008,
      "country_id": 31
    },
    {
      "id": 15040,
      "name": "São João do Piauí",
      "name_default": "São João do Piauí",
      "native": "São João do Piauí",
      "type": "adm2",
      "level": null,
      "parent_id": null,
      "population": 22137,
      "latitude": "-8.27575000",
      "longitude": "-42.34005000",
      "timezone": "America/Sao_Paulo",
      "wikiDataId": "Q1937319",
      "country_code": "BR",
      "state_code": "PI",
      "state_id": 2008,
      "country_id": 31
    },
    {
      "id": 14968,
      "name": "São José do Divino",
      "name_default": "São José do Divino",
      "native": "São José do Divino",
      "type": "adm2",
      "level": null,
      "parent_id": null,
      "population": 3482,
      "latitude": "-3.74297000",
      "longitude": "-41.90119000",
      "timezone": "America/Sao_Paulo",
      "wikiDataId": "Q1802815",
      "country_code": "BR",
      "state_code": "PI",
      "state_id": 2008,
      "country_id": 31
    },
    {
      "id": 14980,
      "name": "São José do Peixe",
      "name_default": "São José do Peixe",
      "native": "São José do Peixe",
      "type": "city",
      "level": null,
      "parent_id": null,
      "population": 3300,
      "latitude": "-7.49544000",
      "longitude": "-42.49355000",
      "timezone": "America/Sao_Paulo",
      "wikiDataId": "Q1760621",
      "country_code": "BR",
      "state_code": "PI",
      "state_id": 2008,
      "country_id": 31
    },
    {
      "id": 14981,
      "name": "São José do Piauí",
      "name_default": "São José do Piauí",
      "native": "São José do Piauí",
      "type": "city",
      "level": null,
      "parent_id": null,
      "population": 6733,
      "latitude": "-6.84096000",
      "longitude": "-41.51702000",
      "timezone": "America/Sao_Paulo",
      "wikiDataId": "Q1760621",
      "country_code": "BR",
      "state_code": "PI",
      "state_id": 2008,
      "country_id": 31
    },
    {
      "id": 15050,
      "name": "São Julião",
      "name_default": "São Julião",
      "native": "São Julião",
      "type": "city",
      "level": null,
      "parent_id": null,
      "population": 6131,
      "latitude": "-7.05987000",
      "longitude": "-40.79725000",
      "timezone": "America/Sao_Paulo",
      "wikiDataId": "Q1987363",
      "country_code": "BR",
      "state_code": "PI",
      "state_id": 2008,
      "country_id": 31
    },
    {
      "id": 15056,
      "name": "São Lourenço do Piauí",
      "name_default": "São Lourenço do Piauí",
      "native": "São Lourenço do Piauí",
      "type": "city",
      "level": null,
      "parent_id": null,
      "population": 4497,
      "latitude": "-9.13336000",
      "longitude": "-42.40297000",
      "timezone": "America/Sao_Paulo",
      "wikiDataId": "Q1759029",
      "country_code": "BR",
      "state_code": "PI",
      "state_id": 2008,
      "country_id": 31
    },
    {
      "id": 15059,
      "name": "São Luis do Piauí",
      "name_default": "São Luis do Piauí",
      "native": "São Luis do Piauí",
      "type": "adm2",
      "level": null,
      "parent_id": null,
      "population": 2277,
      "latitude": "-6.77801000",
      "longitude": "-41.27650000",
      "timezone": "America/Sao_Paulo",
      "wikiDataId": "Q326349",
      "country_code": "BR",
      "state_code": "PI",
      "state_id": 2008,
      "country_id": 31
    },