{
  "locale": "zh-CN",
  "country": {
    "id": 82,
    "code": "DE",
    "iso3": "DEU",
    "numeric_code": "276",
    "name": "德国",
    "name_default": "Germany",
    "native": "Deutschland",
    "capital": "Berlin",
    "phonecode": "49",
    "currency": "EUR",
    "currency_name": "Euro",
    "currency_symbol": "€",
    "tld": ".de",
    "population": 83517030,
    "gdp": 4744804,
    "region": "Europe",
    "region_id": 4,
    "subregion": "Western Europe",
    "subregion_id": 17,
    "nationality": "German",
    "timezones": [
      {
        "zoneName": "Europe/Berlin",
        "gmtOffset": 3600,
        "gmtOffsetName": "UTC+01:00",
        "abbreviation": "CET",
        "tzName": "Central European Time"
      },
      {
        "zoneName": "Europe/Busingen",
        "gmtOffset": 3600,
        "gmtOffsetName": "UTC+01:00",
        "abbreviation": "CET",
        "tzName": "Central European Time"
      }
    ],
    "latitude": "51.00000000",
    "longitude": "9.00000000",
    "emoji": "🇩🇪",
    "emojiU": "U+1F1E9 U+1F1EA"
  },
  "state": {
    "id": 3020,
    "code": "SL",
    "iso2": "SL",
    "iso3166_2": "DE-SL",
    "fips_code": "09",
    "name": "萨尔州",
    "name_default": "Saarland",
    "native": "Saarland",
    "type": "land",
    "level": null,
    "parent_id": null,
    "population": 994424,
    "latitude": "49.38418720",
    "longitude": "6.95373690",
    "timezone": "Europe/Berlin",
    "wikiDataId": "Q1201",
    "country_code": "DE"
  },
  "cities": [
    {
      "id": 23978,
      "name": "贝金根",
      "name_default": "Beckingen",
      "native": "Beckingen",
      "type": "adm4",
      "level": null,
      "parent_id": null,
      "population": 14945,
      "latitude": "49.40000000",
      "longitude": "6.70000000",
      "timezone": "Europe/Berlin",
      "wikiDataId": "Q559689",
      "country_code": "DE",
      "state_code": "SL",
      "state_id": 3020,
      "country_id": 82
    },
    {
      "id": 24094,
      "name": "贝克斯巴赫",
      "name_default": "Bexbach",
      "native": "Bexbach",
      "type": "city",
      "level": null,
      "parent_id": null,
      "population": 18962,
      "latitude": "49.34615000",
      "longitude": "7.25527000",
      "timezone": "Europe/Berlin",
      "wikiDataId": "Q504022",
      "country_code": "DE",
      "state_code": "SL",
      "state_id": 3020,
      "country_id": 82
    },
    {
      "id": 24182,
      "name": "布利斯卡斯特尔",
      "name_default": "Blieskastel",
      "native": "Blieskastel",
      "type": "city",
      "level": null,
      "parent_id": null,
      "population": 20202,
      "latitude": "49.23724000",
      "longitude": "7.25617000",
      "timezone": "Europe/Berlin",
      "wikiDataId": "Q523709",
      "country_code": "DE",
      "state_code": "SL",
      "state_id": 3020,
      "country_id": 82
    },
    {
      "id": 24264,
      "name": "布斯",
      "name_default": "Bous",
      "native": "Bous",
      "type": "adm4",
      "level": null,
      "parent_id": null,
      "population": 7058,
      "latitude": "49.27732000",
      "longitude": "6.80131000",
      "timezone": "Europe/Berlin",
      "wikiDataId": "Q3069",
      "country_code": "DE",
      "state_code": "SL",
      "state_id": 3020,
      "country_id": 82
    },
    {
      "id": 24336,
      "name": "布里顿",
      "name_default": "Britten",
      "native": "Britten",
      "type": "city",
      "level": null,
      "parent_id": null,
      "population": 1400,
      "latitude": "49.52061000",
      "longitude": "6.67651000",
      "timezone": "Europe/Berlin",
      "wikiDataId": "Q31921832",
      "country_code": "DE",
      "state_code": "SL",
      "state_id": 3020,
      "country_id": 82
    },
    {
      "id": 24690,
      "name": "迪林根",
      "name_default": "Dillingen",
      "native": "Dillingen",
      "type": "city",
      "level": null,
      "parent_id": null,
      "population": 21526,
      "latitude": "49.35557000",
      "longitude": "6.72781000",
      "timezone": "Europe/Berlin",
      "wikiDataId": "Q158408",
      "country_code": "DE",
      "state_code": "SL",
      "state_id": 3020,
      "country_id": 82
    },
    {
      "id": 25014,
      "name": "恩斯多夫",
      "name_default": "Ensdorf",
      "native": "Ensdorf",
      "type": "adm4",
      "level": null,
      "parent_id": null,
      "population": 6652,
      "latitude": "49.30000000",
      "longitude": "6.78333000",
      "timezone": "Europe/Berlin",
      "wikiDataId": "Q2760",
      "country_code": "DE",
      "state_code": "SL",
      "state_id": 3020,
      "country_id": 82
    },
    {
      "id": 25018,
      "name": "埃珀尔博恩",
      "name_default": "Eppelborn",
      "native": "Eppelborn",
      "type": "adm4",
      "level": null,
      "parent_id": null,
      "population": 16507,
      "latitude": "49.40000000",
      "longitude": "6.96667000",
      "timezone": "Europe/Berlin",
      "wikiDataId": "Q570286",
      "country_code": "DE",
      "state_code": "SL",
      "state_id": 3020,
      "country_id": 82
    },
    {
      "id": 25250,
      "name": "弗赖森",
      "name_default": "Freisen",
      "native": "Freisen",
      "type": "adm4",
      "level": null,
      "parent_id": null,
      "population": 7867,
      "latitude": "49.55000000",
      "longitude": "7.25000000",
      "timezone": "Europe/Berlin",
      "wikiDataId": "Q569850",
      "country_code": "DE",
      "state_code": "SL",
      "state_id": 3020,
      "country_id": 82
    },
    {
      "id": 25294,
      "name": "弗里德里希斯塔尔",
      "name_default": "Friedrichsthal",
      "native": "Friedrichsthal",
      "type": "city",
      "level": null,
      "parent_id": null,
      "population": 9887,
      "latitude": "49.32786000",
      "longitude": "7.09622000",
      "timezone": "Europe/Berlin",
      "wikiDataId": "Q32018650",
      "country_code": "DE",
      "state_code": "SL",
      "state_id": 3020,
      "country_id": 82
    },
    {
      "id": 25332,
      "name": "菲尔斯滕豪森",
      "name_default": "Fürstenhausen",
      "native": "Fürstenhausen",
      "type": "adm4",
      "level": null,
      "parent_id": null,
      "population": 2200,
      "latitude": "49.24075000",
      "longitude": "6.86817000",
      "timezone": "Europe/Berlin",
      "wikiDataId": "Q505727",
      "country_code": "DE",
      "state_code": "SL",
      "state_id": 3020,
      "country_id": 82
    },
    {
      "id": 25460,
      "name": "格斯海姆",
      "name_default": "Gersheim",
      "native": "Gersheim",
      "type": "adm4",
      "level": null,
      "parent_id": null,
      "population": 6289,
      "latitude": "49.15000000",
      "longitude": "7.20000000",
      "timezone": "Europe/Berlin",
      "wikiDataId": "Q627722",
      "country_code": "DE",
      "state_code": "SL",
      "state_id": 3020,
      "country_id": 82
    },
    {
      "id": 25701,
      "name": "大罗瑟尔恩",
      "name_default": "Großrosseln",
      "native": "Großrosseln",
      "type": "adm4",
      "level": null,
      "parent_id": null,
      "population": 7891,
      "latitude": "49.20296000",
      "longitude": "6.84148000",
      "timezone": "Europe/Berlin",
      "wikiDataId": "Q39797",
      "country_code": "DE",
      "state_code": "SL",
      "state_id": 3020,
      "country_id": 82
    },
    {
      "id": 25887,
      "name": "机库",
      "name_default": "Hangard",
      "native": "Hangard",
      "type": "city",
      "level": null,
      "parent_id": null,
      "population": 1970,
      "latitude": "49.38260000",
      "longitude": "7.21046000",
      "timezone": "Europe/Berlin",
      "wikiDataId": "Q631638",
      "country_code": "DE",
      "state_code": "SL",
      "state_id": 3020,
      "country_id": 82
    },
    {
      "id": 25990,
      "name": "海德斯托克",
      "name_default": "Heidstock",
      "native": "Heidstock",
      "type": "adm4",
      "level": null,
      "parent_id": null,
      "population": 4550,
      "latitude": "49.25571000",
      "longitude": "6.88156000",
      "timezone": "Europe/Berlin",
      "wikiDataId": "Q524535",
      "country_code": "DE",
      "state_code": "SL",
      "state_id": 3020,
      "country_id": 82
    },
    {
      "id": 26125,
      "name": "霍伊斯魏勒",
      "name_default": "Heusweiler",
      "native": "Heusweiler",
      "type": "adm4",
      "level": null,
      "parent_id": null,
      "population": 18158,
      "latitude": "49.33632000",
      "longitude": "6.93036000",
      "timezone": "Europe/Berlin",
      "wikiDataId": "Q558914",
      "country_code": "DE",
      "state_code": "SL",
      "state_id": 3020,
      "country_id": 82
    },
    {
      "id": 26252,
      "name": "洪堡",
      "name_default": "Homburg",
      "native": "Homburg",
      "type": "adm3",
      "level": null,
      "parent_id": null,
      "population": 44607,
      "latitude": "49.32637000",
      "longitude": "7.33867000",
      "timezone": "Europe/Berlin",
      "wikiDataId": "Q624176",
      "country_code": "DE",
      "state_code": "SL",
      "state_id": 3020,
      "country_id": 82
    },
    {
      "id": 26369,
      "name": "伊林根",
      "name_default": "Illingen",
      "native": "Illingen",
      "type": "city",
      "level": null,
      "parent_id": null,
      "population": 18488,
      "latitude": "49.37362000",
      "longitude": "7.04758000",
      "timezone": "Europe/Berlin",
      "wikiDataId": "Q517653",
      "country_code": "DE",
      "state_code": "SL",
      "state_id": 3020,
      "country_id": 82
    },
    {
      "id": 26641,
      "name": "柯克尔",
      "name_default": "Kirkel",
      "native": "Kirkel",
      "type": "adm4",
      "level": null,
      "parent_id": null,
      "population": 10090,
      "latitude": "49.28333000",
      "longitude": "7.23333000",
      "timezone": "Europe/Berlin",
      "wikiDataId": "Q553589",
      "country_code": "DE",
      "state_code": "SL",
      "state_id": 3020,
      "country_id": 82
    },
    {
      "id": 26669,
      "name": "克莱因布利特斯多夫",
      "name_default": "Kleinblittersdorf",
      "native": "Kleinblittersdorf",
      "type": "adm4",
      "level": null,
      "parent_id": null,
      "population": 10786,
      "latitude": "49.15780000",
      "longitude": "7.03734000",
      "timezone": "Europe/Berlin",
      "wikiDataId": "Q39781",
      "country_code": "DE",
      "state_code": "SL",
      "state_id": 3020,
      "country_id": 82
    },
    {
      "id": 26994,
      "name": "莱巴赫",
      "name_default": "Lebach",
      "native": "Lebach",
      "type": "city",
      "level": null,
      "parent_id": null,
      "population": 19108,
      "latitude": "49.41122000",
      "longitude": "6.90988000",
      "timezone": "Europe/Berlin",
      "wikiDataId": "Q558593",
      "country_code": "DE",
      "state_code": "SL",
      "state_id": 3020,
      "country_id": 82
    },
    {
      "id": 27151,
      "name": "洛斯海姆",
      "name_default": "Losheim",
      "native": "Losheim",
      "type": "city",
      "level": null,
      "parent_id": null,
      "population": 16660,
      "latitude": "49.50990000",
      "longitude": "6.74549000",
      "timezone": "Europe/Berlin",
      "wikiDataId": "Q32110632",
      "country_code": "DE",
      "state_code": "SL",
      "state_id": 3020,
      "country_id": 82
    },
    {
      "id": 27162,
      "name": "路德韦勒-沃恩特",
      "name_default": "Ludweiler-Warndt",
      "native": "Ludweiler-worrdt",
      "type": "adm4",
      "level": null,
      "parent_id": null,
      "population": 5922,
      "latitude": "49.22074000",
      "longitude": "6.81195000",
      "timezone": "Europe/Berlin",
      "wikiDataId": "Q574146",
      "country_code": "DE",
      "state_code": "SL",
      "state_id": 3020,
      "country_id": 82
    },
    {
      "id": 27173,
      "name": "卢森塔尔",
      "name_default": "Luisenthal",
      "native": "LUISENTHAL",
      "type": "adm4",
      "level": null,
      "parent_id": null,
      "population": 1636,
      "latitude": "49.24932000",
      "longitude": "6.90057000",
      "timezone": "Europe/Berlin",
      "wikiDataId": "Q546691",
      "country_code": "DE",
      "state_code": "SL",
      "state_id": 3020,
      "country_id": 82
    },
    {
      "id": 27245,
      "name": "美因茨韦勒",
      "name_default": "Mainzweiler",
      "native": "Mainzweiler",
      "type": "city",
      "level": null,
      "parent_id": null,
      "population": 1105,
      "latitude": "49.41714000",
      "longitude": "7.11804000",
      "timezone": "Europe/Berlin",
      "wikiDataId": "Q32117045",
      "country_code": "DE",
      "state_code": "SL",
      "state_id": 3020,
      "country_id": 82
    },
    {
      "id": 27323,
      "name": "马尔平根",
      "name_default": "Marpingen",
      "native": "Marping",
      "type": "adm4",
      "level": null,
      "parent_id": null,
      "population": 10002,
      "latitude": "49.45228000",
      "longitude": "7.05820000",
      "timezone": "Europe/Berlin",
      "wikiDataId": "Q630853",
      "country_code": "DE",
      "state_code": "SL",
      "state_id": 3020,
      "country_id": 82
    },
    {
      "id": 27415,
      "name": "默希韦勒",
      "name_default": "Merchweiler",
      "native": "Merchweiler",
      "type": "adm4",
      "level": null,
      "parent_id": null,
      "population": 9900,
      "latitude": "49.35000000",
      "longitude": "7.05000000",
      "timezone": "Europe/Berlin",
      "wikiDataId": "Q630725",
      "country_code": "DE",
      "state_code": "SL",
      "state_id": 3020,
      "country_id": 82
    },
    {
      "id": 27430,
      "name": "梅尔齐希",
      "name_default": "Merzig",
      "native": "Merzig",
      "type": "adm3",
      "level": null,
      "parent_id": null,
      "population": 30070,
      "latitude": "49.44331000",
      "longitude": "6.63874000",
      "timezone": "Europe/Berlin",
      "wikiDataId": "Q632798",
      "country_code": "DE",
      "state_code": "SL",
      "state_id": 3020,
      "country_id": 82
    },
    {
      "id": 27442,
      "name": "梅特拉赫",
      "name_default": "Mettlach",
      "native": "Metling Meisterschaft",
      "type": "adm4",
      "level": null,
      "parent_id": null,
      "population": 3279,
      "latitude": "49.49489000",
      "longitude": "6.58562000",
      "timezone": "Europe/Berlin",
      "wikiDataId": "Q543627",
      "country_code": "DE",
      "state_code": "SL",
      "state_id": 3020,
      "country_id": 82
    },
    {
      "id": 27639,
      "name": "纳尔巴赫",
      "name_default": "Nalbach",
      "native": "Nalbach",
      "type": "adm4",
      "level": null,
      "parent_id": null,
      "population": 9101,
      "latitude": "49.38333000",
      "longitude": "6.78333000",
      "timezone": "Europe/Berlin",
      "wikiDataId": "Q553221",
      "country_code": "DE",
      "state_code": "SL",
      "state_id": 3020,
      "country_id": 82
    },
    {
      "id": 27640,
      "name": "南博恩",
      "name_default": "Namborn",
      "native": "Namborn",
      "type": "adm4",
      "level": null,
      "parent_id": null,
      "population": 6951,
      "latitude": "49.52166000",
      "longitude": "7.14070000",
      "timezone": "Europe/Berlin",
      "wikiDataId": "Q555251",
      "country_code": "DE",
      "state_code": "SL",
      "state_id": 3020,
      "country_id": 82
    },
    {
      "id": 27780,
      "name": "诺因基兴",
      "name_default": "Neunkirchen",
      "native": "Nunkirchen",
      "type": "adm3",
      "level": null,
      "parent_id": null,
      "population": 49843,
      "latitude": "49.34449000",
      "longitude": "7.18045000",
      "timezone": "Europe/Berlin",
      "wikiDataId": "Q6880",
      "country_code": "DE",
      "state_code": "SL",
      "state_id": 3020,
      "country_id": 82
    },
    {
      "id": 27907,
      "name": "诺费尔登",
      "name_default": "Nohfelden",
      "native": "Nohfeld",
      "type": "adm4",
      "level": null,
      "parent_id": null,
      "population": 9982,
      "latitude": "49.58693000",
      "longitude": "7.14283000",
      "timezone": "Europe/Berlin",
      "wikiDataId": "Q570209",
      "country_code": "DE",
      "state_code": "SL",
      "state_id": 3020,
      "country_id": 82
    },
    {
      "id": 27910,
      "name": "农韦勒",
      "name_default": "Nonnweiler",
      "native": "Nonweut",
      "type": "adm4",
      "level": null,
      "parent_id": null,
      "population": 8489,
      "latitude": "49.60762000",
      "longitude": "6.96986000",
      "timezone": "Europe/Berlin",
      "wikiDataId": "Q550261",
      "country_code": "DE",
      "state_code": "SL",
      "state_id": 3020,
      "country_id": 82
    },
    {
      "id": 28046,
      "name": "奥伯塔尔",
      "name_default": "Oberthal",
      "native": "Oberthal",
      "type": "adm4",
      "level": null,
      "parent_id": null,
      "population": 6008,
      "latitude": "49.51257000",
      "longitude": "7.08382000",
      "timezone": "Europe/Berlin",
      "wikiDataId": "Q544761",
      "country_code": "DE",
      "state_code": "SL",
      "state_id": 3020,
      "country_id": 82
    },
    {
      "id": 28128,
      "name": "奥尔绍尔茨",
      "name_default": "Orscholz",
      "native": "Orscholz",
      "type": "city",
      "level": null,
      "parent_id": null,
      "population": 3576,
      "latitude": "49.50593000",
      "longitude": "6.52502000",
      "timezone": "Europe/Berlin",
      "wikiDataId": "Q1656236",
      "country_code": "DE",
      "state_code": "SL",
      "state_id": 3020,
      "country_id": 82
    },
    {
      "id": 28197,
      "name": "奥特韦勒",
      "name_default": "Ottweiler",
      "native": "Ottweiler",
      "type": "city",
      "level": null,
      "parent_id": null,
      "population": 14522,
      "latitude": "49.40133000",
      "longitude": "7.16424000",
      "timezone": "Europe/Berlin",
      "wikiDataId": "Q562147",
      "country_code": "DE",
      "state_code": "SL",
      "state_id": 3020,
      "country_id": 82
    },
    {
      "id": 28423,
      "name": "皮特林根",
      "name_default": "Püttlingen",
      "native": "Püttlingen",
      "type": "city",
      "level": null,
      "parent_id": null,
      "population": 18243,
      "latitude": "49.28550000",
      "longitude": "6.88723000",
      "timezone": "Europe/Berlin",
      "wikiDataId": "Q544908",
      "country_code": "DE",
      "state_code": "SL",
      "state_id": 3020,
      "country_id": 82
    },
    {
      "id": 28433,
      "name": "基尔斯基德",
      "name_default": "Quierschied",
      "native": "Quiersschur",
      "type": "adm4",
      "level": null,
      "parent_id": null,
      "population": 12896,
      "latitude": "49.31667000",
      "longitude": "7.05000000",
      "timezone": "Europe/Berlin",
      "wikiDataId": "Q662580",
      "country_code": "DE",
      "state_code": "SL",
      "state_id": 3020,
      "country_id": 82
    },
    {
      "id": 28639,
      "name": "里格尔斯贝格",
      "name_default": "Riegelsberg",
      "native": "Riegelberg",
      "type": "adm4",
      "level": null,
      "parent_id": null,
      "population": 14331,
      "latitude": "49.30000000",
      "longitude": "6.93333000",
      "timezone": "Europe/Berlin",
      "wikiDataId": "Q628341",
      "country_code": "DE",
      "state_code": "SL",
      "state_id": 3020,
      "country_id": 82
    },
    {
      "id": 28775,
      "name": "劳希灵高地",
      "name_default": "Röchling-Höhe",
      "native": "Röchling-Höhe",
      "type": "adm4",
      "level": null,
      "parent_id": null,
      "population": 4550,
      "latitude": "49.27102000",
      "longitude": "6.83457000",
      "timezone": "Europe/Berlin",
      "wikiDataId": "Q689577",
      "country_code": "DE",
      "state_code": "SL",
      "state_id": 3020,
      "country_id": 82
    },
    {
      "id": 28816,
      "name": "萨尔布吕肯",
      "name_default": "Saarbrücken",
      "native": "Saarbrücken",
      "type": "adm1",
      "level": null,
      "parent_id": null,
      "population": 183509,
      "latitude": "49.23262000",
      "longitude": "7.00982000",
      "timezone": "Europe/Berlin",
      "wikiDataId": "Q1724",
      "country_code": "DE",
      "state_code": "SL",
      "state_id": 3020,
      "country_id": 82
    },
    {
      "id": 28818,
      "name": "萨尔霍尔茨巴赫",
      "name_default": "Saarhölzbach",
      "native": "Saarhölzbach",
      "type": "city",
      "level": null,
      "parent_id": null,
      "population": 1530,
      "latitude": "49.51585000",
      "longitude": "6.60742000",
      "timezone": "Europe/Berlin",
      "wikiDataId": "Q543639",
      "country_code": "DE",
      "state_code": "SL",
      "state_id": 3020,
      "country_id": 82
    },
    {
      "id": 28819,
      "name": "萨尔路易",
      "name_default": "Saarlouis",
      "native": "Saarlouis",
      "type": "adm3",
      "level": null,
      "parent_id": null,
      "population": 34893,
      "latitude": "49.31366000",
      "longitude": "6.75154000",
      "timezone": "Europe/Berlin",
      "wikiDataId": "Q14912",
      "country_code": "DE",
      "state_code": "SL",
      "state_id": 3020,
      "country_id": 82
    },
    {
      "id": 28820,
      "name": "萨尔韦林根",
      "name_default": "Saarwellingen",
      "native": "Sarewelves",
      "type": "city",
      "level": null,
      "parent_id": null,
      "population": 13347,
      "latitude": "49.35430000",
      "longitude": "6.80487000",
      "timezone": "Europe/Berlin",
      "wikiDataId": "Q555648",
      "country_code": "DE",
      "state_code": "SL",
      "state_id": 3020,
      "country_id": 82
    },
    {
      "id": 28869,
      "name": "圣英贝特",
      "name_default": "Sankt Ingbert",
      "native": "Sankt Ingbert",
      "type": "city",
      "level": null,
      "parent_id": null,
      "population": 35046,
      "latitude": "49.27697000",
      "longitude": "7.11672000",
      "timezone": "Europe/Berlin",
      "wikiDataId": "Q32278322",
      "country_code": "DE",
      "state_code": "SL",
      "state_id": 3020,
      "country_id": 82
    },
    {
      "id": 28883,
      "name": "圣温德尔",
      "name_default": "Sankt Wendel",
      "native": "Sankt Wendel",
      "type": "adm3",
      "level": null,
      "parent_id": null,
      "population": 25503,
      "latitude": "49.46633000",
      "longitude": "7.16814000",
      "timezone": "Europe/Berlin",
      "wikiDataId": "Q20749",
      "country_code": "DE",
      "state_code": "SL",
      "state_id": 3020,
      "country_id": 82
    },
    {
      "id": 28944,
      "name": "希夫韦勒",
      "name_default": "Schiffweiler",
      "native": "Schiffweiler",
      "type": "adm4",
      "level": null,
      "parent_id": null,
      "population": 15537,
      "latitude": "49.36667000",
      "longitude": "7.13333000",
      "timezone": "Europe/Berlin",
      "wikiDataId": "Q631957",
      "country_code": "DE",
      "state_code": "SL",
      "state_id": 3020,
      "country_id": 82
    },
    {
      "id": 28990,
      "name": "施梅尔茨",
      "name_default": "Schmelz",
      "native": "Schmelz",
      "type": "adm4",
      "level": null,
      "parent_id": null,
      "population": 16343,
      "latitude": "49.43333000",
      "longitude": "6.85000000",
      "timezone": "Europe/Berlin",
      "wikiDataId": "Q641689",
      "country_code": "DE",
      "state_code": "SL",
      "state_id": 3020,
      "country_id": 82
    },
    {
      "id": 29049,
      "name": "施瓦尔巴赫",
      "name_default": "Schwalbach",
      "native": "Schwalbach",
      "type": "adm4",
      "level": null,
      "parent_id": null,
      "population": 17208,
      "latitude": "49.30000000",
      "longitude": "6.81667000",
      "timezone": "Europe/Berlin",
      "wikiDataId": "Q81712",
      "country_code": "DE",
      "state_code": "SL",
      "state_id": 3020,
      "country_id": 82
    },
    {
      "id": 29302,
      "name": "施皮森-埃尔弗斯贝格",
      "name_default": "Spiesen-Elversberg",
      "native": "Spiesen-Elversberg",
      "type": "adm4",
      "level": null,
      "parent_id": null,
      "population": 12843,
      "latitude": "49.31667000",
      "longitude": "7.13333000",
      "timezone": "Europe/Berlin",
      "wikiDataId": "Q629932",
      "country_code": "DE",
      "state_code": "SL",
      "state_id": 3020,
      "country_id": 82
    },
    {
      "id": 29467,
      "name": "苏尔茨巴赫",
      "name_default": "Sulzbach",
      "native": "Sulzbach",
      "type": "city",
      "level": null,
      "parent_id": null,
      "population": 16368,
      "latitude": "49.29882000",
      "longitude": "7.05696000",
      "timezone": "Europe/Berlin",
      "wikiDataId": "Q83167",
      "country_code": "DE",
      "state_code": "SL",
      "state_id": 3020,
      "country_id": 82
    },
    {
      "id": 29596,
      "name": "托莱",
      "name_default": "Tholey",
      "native": "Tholey",
      "type": "adm4",
      "level": null,
      "parent_id": null,
      "population": 12358,
      "latitude": "49.48374000",
      "longitude": "7.03691000",
      "timezone": "Europe/Berlin",
      "wikiDataId": "Q638618",
      "country_code": "DE",
      "state_code": "SL",
      "state_id": 3020,
      "country_id": 82
    },
    {
      "id": 30554,
      "name": "于伯赫恩",
      "name_default": "Überherrn",
      "native": "Überherrn",
      "type": "city",
      "level": null,
      "parent_id": null,
      "population": 11591,
      "latitude": "49.24187000",
      "longitude": "6.69840000",
      "timezone": "Europe/Berlin",
      "wikiDataId": "Q332495",
      "country_code": "DE",
      "state_code": "SL",
      "state_id": 3020,
      "country_id": 82
    },
    {
      "id": 29892,
      "name": "弗尔克林根",
      "name_default": "Völklingen",
      "native": "Völklingen",
      "type": "city",
      "level": null,
      "parent_id": null,
      "population": 41632,
      "latitude": "49.25162000",
      "longitude": "6.85873000",
      "timezone": "Europe/Berlin",
      "wikiDataId": "Q14876",
      "country_code": "DE",
      "state_code": "SL",
      "state_id": 3020,
      "country_id": 82
    },
    {
      "id": 29910,
      "name": "瓦登",
      "name_default": "Wadern",
      "native": "Wadern",
      "type": "city",
      "level": null,
      "parent_id": null,
      "population": 15860,
      "latitude": "49.54122000",
      "longitude": "6.88774000",
      "timezone": "Europe/Berlin",
      "wikiDataId": "Q529164",
      "country_code": "DE",
      "state_code": "SL",
      "state_id": 3020,
      "country_id": 82
    },
    {
      "id": 29912,
      "name": "瓦德加森",
      "name_default": "Wadgassen",
      "native": "Wadgassen",
      "type": "adm4",
      "level": null,
      "parent_id": null,
      "population": 17076,
      "latitude": "49.26667000",
      "longitude": "6.78333000",
      "timezone": "Europe/Berlin",
      "wikiDataId": "Q253419",
      "country_code": "DE",
      "state_code": "SL",
      "state_id": 3020,
      "country_id": 82
    },
    {
      "id": 29977,
      "name": "瓦勒凡根",
      "name_default": "Wallerfangen",
      "native": "Wallerfen anangen",
      "type": "adm4",
      "level": null,
      "parent_id": null,
      "population": 9322,
      "latitude": "49.32749000",
      "longitude": "6.71102000",
      "timezone": "Europe/Berlin",
      "wikiDataId": "Q665005",
      "country_code": "DE",
      "state_code": "SL",
      "state_id": 3020,
      "country_id": 82
    },
    {
      "id": 30110,
      "name": "魏斯基兴",
      "name_default": "Weiskirchen",
      "native": "Weiskirchen",
      "type": "adm4",
      "level": null,
      "parent_id": null,
      "population": 6334,
      "latitude": "49.55000000",
      "longitude": "6.81667000",
      "timezone": "Europe/Berlin",
      "wikiDataId": "Q570294",
      "country_code": "DE",
      "state_code": "SL",
      "state_id": 3020,
      "country_id": 82
    },
    {
      "id": 30115,
      "name": "维滕",
      "name_default": "Weiten",
      "native": "Weiten",
      "type": "city",
      "level": null,
      "parent_id": null,
      "population": 1209,
      "latitude": "49.53011000",
      "longitude": "6.54064000",
      "timezone": "Europe/Berlin",
      "wikiDataId": "Q561811",
      "country_code": "DE",
      "state_code": "SL",
      "state_id": 3020,
      "country_id": 82
    }
  ]
}
