{
  "locale": "tr",
  "country": {
    "id": 161,
    "code": "NG",
    "iso3": "NGA",
    "numeric_code": "566",
    "name": "Nijerya",
    "name_default": "Nigeria",
    "native": "Nigeria",
    "capital": "Abuja",
    "phonecode": "234",
    "currency": "NGN",
    "currency_name": "Nigerian naira",
    "currency_symbol": "₦",
    "tld": ".ng",
    "population": 223800000,
    "gdp": 188271,
    "region": "Africa",
    "region_id": 1,
    "subregion": "Western Africa",
    "subregion_id": 3,
    "nationality": "Nigerian",
    "timezones": [
      {
        "zoneName": "Africa/Lagos",
        "gmtOffset": 3600,
        "gmtOffsetName": "UTC+01:00",
        "abbreviation": "WAT",
        "tzName": "West Africa Time"
      }
    ],
    "latitude": "10.00000000",
    "longitude": "8.00000000",
    "emoji": "🇳🇬",
    "emojiU": "U+1F1F3 U+1F1EC"
  },
  "state": {
    "id": 321,
    "code": "ON",
    "iso2": "ON",
    "iso3166_2": "NG-ON",
    "fips_code": "48",
    "name": "Ondo",
    "name_default": "Ondo",
    "native": "Ondo",
    "type": "state",
    "level": null,
    "parent_id": null,
    "population": null,
    "latitude": "7.02096860",
    "longitude": "5.05674770",
    "timezone": "Africa/Lagos",
    "wikiDataId": "Q836654",
    "country_code": "NG"
  },
  "cities": [
    {
      "id": 76755,
      "name": "Ağbabu",
      "name_default": "Agbabu",
      "native": "Railth",
      "type": "city",
      "level": null,
      "parent_id": null,
      "population": 8611,
      "latitude": "6.58862000",
      "longitude": "4.83430000",
      "timezone": "Africa/Lagos",
      "wikiDataId": "Q4689247",
      "country_code": "NG",
      "state_code": "ON",
      "state_id": 321,
      "country_id": 161
    },
    {
      "id": 76765,
      "name": "Akure",
      "name_default": "Akure",
      "native": "Akure",
      "type": "adm1",
      "level": null,
      "parent_id": null,
      "population": 847903,
      "latitude": "7.25256000",
      "longitude": "5.19312000",
      "timezone": "Africa/Lagos",
      "wikiDataId": "Q423831",
      "country_code": "NG",
      "state_code": "ON",
      "state_id": 321,
      "country_id": 161
    },
    {
      "id": 76911,
      "name": "İdanre",
      "name_default": "Idanre",
      "native": "Smart",
      "type": "city",
      "level": null,
      "parent_id": null,
      "population": 86468,
      "latitude": "7.11270000",
      "longitude": "5.11590000",
      "timezone": "Africa/Lagos",
      "wikiDataId": "Q183298",
      "country_code": "NG",
      "state_code": "ON",
      "state_id": 321,
      "country_id": 161
    },
    {
      "id": 76915,
      "name": "Ifon",
      "name_default": "Ifon",
      "native": "Tab",
      "type": "adm2",
      "level": null,
      "parent_id": null,
      "population": 7623,
      "latitude": "6.92973000",
      "longitude": "5.77368000",
      "timezone": "Africa/Lagos",
      "wikiDataId": "Q183298",
      "country_code": "NG",
      "state_code": "ON",
      "state_id": 321,
      "country_id": 161
    },
    {
      "id": 76939,
      "name": "Ilare",
      "name_default": "Ilare",
      "native": "Hilarious",
      "type": "city",
      "level": null,
      "parent_id": null,
      "population": 7685,
      "latitude": "7.35067000",
      "longitude": "5.11333000",
      "timezone": "Africa/Lagos",
      "wikiDataId": "Q3498903",
      "country_code": "NG",
      "state_code": "ON",
      "state_id": 321,
      "country_id": 161
    },
    {
      "id": 77050,
      "name": "Övgü",
      "name_default": "Ode",
      "native": "Ode",
      "type": "city",
      "level": null,
      "parent_id": null,
      "population": 75463,
      "latitude": "7.78990000",
      "longitude": "5.71170000",
      "timezone": "Africa/Lagos",
      "wikiDataId": "Q7074926",
      "country_code": "NG",
      "state_code": "ON",
      "state_id": 321,
      "country_id": 161
    },
    {
      "id": 77067,
      "name": "Ondo",
      "name_default": "Ondo",
      "native": "Ondo",
      "type": "adm2",
      "level": null,
      "parent_id": null,
      "population": 375000,
      "latitude": "7.09316000",
      "longitude": "4.83528000",
      "timezone": "Africa/Lagos",
      "wikiDataId": "Q1853310",
      "country_code": "NG",
      "state_code": "ON",
      "state_id": 321,
      "country_id": 161
    },
    {
      "id": 77070,
      "name": "Cevher",
      "name_default": "Ore",
      "native": "Ore",
      "type": "adm2",
      "level": null,
      "parent_id": null,
      "population": 13905,
      "latitude": "6.74716000",
      "longitude": "4.87610000",
      "timezone": "Africa/Lagos",
      "wikiDataId": "Q852238",
      "country_code": "NG",
      "state_code": "ON",
      "state_id": 321,
      "country_id": 161
    },
    {
      "id": 77079,
      "name": "Owo",
      "name_default": "Owo",
      "native": "Money",
      "type": "adm2",
      "level": null,
      "parent_id": null,
      "population": 276574,
      "latitude": "7.19620000",
      "longitude": "5.58681000",
      "timezone": "Africa/Lagos",
      "wikiDataId": "Q1788128",
      "country_code": "NG",
      "state_code": "ON",
      "state_id": 321,
      "country_id": 161
    }
  ]
}
