{
  "locale": "ru",
  "country": {
    "id": 90,
    "code": "GT",
    "iso3": "GTM",
    "numeric_code": "320",
    "name": "Гватемала",
    "name_default": "Guatemala",
    "native": "Guatemala",
    "capital": "Guatemala City",
    "phonecode": "502",
    "currency": "GTQ",
    "currency_name": "Guatemalan quetzal",
    "currency_symbol": "Q",
    "tld": ".gt",
    "population": 18079810,
    "gdp": 121177,
    "region": "Americas",
    "region_id": 2,
    "subregion": "Central America",
    "subregion_id": 9,
    "nationality": "Guatemalan",
    "timezones": [
      {
        "zoneName": "America/Guatemala",
        "gmtOffset": -21600,
        "gmtOffsetName": "UTC-06:00",
        "abbreviation": "CST",
        "tzName": "Central Standard Time (North America"
      }
    ],
    "latitude": "15.50000000",
    "longitude": "-90.25000000",
    "emoji": "🇬🇹",
    "emojiU": "U+1F1EC U+1F1F9"
  },
  "state": {
    "id": 3666,
    "code": "20",
    "iso2": "20",
    "iso3166_2": "GT-20",
    "fips_code": "20",
    "name": "Чикимула",
    "name_default": "Chiquimula ",
    "native": "Chiquimula",
    "type": "department",
    "level": null,
    "parent_id": null,
    "population": null,
    "latitude": "14.80057090",
    "longitude": "-89.54591730",
    "timezone": "America/Guatemala",
    "wikiDataId": "Q753037",
    "country_code": "GT"
  },
  "cities": [
    {
      "id": 53439,
      "name": "Камотан",
      "name_default": "Camotán",
      "native": "Camotán",
      "type": "adm2",
      "level": null,
      "parent_id": null,
      "population": 1597,
      "latitude": "14.82017000",
      "longitude": "-89.37224000",
      "timezone": "America/Guatemala",
      "wikiDataId": "Q388686",
      "country_code": "GT",
      "state_code": "20",
      "state_id": 3666,
      "country_id": 90
    },
    {
      "id": 53455,
      "name": "Чикимула",
      "name_default": "Chiquimula",
      "native": "Chiquimula",
      "type": "adm1",
      "level": null,
      "parent_id": null,
      "population": 111505,
      "latitude": "14.80000000",
      "longitude": "-89.54583000",
      "timezone": "America/Guatemala",
      "wikiDataId": "Q1025536",
      "country_code": "GT",
      "state_code": "20",
      "state_id": 3666,
      "country_id": 90
    },
    {
      "id": 53471,
      "name": "Консепсьон Лас Минас",
      "name_default": "Concepción Las Minas",
      "native": "Concepción Las Minas",
      "type": "adm2",
      "level": null,
      "parent_id": null,
      "population": 1295,
      "latitude": "14.52173000",
      "longitude": "-89.45717000",
      "timezone": "America/Guatemala",
      "wikiDataId": "Q1954363",
      "country_code": "GT",
      "state_code": "20",
      "state_id": 3666,
      "country_id": 90
    },
    {
      "id": 53492,
      "name": "Эскипулас",
      "name_default": "Esquipulas",
      "native": "Esquipulas",
      "type": "adm2",
      "level": null,
      "parent_id": null,
      "population": 20674,
      "latitude": "14.56571000",
      "longitude": "-89.35166000",
      "timezone": "America/Guatemala",
      "wikiDataId": "Q3058634",
      "country_code": "GT",
      "state_code": "20",
      "state_id": 3666,
      "country_id": 90
    },
    {
      "id": 53505,
      "name": "Ипала",
      "name_default": "Ipala",
      "native": "Zawala",
      "type": "adm2",
      "level": null,
      "parent_id": null,
      "population": 5283,
      "latitude": "14.61667000",
      "longitude": "-89.61667000",
      "timezone": "America/Guatemala",
      "wikiDataId": "Q1748611",
      "country_code": "GT",
      "state_code": "20",
      "state_id": 3666,
      "country_id": 90
    },
    {
      "id": 53514,
      "name": "Хокотан",
      "name_default": "Jocotán",
      "native": "Yocotano",
      "type": "adm2",
      "level": null,
      "parent_id": null,
      "population": 8387,
      "latitude": "14.82072000",
      "longitude": "-89.38991000",
      "timezone": "America/Guatemala",
      "wikiDataId": "Q1954342",
      "country_code": "GT",
      "state_code": "20",
      "state_id": 3666,
      "country_id": 90
    },
    {
      "id": 53611,
      "name": "Олопа",
      "name_default": "Olopa",
      "native": "Policía",
      "type": "adm2",
      "level": null,
      "parent_id": null,
      "population": 1690,
      "latitude": "14.69229000",
      "longitude": "-89.35003000",
      "timezone": "America/Guatemala",
      "wikiDataId": "Q2025333",
      "country_code": "GT",
      "state_code": "20",
      "state_id": 3666,
      "country_id": 90
    },
    {
      "id": 53639,
      "name": "Кесальтепеке",
      "name_default": "Quezaltepeque",
      "native": "Quezaltepeque",
      "type": "adm2",
      "level": null,
      "parent_id": null,
      "population": 4126,
      "latitude": "14.63553000",
      "longitude": "-89.44241000",
      "timezone": "America/Guatemala",
      "wikiDataId": "Q1981325",
      "country_code": "GT",
      "state_code": "20",
      "state_id": 3666,
      "country_id": 90
    },
    {
      "id": 53679,
      "name": "Сан-Хасинто",
      "name_default": "San Jacinto",
      "native": "San Jacinto",
      "type": "city",
      "level": null,
      "parent_id": null,
      "population": 1519,
      "latitude": "14.66667000",
      "longitude": "-89.50000000",
      "timezone": "America/Guatemala",
      "wikiDataId": "Q978109",
      "country_code": "GT",
      "state_code": "20",
      "state_id": 3666,
      "country_id": 90
    },
    {
      "id": 53685,
      "name": "Сан-Хосе-ла-Арада",
      "name_default": "San José La Arada",
      "native": "San José La Arada",
      "type": "adm2",
      "level": null,
      "parent_id": null,
      "population": 2361,
      "latitude": "14.71667000",
      "longitude": "-89.58333000",
      "timezone": "America/Guatemala",
      "wikiDataId": "Q1749098",
      "country_code": "GT",
      "state_code": "20",
      "state_id": 3666,
      "country_id": 90
    },
    {
      "id": 53695,
      "name": "Сан-Хуан-Эрмита",
      "name_default": "San Juan Ermita",
      "native": "San Juan Ermita",
      "type": "adm2",
      "level": null,
      "parent_id": null,
      "population": 1623,
      "latitude": "14.76471000",
      "longitude": "-89.43014000",
      "timezone": "America/Guatemala",
      "wikiDataId": "Q2025266",
      "country_code": "GT",
      "state_code": "20",
      "state_id": 3666,
      "country_id": 90
    }
  ]
}
