{
  "locale": "pt-BR",
  "country": {
    "id": 174,
    "code": "PH",
    "iso3": "PHL",
    "numeric_code": "608",
    "name": "Filipinas",
    "name_default": "Philippines",
    "native": "Pilipinas",
    "capital": "Manila",
    "phonecode": "63",
    "currency": "PHP",
    "currency_name": "Philippine peso",
    "currency_symbol": "₱",
    "tld": ".ph",
    "population": 114123600,
    "gdp": 497495,
    "region": "Asia",
    "region_id": 3,
    "subregion": "South-Eastern Asia",
    "subregion_id": 13,
    "nationality": "Philippine, Filipino",
    "timezones": [
      {
        "zoneName": "Asia/Manila",
        "gmtOffset": 28800,
        "gmtOffsetName": "UTC+08:00",
        "abbreviation": "PHT",
        "tzName": "Philippine Time"
      }
    ],
    "latitude": "13.00000000",
    "longitude": "122.00000000",
    "emoji": "🇵🇭",
    "emojiU": "U+1F1F5 U+1F1ED"
  },
  "state": {
    "id": 1280,
    "code": "SCO",
    "iso2": "SCO",
    "iso3166_2": "PH-SCO",
    "fips_code": "70",
    "name": "Cotabato do Sul",
    "name_default": "South Cotabato",
    "native": "South Cotabato",
    "type": "province",
    "level": "1",
    "parent_id": "1310",
    "population": 1010009,
    "latitude": "6.28552390",
    "longitude": "124.93330960",
    "timezone": "Asia/Manila",
    "wikiDataId": "Q13882",
    "country_code": "PH"
  },
  "cities": [
    {
      "id": 154805,
      "name": "Banga",
      "name_default": "Banga",
      "native": "Banga",
      "type": "city",
      "level": null,
      "parent_id": null,
      "population": 91536,
      "latitude": "6.38235180",
      "longitude": "124.64562710",
      "timezone": "Asia/Manila",
      "wikiDataId": "Q173870",
      "country_code": "PH",
      "state_code": "SCO",
      "state_id": 1280,
      "country_id": 174
    },
    {
      "id": 143945,
      "name": "General Santos",
      "name_default": "General Santos",
      "native": "General Santos",
      "type": "city",
      "level": null,
      "parent_id": null,
      "population": 722059,
      "latitude": "6.13742790",
      "longitude": "124.99270490",
      "timezone": "Asia/Manila",
      "wikiDataId": "Q594275",
      "country_code": "PH",
      "state_code": "SCO",
      "state_id": 1280,
      "country_id": 174
    },
    {
      "id": 143972,
      "name": "Koronadal",
      "name_default": "Koronadal",
      "native": "Koronadal",
      "type": "city",
      "level": null,
      "parent_id": null,
      "population": 201844,
      "latitude": "6.46431840",
      "longitude": "124.74763690",
      "timezone": "Asia/Manila",
      "wikiDataId": "Q542154",
      "country_code": "PH",
      "state_code": "SCO",
      "state_id": 1280,
      "country_id": 174
    },
    {
      "id": 82986,
      "name": "Lago Sebu",
      "name_default": "Lake Sebu",
      "native": "Lake sebu",
      "type": "city",
      "level": null,
      "parent_id": null,
      "population": null,
      "latitude": "6.24969680",
      "longitude": "124.26238640",
      "timezone": "Asia/Manila",
      "wikiDataId": "Q173898",
      "country_code": "PH",
      "state_code": "SCO",
      "state_id": 1280,
      "country_id": 174
    },
    {
      "id": 144044,
      "name": "Norala",
      "name_default": "Norala",
      "native": "Norala",
      "type": "city",
      "level": null,
      "parent_id": null,
      "population": 4003,
      "latitude": "6.52797580",
      "longitude": "124.59392620",
      "timezone": "Asia/Manila",
      "wikiDataId": "Q173922",
      "country_code": "PH",
      "state_code": "SCO",
      "state_id": 1280,
      "country_id": 174
    },
    {
      "id": 144064,
      "name": "Polomolok",
      "name_default": "Polomolok",
      "native": "Polomolok",
      "type": "city",
      "level": null,
      "parent_id": null,
      "population": 4352,
      "latitude": "6.24668840",
      "longitude": "124.98295370",
      "timezone": "Asia/Manila",
      "wikiDataId": "Q173944",
      "country_code": "PH",
      "state_code": "SCO",
      "state_id": 1280,
      "country_id": 174
    },
    {
      "id": 148096,
      "name": "Santo Niño",
      "name_default": "Santo Niño",
      "native": "Holy Child",
      "type": "city",
      "level": null,
      "parent_id": null,
      "population": 3463,
      "latitude": "6.43889210",
      "longitude": "124.58973350",
      "timezone": "Asia/Manila",
      "wikiDataId": "Q173965",
      "country_code": "PH",
      "state_code": "SCO",
      "state_id": 1280,
      "country_id": 174
    },
    {
      "id": 144088,
      "name": "Surallah",
      "name_default": "Surallah",
      "native": "Surallah",
      "type": "city",
      "level": null,
      "parent_id": null,
      "population": 91412,
      "latitude": "6.33262440",
      "longitude": "124.56322960",
      "timezone": "Asia/Manila",
      "wikiDataId": "Q173986",
      "country_code": "PH",
      "state_code": "SCO",
      "state_id": 1280,
      "country_id": 174
    },
    {
      "id": 154806,
      "name": "T'Boli",
      "name_default": "T'Boli",
      "native": "T'boli",
      "type": "adm3",
      "level": null,
      "parent_id": null,
      "population": null,
      "latitude": "6.14320840",
      "longitude": "124.69536580",
      "timezone": "Asia/Manila",
      "wikiDataId": "Q174003",
      "country_code": "PH",
      "state_code": "SCO",
      "state_id": 1280,
      "country_id": 174
    },
    {
      "id": 144097,
      "name": "Tampakan",
      "name_default": "Tampakan",
      "native": "Tampakan",
      "type": "city",
      "level": null,
      "parent_id": null,
      "population": 5344,
      "latitude": "6.46592380",
      "longitude": "124.88455610",
      "timezone": "Asia/Manila",
      "wikiDataId": "Q174018",
      "country_code": "PH",
      "state_code": "SCO",
      "state_id": 1280,
      "country_id": 174
    },
    {
      "id": 144098,
      "name": "Tantangan",
      "name_default": "Tantangan",
      "native": "Challenge",
      "type": "city",
      "level": null,
      "parent_id": null,
      "population": 3785,
      "latitude": "6.56745980",
      "longitude": "124.57796090",
      "timezone": "Asia/Manila",
      "wikiDataId": "Q174039",
      "country_code": "PH",
      "state_code": "SCO",
      "state_id": 1280,
      "country_id": 174
    },
    {
      "id": 144107,
      "name": "Tupi",
      "name_default": "Tupi",
      "native": "Tupi",
      "type": "city",
      "level": null,
      "parent_id": null,
      "population": 6408,
      "latitude": "6.33117350",
      "longitude": "124.82647230",
      "timezone": "Asia/Manila",
      "wikiDataId": "Q174055",
      "country_code": "PH",
      "state_code": "SCO",
      "state_id": 1280,
      "country_id": 174
    }
  ]
}
