{
  "locale": "pt",
  "country": {
    "id": 74,
    "code": "FI",
    "iso3": "FIN",
    "numeric_code": "246",
    "name": "Finlândia",
    "name_default": "Finland",
    "native": "Suomi",
    "capital": "Helsinki",
    "phonecode": "358",
    "currency": "EUR",
    "currency_name": "Euro",
    "currency_symbol": "€",
    "tld": ".fi",
    "population": 5645651,
    "gdp": 303945,
    "region": "Europe",
    "region_id": 4,
    "subregion": "Northern Europe",
    "subregion_id": 18,
    "nationality": "Finnish",
    "timezones": [
      {
        "zoneName": "Europe/Helsinki",
        "gmtOffset": 7200,
        "gmtOffsetName": "UTC+02:00",
        "abbreviation": "EET",
        "tzName": "Eastern European Time"
      }
    ],
    "latitude": "64.00000000",
    "longitude": "26.00000000",
    "emoji": "🇫🇮",
    "emojiU": "U+1F1EB U+1F1EE"
  },
  "state": {
    "id": 1498,
    "code": "03",
    "iso2": "03",
    "iso3166_2": "FI-03",
    "fips_code": "14",
    "name": "Ostrobótnia do Sul",
    "name_default": "Southern Ostrobothnia",
    "native": "Etelä -Ostrobothnia",
    "type": "region",
    "level": null,
    "parent_id": null,
    "population": 191762,
    "latitude": "62.94330990",
    "longitude": "23.52852670",
    "timezone": "Europe/Helsinki",
    "wikiDataId": "Q5692",
    "country_code": "FI"
  },
  "cities": [
    {
      "id": 39130,
      "name": "Ähtäri",
      "name_default": "Ähtäri",
      "native": "Ähtäri",
      "type": "adm3",
      "level": null,
      "parent_id": null,
      "population": 5316,
      "latitude": "62.55403000",
      "longitude": "24.06186000",
      "timezone": "Europe/Helsinki",
      "wikiDataId": "Q1407166",
      "country_code": "FI",
      "state_code": "03",
      "state_id": 1498,
      "country_id": 74
    },
    {
      "id": 38730,
      "name": "Alahärmä",
      "name_default": "Alahärmä",
      "native": "Alahärmä",
      "type": "adm3",
      "level": null,
      "parent_id": null,
      "population": 4915,
      "latitude": "63.23333000",
      "longitude": "22.85000000",
      "timezone": "Europe/Helsinki",
      "wikiDataId": "Q575090",
      "country_code": "FI",
      "state_code": "03",
      "state_id": 1498,
      "country_id": 74
    },
    {
      "id": 38731,
      "name": "Alajärvi",
      "name_default": "Alajärvi",
      "native": "Alajärvi",
      "type": "adm3",
      "level": null,
      "parent_id": null,
      "population": 8793,
      "latitude": "63.00000000",
      "longitude": "23.81667000",
      "timezone": "Europe/Helsinki",
      "wikiDataId": "Q5980",
      "country_code": "FI",
      "state_code": "03",
      "state_id": 1498,
      "country_id": 74
    },
    {
      "id": 38734,
      "name": "Álavo",
      "name_default": "Alavus",
      "native": "Alavus",
      "type": "adm3",
      "level": null,
      "parent_id": null,
      "population": 10933,
      "latitude": "62.58333000",
      "longitude": "23.61667000",
      "timezone": "Europe/Helsinki",
      "wikiDataId": "Q5981",
      "country_code": "FI",
      "state_code": "03",
      "state_id": 1498,
      "country_id": 74
    },
    {
      "id": 38751,
      "name": "Evijärvi",
      "name_default": "Evijärvi",
      "native": "Evijärvi",
      "type": "adm3",
      "level": null,
      "parent_id": null,
      "population": 2292,
      "latitude": "63.36667000",
      "longitude": "23.48333000",
      "timezone": "Europe/Helsinki",
      "wikiDataId": "Q1001783",
      "country_code": "FI",
      "state_code": "03",
      "state_id": 1498,
      "country_id": 74
    },
    {
      "id": 38785,
      "name": "Ilmajoki",
      "name_default": "Ilmajoki",
      "native": "Ilmajoki",
      "type": "adm3",
      "level": null,
      "parent_id": null,
      "population": 12369,
      "latitude": "62.73333000",
      "longitude": "22.56667000",
      "timezone": "Europe/Helsinki",
      "wikiDataId": "Q748533",
      "country_code": "FI",
      "state_code": "03",
      "state_id": 1498,
      "country_id": 74
    },
    {
      "id": 38791,
      "name": "Isojoki",
      "name_default": "Isojoki",
      "native": "Isojoki",
      "type": "adm3",
      "level": null,
      "parent_id": null,
      "population": 1814,
      "latitude": "62.11319000",
      "longitude": "21.95884000",
      "timezone": "Europe/Helsinki",
      "wikiDataId": "Q1025692",
      "country_code": "FI",
      "state_code": "03",
      "state_id": 1498,
      "country_id": 74
    },
    {
      "id": 38796,
      "name": "Jalasjärvi",
      "name_default": "Jalasjärvi",
      "native": "Jalasjärvi",
      "type": "city",
      "level": null,
      "parent_id": null,
      "population": null,
      "latitude": "62.50000000",
      "longitude": "22.75000000",
      "timezone": "Europe/Helsinki",
      "wikiDataId": "Q1679567",
      "country_code": "FI",
      "state_code": "03",
      "state_id": 1498,
      "country_id": 74
    },
    {
      "id": 38804,
      "name": "Jurva",
      "name_default": "Jurva",
      "native": "Jurva",
      "type": "adm3",
      "level": null,
      "parent_id": null,
      "population": 4450,
      "latitude": "62.68333000",
      "longitude": "21.98333000",
      "timezone": "Europe/Helsinki",
      "wikiDataId": "Q1369780",
      "country_code": "FI",
      "state_code": "03",
      "state_id": 1498,
      "country_id": 74
    },
    {
      "id": 38826,
      "name": "Karijoki",
      "name_default": "Karijoki",
      "native": "Karijoki",
      "type": "adm3",
      "level": null,
      "parent_id": null,
      "population": 1188,
      "latitude": "62.30851000",
      "longitude": "21.70856000",
      "timezone": "Europe/Helsinki",
      "wikiDataId": "Q2392663",
      "country_code": "FI",
      "state_code": "03",
      "state_id": 1498,
      "country_id": 74
    },
    {
      "id": 38835,
      "name": "Kauhajoki",
      "name_default": "Kauhajoki",
      "native": "Kauhajoki",
      "type": "adm3",
      "level": null,
      "parent_id": null,
      "population": 12618,
      "latitude": "62.43333000",
      "longitude": "22.18333000",
      "timezone": "Europe/Helsinki",
      "wikiDataId": "Q5992",
      "country_code": "FI",
      "state_code": "03",
      "state_id": 1498,
      "country_id": 74
    },
    {
      "id": 38836,
      "name": "Kauhava",
      "name_default": "Kauhava",
      "native": "Kauhava",
      "type": "adm3",
      "level": null,
      "parent_id": null,
      "population": 15165,
      "latitude": "63.10299000",
      "longitude": "23.07129000",
      "timezone": "Europe/Helsinki",
      "wikiDataId": "Q6009",
      "country_code": "FI",
      "state_code": "03",
      "state_id": 1498,
      "country_id": 74
    },
    {
      "id": 38871,
      "name": "Kortesjärvi",
      "name_default": "Kortesjärvi",
      "native": "Kortesjärvi",
      "type": "adm3",
      "level": null,
      "parent_id": null,
      "population": 2400,
      "latitude": "63.30000000",
      "longitude": "23.16667000",
      "timezone": "Europe/Helsinki",
      "wikiDataId": "Q1025741",
      "country_code": "FI",
      "state_code": "03",
      "state_id": 1498,
      "country_id": 74
    },
    {
      "id": 38882,
      "name": "Kuortane",
      "name_default": "Kuortane",
      "native": "Kuortane",
      "type": "adm3",
      "level": null,
      "parent_id": null,
      "population": 3381,
      "latitude": "62.80000000",
      "longitude": "23.50000000",
      "timezone": "Europe/Helsinki",
      "wikiDataId": "Q6012",
      "country_code": "FI",
      "state_code": "03",
      "state_id": 1498,
      "country_id": 74
    },
    {
      "id": 38883,
      "name": "Kurikka",
      "name_default": "Kurikka",
      "native": "Kurikka",
      "type": "adm3",
      "level": null,
      "parent_id": null,
      "population": 19759,
      "latitude": "62.61667000",
      "longitude": "22.41667000",
      "timezone": "Europe/Helsinki",
      "wikiDataId": "Q6012",
      "country_code": "FI",
      "state_code": "03",
      "state_id": 1498,
      "country_id": 74
    },
    {
      "id": 38898,
      "name": "Lappajärvi",
      "name_default": "Lappajärvi",
      "native": "Lappajärvi",
      "type": "adm3",
      "level": null,
      "parent_id": null,
      "population": 2789,
      "latitude": "63.20000000",
      "longitude": "23.63333000",
      "timezone": "Europe/Helsinki",
      "wikiDataId": "Q519763",
      "country_code": "FI",
      "state_code": "03",
      "state_id": 1498,
      "country_id": 74
    },
    {
      "id": 38901,
      "name": "Lápua",
      "name_default": "Lapua",
      "native": "Lapua",
      "type": "adm3",
      "level": null,
      "parent_id": null,
      "population": 14024,
      "latitude": "62.96927000",
      "longitude": "23.00880000",
      "timezone": "Europe/Helsinki",
      "wikiDataId": "Q6023",
      "country_code": "FI",
      "state_code": "03",
      "state_id": 1498,
      "country_id": 74
    },
    {
      "id": 38906,
      "name": "Lehtimäki",
      "name_default": "Lehtimäki",
      "native": "Lehtimäki",
      "type": "city",
      "level": null,
      "parent_id": null,
      "population": null,
      "latitude": "62.78333000",
      "longitude": "23.91667000",
      "timezone": "Europe/Helsinki",
      "wikiDataId": "Q1641563",
      "country_code": "FI",
      "state_code": "03",
      "state_id": 1498,
      "country_id": 74
    },
    {
      "id": 38959,
      "name": "Nurmo",
      "name_default": "Nurmo",
      "native": "Nurmo",
      "type": "city",
      "level": null,
      "parent_id": null,
      "population": null,
      "latitude": "62.82870000",
      "longitude": "22.90990000",
      "timezone": "Europe/Helsinki",
      "wikiDataId": "Q205804",
      "country_code": "FI",
      "state_code": "03",
      "state_id": 1498,
      "country_id": 74
    },
    {
      "id": 39044,
      "name": "Seinäjoki",
      "name_default": "Seinäjoki",
      "native": "Seinäjoki",
      "type": "adm1",
      "level": null,
      "parent_id": null,
      "population": 66271,
      "latitude": "62.79446000",
      "longitude": "22.82822000",
      "timezone": "Europe/Helsinki",
      "wikiDataId": "Q984938",
      "country_code": "FI",
      "state_code": "03",
      "state_id": 1498,
      "country_id": 74
    },
    {
      "id": 39053,
      "name": "Soini",
      "name_default": "Soini",
      "native": "Soini",
      "type": "adm3",
      "level": null,
      "parent_id": null,
      "population": 1873,
      "latitude": "62.86667000",
      "longitude": "24.21667000",
      "timezone": "Europe/Helsinki",
      "wikiDataId": "Q502175",
      "country_code": "FI",
      "state_code": "03",
      "state_id": 1498,
      "country_id": 74
    },
    {
      "id": 39076,
      "name": "Teuva",
      "name_default": "Teuva",
      "native": "Teuva",
      "type": "adm3",
      "level": null,
      "parent_id": null,
      "population": 4758,
      "latitude": "62.48190000",
      "longitude": "21.74156000",
      "timezone": "Europe/Helsinki",
      "wikiDataId": "Q990585",
      "country_code": "FI",
      "state_code": "03",
      "state_id": 1498,
      "country_id": 74
    },
    {
      "id": 39087,
      "name": "Töysä",
      "name_default": "Töysä",
      "native": "Töysä",
      "type": "city",
      "level": null,
      "parent_id": null,
      "population": 3144,
      "latitude": "62.62803000",
      "longitude": "23.81828000",
      "timezone": "Europe/Helsinki",
      "wikiDataId": "Q6168",
      "country_code": "FI",
      "state_code": "03",
      "state_id": 1498,
      "country_id": 74
    },
    {
      "id": 39111,
      "name": "Vimpeli",
      "name_default": "Vimpeli",
      "native": "Vimpeli",
      "type": "adm3",
      "level": null,
      "parent_id": null,
      "population": 2656,
      "latitude": "63.16187000",
      "longitude": "23.81922000",
      "timezone": "Europe/Helsinki",
      "wikiDataId": "Q992240",
      "country_code": "FI",
      "state_code": "03",
      "state_id": 1498,
      "country_id": 74
    },
    {
      "id": 39122,
      "name": "Ylihärmä",
      "name_default": "Ylihärmä",
      "native": "Ylihärmä",
      "type": "adm3",
      "level": null,
      "parent_id": null,
      "population": 2836,
      "latitude": "63.15000000",
      "longitude": "22.78333000",
      "timezone": "Europe/Helsinki",
      "wikiDataId": "Q119845",
      "country_code": "FI",
      "state_code": "03",
      "state_id": 1498,
      "country_id": 74
    },
    {
      "id": 39124,
      "name": "Ylistaro",
      "name_default": "Ylistaro",
      "native": "Ylistaro",
      "type": "city",
      "level": null,
      "parent_id": null,
      "population": null,
      "latitude": "62.93958000",
      "longitude": "22.51306000",
      "timezone": "Europe/Helsinki",
      "wikiDataId": "Q653167",
      "country_code": "FI",
      "state_code": "03",
      "state_id": 1498,
      "country_id": 74
    }
  ]
}
