{
  "locale": "ko",
  "country": {
    "id": 232,
    "code": "GB",
    "iso3": "GBR",
    "numeric_code": "826",
    "name": "영국",
    "name_default": "United Kingdom",
    "native": "United Kingdom",
    "capital": "London",
    "phonecode": "44",
    "currency": "GBP",
    "currency_name": "British pound",
    "currency_symbol": "£",
    "tld": ".uk",
    "population": 68265209,
    "gdp": 3839180,
    "region": "Europe",
    "region_id": 4,
    "subregion": "Northern Europe",
    "subregion_id": 18,
    "nationality": "British, UK",
    "timezones": [
      {
        "zoneName": "Europe/London",
        "gmtOffset": 0,
        "gmtOffsetName": "UTC±00",
        "abbreviation": "GMT",
        "tzName": "Greenwich Mean Time"
      }
    ],
    "latitude": "54.00000000",
    "longitude": "-2.00000000",
    "emoji": "🇬🇧",
    "emojiU": "U+1F1EC U+1F1E7"
  },
  "state": {
    "id": 2527,
    "code": "RCC",
    "iso2": "RCC",
    "iso3166_2": "GB-RCC",
    "fips_code": "K9",
    "name": "레드카와 클리블랜드",
    "name_default": "Redcar and Cleveland",
    "native": "Redcar and Cleveland",
    "type": "unitary authority",
    "level": "2",
    "parent_id": "2336",
    "population": 139228,
    "latitude": "54.56790560",
    "longitude": "-1.00549630",
    "timezone": "Europe/London",
    "wikiDataId": "Q1434448",
    "country_code": "GB"
  },
  "cities": [
    {
      "id": 48510,
      "name": "빌스데일",
      "name_default": "Bilsdale",
      "native": "Bilsdale",
      "type": "locality",
      "level": null,
      "parent_id": null,
      "population": 1841,
      "latitude": "54.37356000",
      "longitude": "-1.11923000",
      "timezone": "Europe/London",
      "wikiDataId": "Q4911982",
      "country_code": "GB",
      "state_code": "RCC",
      "state_id": 2527,
      "country_id": 232
    },
    {
      "id": 48593,
      "name": "부스벡",
      "name_default": "Boosbeck",
      "native": "Boosbeck",
      "type": "city",
      "level": null,
      "parent_id": null,
      "population": 1168,
      "latitude": "54.54265000",
      "longitude": "-0.98139000",
      "timezone": "Europe/London",
      "wikiDataId": "Q303161",
      "country_code": "GB",
      "state_code": "RCC",
      "state_id": 2527,
      "country_id": 232
    },
    {
      "id": 48726,
      "name": "브로튼",
      "name_default": "Brotton",
      "native": "Brotton",
      "type": "city",
      "level": null,
      "parent_id": null,
      "population": 5394,
      "latitude": "54.56661000",
      "longitude": "-0.93929000",
      "timezone": "Europe/London",
      "wikiDataId": "Q1622799",
      "country_code": "GB",
      "state_code": "RCC",
      "state_id": 2527,
      "country_id": 232
    },
    {
      "id": 48777,
      "name": "버니스턴",
      "name_default": "Burniston",
      "native": "Burniston",
      "type": "city",
      "level": null,
      "parent_id": null,
      "population": 1470,
      "latitude": "54.32385000",
      "longitude": "-0.44813000",
      "timezone": "Europe/London",
      "wikiDataId": "Q2597304",
      "country_code": "GB",
      "state_code": "RCC",
      "state_id": 2527,
      "country_id": 232
    },
    {
      "id": 49230,
      "name": "댄비",
      "name_default": "Danby",
      "native": "Danby",
      "type": "city",
      "level": null,
      "parent_id": null,
      "population": 1252,
      "latitude": "54.46606000",
      "longitude": "-0.91073000",
      "timezone": "Europe/London",
      "wikiDataId": "Q2611576",
      "country_code": "GB",
      "state_code": "RCC",
      "state_id": 2527,
      "country_id": 232
    },
    {
      "id": 49764,
      "name": "기스버러",
      "name_default": "Guisborough",
      "native": "Guisborough",
      "type": "adm3",
      "level": null,
      "parent_id": null,
      "population": 18874,
      "latitude": "54.53478000",
      "longitude": "-1.05606000",
      "timezone": "Europe/London",
      "wikiDataId": "Q952490",
      "country_code": "GB",
      "state_code": "RCC",
      "state_id": 2527,
      "country_id": 232
    },
    {
      "id": 50051,
      "name": "잉글비 그린하우",
      "name_default": "Ingleby Greenhow",
      "native": "Ingleby Greenhow",
      "type": "city",
      "level": null,
      "parent_id": null,
      "population": 14608,
      "latitude": "54.44983000",
      "longitude": "-1.10687000",
      "timezone": "Europe/London",
      "wikiDataId": "Q2736813",
      "country_code": "GB",
      "state_code": "RCC",
      "state_id": 2527,
      "country_id": 232
    },
    {
      "id": 50201,
      "name": "커크비무어사이드",
      "name_default": "Kirkbymoorside",
      "native": "Kirkbymoorside",
      "type": "city",
      "level": null,
      "parent_id": null,
      "population": 3110,
      "latitude": "54.27014000",
      "longitude": "-0.93218000",
      "timezone": "Europe/London",
      "wikiDataId": "Q2736102",
      "country_code": "GB",
      "state_code": "RCC",
      "state_id": 2527,
      "country_id": 232
    },
    {
      "id": 50308,
      "name": "링데일",
      "name_default": "Lingdale",
      "native": "Lingdale",
      "type": "city",
      "level": null,
      "parent_id": null,
      "population": 1423,
      "latitude": "54.53787000",
      "longitude": "-0.95864000",
      "timezone": "Europe/London",
      "wikiDataId": "Q6553810",
      "country_code": "GB",
      "state_code": "RCC",
      "state_id": 2527,
      "country_id": 232
    },
    {
      "id": 50386,
      "name": "로프터스",
      "name_default": "Loftus",
      "native": "Loftus",
      "type": "city",
      "level": null,
      "parent_id": null,
      "population": 4824,
      "latitude": "54.55543000",
      "longitude": "-0.89459000",
      "timezone": "Europe/London",
      "wikiDataId": "Q2400875",
      "country_code": "GB",
      "state_code": "RCC",
      "state_id": 2527,
      "country_id": 232
    },
    {
      "id": 50519,
      "name": "마르스케 바이 더 씨",
      "name_default": "Marske-by-the-Sea",
      "native": "Mars-by-the-Sea",
      "type": "city",
      "level": null,
      "parent_id": null,
      "population": 8282,
      "latitude": "54.59147000",
      "longitude": "-1.01959000",
      "timezone": "Europe/London",
      "wikiDataId": "Q1655185",
      "country_code": "GB",
      "state_code": "RCC",
      "state_id": 2527,
      "country_id": 232
    },
    {
      "id": 50690,
      "name": "뉴 마스케",
      "name_default": "New Marske",
      "native": "New Marsk",
      "type": "city",
      "level": null,
      "parent_id": null,
      "population": 3271,
      "latitude": "54.57848000",
      "longitude": "-1.04224000",
      "timezone": "Europe/London",
      "wikiDataId": "Q7010051",
      "country_code": "GB",
      "state_code": "RCC",
      "state_id": 2527,
      "country_id": 232
    },
    {
      "id": 51048,
      "name": "레드카",
      "name_default": "Redcar",
      "native": "Redcar",
      "type": "city",
      "level": null,
      "parent_id": null,
      "population": 37073,
      "latitude": "54.61657000",
      "longitude": "-1.05999000",
      "timezone": "Europe/London",
      "wikiDataId": "Q1193749",
      "country_code": "GB",
      "state_code": "RCC",
      "state_id": 2527,
      "country_id": 232
    },
    {
      "id": 51049,
      "name": "레드카와 클리블랜드",
      "name_default": "Redcar and Cleveland",
      "native": "Redcar and Cleveland",
      "type": "city",
      "level": null,
      "parent_id": null,
      "population": null,
      "latitude": "54.55000000",
      "longitude": "-1.00000000",
      "timezone": "Europe/London",
      "wikiDataId": "Q1434448",
      "country_code": "GB",
      "state_code": "RCC",
      "state_id": 2527,
      "country_id": 232
    },
    {
      "id": 51187,
      "name": "솔트번 바이 더 씨",
      "name_default": "Saltburn-by-the-Sea",
      "native": "Saltburn-by-the-Sea",
      "type": "city",
      "level": null,
      "parent_id": null,
      "population": 5958,
      "latitude": "54.58237000",
      "longitude": "-0.97367000",
      "timezone": "Europe/London",
      "wikiDataId": "Q2332298",
      "country_code": "GB",
      "state_code": "RCC",
      "state_id": 2527,
      "country_id": 232
    },
    {
      "id": 51324,
      "name": "스키닝그로브",
      "name_default": "Skinningrove",
      "native": "Skinningrove",
      "type": "city",
      "level": null,
      "parent_id": null,
      "population": 1606,
      "latitude": "54.56908000",
      "longitude": "-0.89869000",
      "timezone": "Europe/London",
      "wikiDataId": "Q7535541",
      "country_code": "GB",
      "state_code": "RCC",
      "state_id": 2527,
      "country_id": 232
    },
    {
      "id": 51330,
      "name": "슬라이트",
      "name_default": "Sleights",
      "native": "Sleights",
      "type": "city",
      "level": null,
      "parent_id": null,
      "population": 1972,
      "latitude": "54.45506000",
      "longitude": "-0.66484000",
      "timezone": "Europe/London",
      "wikiDataId": "Q7540032",
      "country_code": "GB",
      "state_code": "RCC",
      "state_id": 2527,
      "country_id": 232
    },
    {
      "id": 51868,
      "name": "휘트비",
      "name_default": "Whitby",
      "native": "Whitby",
      "type": "city",
      "level": null,
      "parent_id": null,
      "population": 13130,
      "latitude": "54.48774000",
      "longitude": "-0.61498000",
      "timezone": "Europe/London",
      "wikiDataId": "Q852778",
      "country_code": "GB",
      "state_code": "RCC",
      "state_id": 2527,
      "country_id": 232
    }
  ]
}
