{
  "locale": "ru",
  "country": {
    "id": 107,
    "code": "IT",
    "iso3": "ITA",
    "numeric_code": "380",
    "name": "Италия",
    "name_default": "Italy",
    "native": "Italia",
    "capital": "Rome",
    "phonecode": "39",
    "currency": "EUR",
    "currency_name": "Euro",
    "currency_symbol": "€",
    "tld": ".it",
    "population": 58919230,
    "gdp": 2422855,
    "region": "Europe",
    "region_id": 4,
    "subregion": "Southern Europe",
    "subregion_id": 16,
    "nationality": "Italian",
    "timezones": [
      {
        "zoneName": "Europe/Rome",
        "gmtOffset": 3600,
        "gmtOffsetName": "UTC+01:00",
        "abbreviation": "CET",
        "tzName": "Central European Time"
      }
    ],
    "latitude": "42.83333333",
    "longitude": "12.83333333",
    "emoji": "🇮🇹",
    "emojiU": "U+1F1EE U+1F1F9"
  },
  "state": {
    "id": 1773,
    "code": "45",
    "iso2": "45",
    "iso3166_2": "IT-45",
    "fips_code": "05",
    "name": "Эмилия-Романья",
    "name_default": "Emilia-Romagna",
    "native": "Emilia-Romagna",
    "type": "region",
    "level": "1",
    "parent_id": null,
    "population": 4465678,
    "latitude": "44.52569600",
    "longitude": "11.03943700",
    "timezone": "Europe/Rome",
    "wikiDataId": "Q1263",
    "country_code": "IT"
  },
  "cities": [
    {
      "id": 135297,
      "name": "Агаццано",
      "name_default": "Agazzano",
      "native": "Agazzano",
      "type": "adm3",
      "level": null,
      "parent_id": null,
      "population": 1452,
      "latitude": "44.94726000",
      "longitude": "9.51875000",
      "timezone": "Europe/Rome",
      "wikiDataId": "Q18431725",
      "country_code": "IT",
      "state_code": "45",
      "state_id": 1773,
      "country_id": 107
    },
    {
      "id": 135359,
      "name": "Альбарето",
      "name_default": "Albareto",
      "native": "Abobaret",
      "type": "adm3",
      "level": null,
      "parent_id": null,
      "population": 539,
      "latitude": "44.44692000",
      "longitude": "9.70228000",
      "timezone": "Europe/Rome",
      "wikiDataId": "Q18500583",
      "country_code": "IT",
      "state_code": "45",
      "state_id": 1773,
      "country_id": 107
    },
    {
      "id": 135364,
      "name": "Альбери",
      "name_default": "Alberi",
      "native": "Alberi",
      "type": "city",
      "level": null,
      "parent_id": null,
      "population": 1110,
      "latitude": "44.74837000",
      "longitude": "10.33045000",
      "timezone": "Europe/Rome",
      "wikiDataId": "Q3607972",
      "country_code": "IT",
      "state_code": "45",
      "state_id": 1773,
      "country_id": 107
    },
    {
      "id": 135377,
      "name": "Альбинея",
      "name_default": "Albinea",
      "native": "Albinea",
      "type": "adm3",
      "level": null,
      "parent_id": null,
      "population": 4540,
      "latitude": "44.62859000",
      "longitude": "10.61024000",
      "timezone": "Europe/Rome",
      "wikiDataId": "Q3608760",
      "country_code": "IT",
      "state_code": "45",
      "state_id": 1773,
      "country_id": 107
    },
    {
      "id": 135428,
      "name": "Альсено",
      "name_default": "Alseno",
      "native": "Alseno",
      "type": "adm3",
      "level": null,
      "parent_id": null,
      "population": 1951,
      "latitude": "44.89759000",
      "longitude": "9.96405000",
      "timezone": "Europe/Rome",
      "wikiDataId": "Q18503836",
      "country_code": "IT",
      "state_code": "45",
      "state_id": 1773,
      "country_id": 107
    },
    {
      "id": 135437,
      "name": "Альтедо",
      "name_default": "Altedo",
      "native": "Altedo",
      "type": "city",
      "level": null,
      "parent_id": null,
      "population": 4549,
      "latitude": "44.67057000",
      "longitude": "11.49019000",
      "timezone": "Europe/Rome",
      "wikiDataId": "Q3613147",
      "country_code": "IT",
      "state_code": "45",
      "state_id": 1773,
      "country_id": 107
    },
    {
      "id": 135529,
      "name": "Анзола делл'Эмилия",
      "name_default": "Anzola dell'Emilia",
      "native": "Anzola dell'Emilia",
      "type": "adm3",
      "level": null,
      "parent_id": null,
      "population": 8927,
      "latitude": "44.54197000",
      "longitude": "11.20548000",
      "timezone": "Europe/Rome",
      "wikiDataId": "Q18445825",
      "country_code": "IT",
      "state_code": "45",
      "state_id": 1773,
      "country_id": 107
    },
    {
      "id": 135563,
      "name": "Арчето",
      "name_default": "Arceto",
      "native": "Arcet",
      "type": "city",
      "level": null,
      "parent_id": null,
      "population": 4285,
      "latitude": "44.61762000",
      "longitude": "10.72461000",
      "timezone": "Europe/Rome",
      "wikiDataId": "Q18446355",
      "country_code": "IT",
      "state_code": "45",
      "state_id": 1773,
      "country_id": 107
    },
    {
      "id": 135592,
      "name": "Арджелато",
      "name_default": "Argelato",
      "native": "Argelato",
      "type": "adm3",
      "level": null,
      "parent_id": null,
      "population": 2626,
      "latitude": "44.64009000",
      "longitude": "11.34359000",
      "timezone": "Europe/Rome",
      "wikiDataId": "Q18454415",
      "country_code": "IT",
      "state_code": "45",
      "state_id": 1773,
      "country_id": 107
    },
    {
      "id": 135593,
      "name": "Арджента",
      "name_default": "Argenta",
      "native": "Argenta",
      "type": "adm3",
      "level": null,
      "parent_id": null,
      "population": 7064,
      "latitude": "44.61397000",
      "longitude": "11.83547000",
      "timezone": "Europe/Rome",
      "wikiDataId": "Q18454415",
      "country_code": "IT",
      "state_code": "45",
      "state_id": 1773,
      "country_id": 107
    },
    {
      "id": 135594,
      "name": "Аргин",
      "name_default": "Argine",
      "native": "Argine",
      "type": "city",
      "level": null,
      "parent_id": null,
      "population": 1146,
      "latitude": "44.77494000",
      "longitude": "10.63432000",
      "timezone": "Europe/Rome",
      "wikiDataId": "Q18454415",
      "country_code": "IT",
      "state_code": "45",
      "state_id": 1773,
      "country_id": 107
    },
    {
      "id": 135745,
      "name": "Баганзола",
      "name_default": "Baganzola",
      "native": "Baganzola",
      "type": "city",
      "level": null,
      "parent_id": null,
      "population": 2205,
      "latitude": "44.85513000",
      "longitude": "10.30706000",
      "timezone": "Europe/Rome",
      "wikiDataId": "Q3632849",
      "country_code": "IT",
      "state_code": "45",
      "state_id": 1773,
      "country_id": 107
    },
    {
      "id": 135746,
      "name": "Баджовара",
      "name_default": "Baggiovara",
      "native": "Baggiovara",
      "type": "city",
      "level": null,
      "parent_id": null,
      "population": 2513,
      "latitude": "44.60416000",
      "longitude": "10.86256000",
      "timezone": "Europe/Rome",
      "wikiDataId": "Q18440466",
      "country_code": "IT",
      "state_code": "45",
      "state_id": 1773,
      "country_id": 107
    },
    {
      "id": 135753,
      "name": "Баньярола",
      "name_default": "Bagnarola",
      "native": "BAGNO",
      "type": "city",
      "level": null,
      "parent_id": null,
      "population": 1875,
      "latitude": "44.16232000",
      "longitude": "12.34280000",
      "timezone": "Europe/Rome",
      "wikiDataId": "Q18439834",
      "country_code": "IT",
      "state_code": "45",
      "state_id": 1773,
      "country_id": 107
    },
    {
      "id": 135759,
      "name": "Баньо",
      "name_default": "Bagno",
      "native": "Bagno",
      "type": "city",
      "level": null,
      "parent_id": null,
      "population": 1714,
      "latitude": "44.65545000",
      "longitude": "10.75881000",
      "timezone": "Europe/Rome",
      "wikiDataId": "Q18446363",
      "country_code": "IT",
      "state_code": "45",
      "state_id": 1773,
      "country_id": 107
    },
    {
      "id": 135773,
      "name": "Баньоло в фортепиано",
      "name_default": "Bagnolo in Piano",
      "native": "Bagnolo in Piano",
      "type": "adm3",
      "level": null,
      "parent_id": null,
      "population": 7663,
      "latitude": "44.76437000",
      "longitude": "10.67358000",
      "timezone": "Europe/Rome",
      "wikiDataId": "Q30022515",
      "country_code": "IT",
      "state_code": "45",
      "state_id": 1773,
      "country_id": 107
    },
    {
      "id": 135780,
      "name": "Байсо",
      "name_default": "Baiso",
      "native": "Allarmante",
      "type": "adm3",
      "level": null,
      "parent_id": null,
      "population": 934,
      "latitude": "44.49668000",
      "longitude": "10.60083000",
      "timezone": "Europe/Rome",
      "wikiDataId": "Q18436446",
      "country_code": "IT",
      "state_code": "45",
      "state_id": 1773,
      "country_id": 107
    },
    {
      "id": 135830,
      "name": "Барбиано",
      "name_default": "Barbiano",
      "native": "Barbiano",
      "type": "city",
      "level": null,
      "parent_id": null,
      "population": 1329,
      "latitude": "44.38950000",
      "longitude": "11.88650000",
      "timezone": "Europe/Rome",
      "wikiDataId": "Q2520296",
      "country_code": "IT",
      "state_code": "45",
      "state_id": 1773,
      "country_id": 107
    },
    {
      "id": 135837,
      "name": "Барко",
      "name_default": "Barco",
      "native": "Barco",
      "type": "city",
      "level": null,
      "parent_id": null,
      "population": 2665,
      "latitude": "44.68833000",
      "longitude": "10.49582000",
      "timezone": "Europe/Rome",
      "wikiDataId": "Q3634893",
      "country_code": "IT",
      "state_code": "45",
      "state_id": 1773,
      "country_id": 107
    },
    {
      "id": 135840,
      "name": "Барди",
      "name_default": "Bardi",
      "native": "Bardi",
      "type": "adm3",
      "level": null,
      "parent_id": null,
      "population": 923,
      "latitude": "44.63138000",
      "longitude": "9.72907000",
      "timezone": "Europe/Rome",
      "wikiDataId": "Q3634893",
      "country_code": "IT",
      "state_code": "45",
      "state_id": 1773,
      "country_id": 107
    },
    {
      "id": 135856,
      "name": "Барицелла",
      "name_default": "Baricella",
      "native": "Baricella",
      "type": "adm3",
      "level": null,
      "parent_id": null,
      "population": 3783,
      "latitude": "44.64820000",
      "longitude": "11.53800000",
      "timezone": "Europe/Rome",
      "wikiDataId": "Q18241854",
      "country_code": "IT",
      "state_code": "45",
      "state_id": 1773,
      "country_id": 107
    },
    {
      "id": 135889,
      "name": "Базиликагояно",
      "name_default": "Basilicagoiano",
      "native": "Basilicagoiano",
      "type": "city",
      "level": null,
      "parent_id": null,
      "population": 1110,
      "latitude": "44.70545000",
      "longitude": "10.40457000",
      "timezone": "Europe/Rome",
      "wikiDataId": "Q18441907",
      "country_code": "IT",
      "state_code": "45",
      "state_id": 1773,
      "country_id": 107
    },
    {
      "id": 135890,
      "name": "Базиликанова",
      "name_default": "Basilicanova",
      "native": "Basilicanova",
      "type": "city",
      "level": null,
      "parent_id": null,
      "population": 2325,
      "latitude": "44.69804000",
      "longitude": "10.35231000",
      "timezone": "Europe/Rome",
      "wikiDataId": "Q3635788",
      "country_code": "IT",
      "state_code": "45",
      "state_id": 1773,
      "country_id": 107
    },
    {
      "id": 135904,
      "name": "Бастилия",
      "name_default": "Bastiglia",
      "native": "Bastiglia",
      "type": "adm3",
      "level": null,
      "parent_id": null,
      "population": 4185,
      "latitude": "44.72697000",
      "longitude": "10.99860000",
      "timezone": "Europe/Rome",
      "wikiDataId": "Q40707",
      "country_code": "IT",
      "state_code": "45",
      "state_id": 1773,
      "country_id": 107
    },
    {
      "id": 135915,
      "name": "Баццано",
      "name_default": "Bazzano",
      "native": "Bazzano",
      "type": "adm3",
      "level": null,
      "parent_id": null,
      "population": 6131,
      "latitude": "44.50176000",
      "longitude": "11.08675000",
      "timezone": "Europe/Rome",
      "wikiDataId": "Q94548",
      "country_code": "IT",
      "state_code": "45",
      "state_id": 1773,
      "country_id": 107
    },
    {
      "id": 135920,
      "name": "Бедония",
      "name_default": "Bedonia",
      "native": "Bedonia",
      "type": "adm3",
      "level": null,
      "parent_id": null,
      "population": 2136,
      "latitude": "44.50400000",
      "longitude": "9.63489000",
      "timezone": "Europe/Rome",
      "wikiDataId": "Q18494900",
      "country_code": "IT",
      "state_code": "45",
      "state_id": 1773,
      "country_id": 107
    },
    {
      "id": 135940,
      "name": "Беллария-Иджеа-Марина",
      "name_default": "Bellaria-Igea Marina",
      "native": "Bellaria-Igea Marina",
      "type": "adm3",
      "level": null,
      "parent_id": null,
      "population": 19455,
      "latitude": "44.14255000",
      "longitude": "12.47154000",
      "timezone": "Europe/Rome",
      "wikiDataId": "Q30022702",
      "country_code": "IT",
      "state_code": "45",
      "state_id": 1773,
      "country_id": 107
    },
    {
      "id": 135978,
      "name": "Бентивольо",
      "name_default": "Bentivoglio",
      "native": "Bentivoglio",
      "type": "adm3",
      "level": null,
      "parent_id": null,
      "population": 1234,
      "latitude": "44.63690000",
      "longitude": "11.41737000",
      "timezone": "Europe/Rome",
      "wikiDataId": "Q18491454",
      "country_code": "IT",
      "state_code": "45",
      "state_id": 1773,
      "country_id": 107
    },
    {
      "id": 135981,
      "name": "Берчето",
      "name_default": "Berceto",
      "native": "Berceto",
      "type": "adm3",
      "level": null,
      "parent_id": null,
      "population": 1048,
      "latitude": "44.50899000",
      "longitude": "9.99104000",
      "timezone": "Europe/Rome",
      "wikiDataId": "Q18491454",
      "country_code": "IT",
      "state_code": "45",
      "state_id": 1773,
      "country_id": 107
    },
    {
      "id": 135996,
      "name": "Берра",
      "name_default": "Berra",
      "native": "Berra",
      "type": "adm3",
      "level": null,
      "parent_id": null,
      "population": 1812,
      "latitude": "44.97656000",
      "longitude": "11.97727000",
      "timezone": "Europe/Rome",
      "wikiDataId": "Q18478581",
      "country_code": "IT",
      "state_code": "45",
      "state_id": 1773,
      "country_id": 107
    },
    {
      "id": 136000,
      "name": "Бертиноро",
      "name_default": "Bertinoro",
      "native": "Bertinoro",
      "type": "adm3",
      "level": null,
      "parent_id": null,
      "population": 1550,
      "latitude": "44.14874000",
      "longitude": "12.13650000",
      "timezone": "Europe/Rome",
      "wikiDataId": "Q18504865",
      "country_code": "IT",
      "state_code": "45",
      "state_id": 1773,
      "country_id": 107
    },
    {
      "id": 136006,
      "name": "Берзантина",
      "name_default": "Berzantina",
      "native": "Berzantina",
      "type": "city",
      "level": null,
      "parent_id": null,
      "population": 1315,
      "latitude": "44.15786000",
      "longitude": "10.98083000",
      "timezone": "Europe/Rome",
      "wikiDataId": "Q18438009",
      "country_code": "IT",
      "state_code": "45",
      "state_id": 1773,
      "country_id": 107
    },
    {
      "id": 136014,
      "name": "Безенцоне",
      "name_default": "Besenzone",
      "native": "Besenzone",
      "type": "adm3",
      "level": null,
      "parent_id": null,
      "population": 325,
      "latitude": "44.98689000",
      "longitude": "9.95604000",
      "timezone": "Europe/Rome",
      "wikiDataId": "Q18438009",
      "country_code": "IT",
      "state_code": "45",
      "state_id": 1773,
      "country_id": 107
    },
    {
      "id": 136018,
      "name": "Беттола",
      "name_default": "Bettola",
      "native": "Bettola",
      "type": "adm3",
      "level": null,
      "parent_id": null,
      "population": 2591,
      "latitude": "44.77826000",
      "longitude": "9.60857000",
      "timezone": "Europe/Rome",
      "wikiDataId": "Q18438009",
      "country_code": "IT",
      "state_code": "45",
      "state_id": 1773,
      "country_id": 107
    },
    {
      "id": 136038,
      "name": "Биббиано",
      "name_default": "Bibbiano",
      "native": "Bibbiano",
      "type": "adm3",
      "level": null,
      "parent_id": null,
      "population": 5571,
      "latitude": "44.66292000",
      "longitude": "10.47391000",
      "timezone": "Europe/Rome",
      "wikiDataId": "Q3639483",
      "country_code": "IT",
      "state_code": "45",
      "state_id": 1773,
      "country_id": 107
    },
    {
      "id": 136085,
      "name": "Боббио",
      "name_default": "Bobbio",
      "native": "Bobbio",
      "type": "adm3",
      "level": null,
      "parent_id": null,
      "population": 2260,
      "latitude": "44.76832000",
      "longitude": "9.38415000",
      "timezone": "Europe/Rome",
      "wikiDataId": "Q18454425",
      "country_code": "IT",
      "state_code": "45",
      "state_id": 1773,
      "country_id": 107
    },
    {
      "id": 136107,
      "name": "Болонья",
      "name_default": "Bologna",
      "native": "Bologna",
      "type": "city",
      "level": null,
      "parent_id": null,
      "population": 387971,
      "latitude": "44.46667000",
      "longitude": "11.43333000",
      "timezone": "Europe/Rome",
      "wikiDataId": "Q18288145",
      "country_code": "IT",
      "state_code": "45",
      "state_id": 1773,
      "country_id": 107
    },
    {
      "id": 136122,
      "name": "Бомпорто",
      "name_default": "Bomporto",
      "native": "Bomporto",
      "type": "adm3",
      "level": null,
      "parent_id": null,
      "population": 3540,
      "latitude": "44.73389000",
      "longitude": "11.03667000",
      "timezone": "Europe/Rome",
      "wikiDataId": "Q15124",
      "country_code": "IT",
      "state_code": "45",
      "state_id": 1773,
      "country_id": 107
    },
    {
      "id": 136129,
      "name": "Бондено",
      "name_default": "Bondeno",
      "native": "Bondeno",
      "type": "adm3",
      "level": null,
      "parent_id": null,
      "population": 7519,
      "latitude": "44.88944000",
      "longitude": "11.41542000",
      "timezone": "Europe/Rome",
      "wikiDataId": "Q3642061",
      "country_code": "IT",
      "state_code": "45",
      "state_id": 1773,
      "country_id": 107
    },
    {
      "id": 136144,
      "name": "Бора-Басса",
      "name_default": "Bora Bassa",
      "native": "Bora Bassa",
      "type": "city",
      "level": null,
      "parent_id": null,
      "population": 1115,
      "latitude": "44.04636000",
      "longitude": "12.18066000",
      "timezone": "Europe/Rome",
      "wikiDataId": "Q18439865",
      "country_code": "IT",
      "state_code": "45",
      "state_id": 1773,
      "country_id": 107
    },
    {
      "id": 136150,
      "name": "Отверстие",
      "name_default": "Bore",
      "native": "Foro",
      "type": "adm3",
      "level": null,
      "parent_id": null,
      "population": 326,
      "latitude": "44.71866000",
      "longitude": "9.79207000",
      "timezone": "Europe/Rome",
      "wikiDataId": "Q18441961",
      "country_code": "IT",
      "state_code": "45",
      "state_id": 1773,
      "country_id": 107
    },
    {
      "id": 136151,
      "name": "Борелло",
      "name_default": "Borello",
      "native": "Borello",
      "type": "city",
      "level": null,
      "parent_id": null,
      "population": 1945,
      "latitude": "44.05846000",
      "longitude": "12.17993000",
      "timezone": "Europe/Rome",
      "wikiDataId": "Q2296497",
      "country_code": "IT",
      "state_code": "45",
      "state_id": 1773,
      "country_id": 107
    },
    {
      "id": 136152,
      "name": "Боретто",
      "name_default": "Boretto",
      "native": "Boretto",
      "type": "adm3",
      "level": null,
      "parent_id": null,
      "population": 5106,
      "latitude": "44.90157000",
      "longitude": "10.55147000",
      "timezone": "Europe/Rome",
      "wikiDataId": "Q2296497",
      "country_code": "IT",
      "state_code": "45",
      "state_id": 1773,
      "country_id": 107
    },
    {
      "id": 136165,
      "name": "Борги",
      "name_default": "Borghi",
      "native": "Borghi",
      "type": "adm3",
      "level": null,
      "parent_id": null,
      "population": 433,
      "latitude": "44.03223000",
      "longitude": "12.35618000",
      "timezone": "Europe/Rome",
      "wikiDataId": "Q18489303",
      "country_code": "IT",
      "state_code": "45",
      "state_id": 1773,
      "country_id": 107
    },
    {
      "id": 136192,
      "name": "Борго Тоссиньяно",
      "name_default": "Borgo Tossignano",
      "native": "Borgo Tossignano",
      "type": "adm3",
      "level": null,
      "parent_id": null,
      "population": 2206,
      "latitude": "44.28233000",
      "longitude": "11.59659000",
      "timezone": "Europe/Rome",
      "wikiDataId": "Q18497022",
      "country_code": "IT",
      "state_code": "45",
      "state_id": 1773,
      "country_id": 107
    },
    {
      "id": 136193,
      "name": "Борго Валь ди Таро",
      "name_default": "Borgo Val di Taro",
      "native": "Borgo Val di Taro",
      "type": "adm3",
      "level": null,
      "parent_id": null,
      "population": 6716,
      "latitude": "44.48899000",
      "longitude": "9.76906000",
      "timezone": "Europe/Rome",
      "wikiDataId": "Q18497022",
      "country_code": "IT",
      "state_code": "45",
      "state_id": 1773,
      "country_id": 107
    },
    {
      "id": 136211,
      "name": "Боргоново Валтидоне",
      "name_default": "Borgonovo Valtidone",
      "native": "Borgonovo Validone",
      "type": "adm3",
      "level": null,
      "parent_id": null,
      "population": 5777,
      "latitude": "45.01436000",
      "longitude": "9.44346000",
      "timezone": "Europe/Rome",
      "wikiDataId": "Q18443653",
      "country_code": "IT",
      "state_code": "45",
      "state_id": 1773,
      "country_id": 107
    },
    {
      "id": 136212,
      "name": "Боргонуово",
      "name_default": "Borgonuovo",
      "native": "Borgonuovo",
      "type": "city",
      "level": null,
      "parent_id": null,
      "population": 4217,
      "latitude": "44.43557000",
      "longitude": "11.27069000",
      "timezone": "Europe/Rome",
      "wikiDataId": "Q2460647",
      "country_code": "IT",
      "state_code": "45",
      "state_id": 1773,
      "country_id": 107
    },
    {
      "id": 136234,
      "name": "Борзано",
      "name_default": "Borzano",
      "native": "Borzano",
      "type": "city",
      "level": null,
      "parent_id": null,
      "population": 1289,
      "latitude": "44.60360000",
      "longitude": "10.63675000",
      "timezone": "Europe/Rome",
      "wikiDataId": "Q930122",
      "country_code": "IT",
      "state_code": "45",
      "state_id": 1773,
      "country_id": 107
    },
    {
      "id": 136244,
      "name": "Боско Месола",
      "name_default": "Bosco Mesola",
      "native": "Bosco Mesola",
      "type": "city",
      "level": null,
      "parent_id": null,
      "population": 2014,
      "latitude": "44.87639000",
      "longitude": "12.23139000",
      "timezone": "Europe/Rome",
      "wikiDataId": "Q3642867",
      "country_code": "IT",
      "state_code": "45",
      "state_id": 1773,
      "country_id": 107
    },
    {
      "id": 136313,
      "name": "Брешелло",
      "name_default": "Brescello",
      "native": "Brescello",
      "type": "adm3",
      "level": null,
      "parent_id": null,
      "population": 2839,
      "latitude": "44.89531000",
      "longitude": "10.51269000",
      "timezone": "Europe/Rome",
      "wikiDataId": "Q18505066",
      "country_code": "IT",
      "state_code": "45",
      "state_id": 1773,
      "country_id": 107
    },
    {
      "id": 136381,
      "name": "Бубано",
      "name_default": "Bubano",
      "native": "BUBANO",
      "type": "city",
      "level": null,
      "parent_id": null,
      "population": 1450,
      "latitude": "44.41341000",
      "longitude": "11.78231000",
      "timezone": "Europe/Rome",
      "wikiDataId": "Q18438069",
      "country_code": "IT",
      "state_code": "45",
      "state_id": 1773,
      "country_id": 107
    },
    {
      "id": 136393,
      "name": "Будрио",
      "name_default": "Budrio",
      "native": "Budri",
      "type": "adm3",
      "level": null,
      "parent_id": null,
      "population": 8941,
      "latitude": "44.53745000",
      "longitude": "11.53439000",
      "timezone": "Europe/Rome",
      "wikiDataId": "Q18438069",
      "country_code": "IT",
      "state_code": "45",
      "state_id": 1773,
      "country_id": 107
    },
    {
      "id": 136419,
      "name": "Бусана",
      "name_default": "Busana",
      "native": "Moda",
      "type": "adm3",
      "level": null,
      "parent_id": null,
      "population": 240,
      "latitude": "44.36886000",
      "longitude": "10.32339000",
      "timezone": "Europe/Rome",
      "wikiDataId": "Q18446439",
      "country_code": "IT",
      "state_code": "45",
      "state_id": 1773,
      "country_id": 107
    },
    {
      "id": 136429,
      "name": "Буссето",
      "name_default": "Busseto",
      "native": "Busseto",
      "type": "adm3",
      "level": null,
      "parent_id": null,
      "population": 4711,
      "latitude": "44.97940000",
      "longitude": "10.04331000",
      "timezone": "Europe/Rome",
      "wikiDataId": "Q12360475",
      "country_code": "IT",
      "state_code": "45",
      "state_id": 1773,
      "country_id": 107
    },
    {
      "id": 138222,
      "name": "Cà Dè Fabbri",
      "name_default": "Cà Dè Fabbri",
      "native": "Di quanto tu dai",
      "type": "city",
      "level": null,
      "parent_id": null,
      "population": 1849,
      "latitude": "44.61962000",
      "longitude": "11.45503000",
      "timezone": "Europe/Rome",
      "wikiDataId": "Q18438089",
      "country_code": "IT",
      "state_code": "45",
      "state_id": 1773,
      "country_id": 107
    },
    {
      "id": 136447,
      "name": "Ка' ди Сола",
      "name_default": "Ca' di Sola",
      "native": "Ca' di Sola",
      "type": "city",
      "level": null,
      "parent_id": null,
      "population": 1061,
      "latitude": "44.52986000",
      "longitude": "10.95448000",
      "timezone": "Europe/Rome",
      "wikiDataId": "Q18440594",
      "country_code": "IT",
      "state_code": "45",
      "state_id": 1773,
      "country_id": 107
    },
    {
      "id": 136463,
      "name": "Каде-Гайда",
      "name_default": "Cadè-Gaida",
      "native": "Cadè-Waiting",
      "type": "city",
      "level": null,
      "parent_id": null,
      "population": 2049,
      "latitude": "44.73850000",
      "longitude": "10.51580000",
      "timezone": "Europe/Rome",
      "wikiDataId": "Q3649521",
      "country_code": "IT",
      "state_code": "45",
      "state_id": 1773,
      "country_id": 107
    },
    {
      "id": 136454,
      "name": "Кадельбоско ди Сопра",
      "name_default": "Cadelbosco di Sopra",
      "native": "Cadelbosco di Sopra",
      "type": "adm3",
      "level": null,
      "parent_id": null,
      "population": 6162,
      "latitude": "44.76573000",
      "longitude": "10.59898000",
      "timezone": "Europe/Rome",
      "wikiDataId": "Q18440594",
      "country_code": "IT",
      "state_code": "45",
      "state_id": 1773,
      "country_id": 107
    },
    {
      "id": 136455,
      "name": "Кадельбоско ди Сотто",
      "name_default": "Cadelbosco di Sotto",
      "native": "Cadelbosco di Sotto",
      "type": "city",
      "level": null,
      "parent_id": null,
      "population": 1505,
      "latitude": "44.80141000",
      "longitude": "10.61578000",
      "timezone": "Europe/Rome",
      "wikiDataId": "Q18446521",
      "country_code": "IT",
      "state_code": "45",
      "state_id": 1773,
      "country_id": 107
    },
    {
      "id": 136499,
      "name": "Калькара",
      "name_default": "Calcara",
      "native": "Calcara",
      "type": "city",
      "level": null,
      "parent_id": null,
      "population": 2370,
      "latitude": "44.54696000",
      "longitude": "11.13366000",
      "timezone": "Europe/Rome",
      "wikiDataId": "Q18438148",
      "country_code": "IT",
      "state_code": "45",
      "state_id": 1773,
      "country_id": 107
    },
    {
      "id": 136513,
      "name": "Кальдерара ди Рено",
      "name_default": "Calderara di Reno",
      "native": "Calderara di Reno",
      "type": "adm3",
      "level": null,
      "parent_id": null,
      "population": 6287,
      "latitude": "44.56307000",
      "longitude": "11.27111000",
      "timezone": "Europe/Rome",
      "wikiDataId": "Q2675936",
      "country_code": "IT",
      "state_code": "45",
      "state_id": 1773,
      "country_id": 107
    },
    {
      "id": 136514,
      "name": "Кальдерино",
      "name_default": "Calderino",
      "native": "Calderino",
      "type": "adm3",
      "level": null,
      "parent_id": null,
      "population": 4214,
      "latitude": "44.45774000",
      "longitude": "11.19927000",
      "timezone": "Europe/Rome",
      "wikiDataId": "Q18438150",
      "country_code": "IT",
      "state_code": "45",
      "state_id": 1773,
      "country_id": 107
    },
    {
      "id": 136521,
      "name": "Календаско",
      "name_default": "Calendasco",
      "native": "Calendasco",
      "type": "adm3",
      "level": null,
      "parent_id": null,
      "population": 781,
      "latitude": "45.08659000",
      "longitude": "9.59647000",
      "timezone": "Europe/Rome",
      "wikiDataId": "Q18486545",
      "country_code": "IT",
      "state_code": "45",
      "state_id": 1773,
      "country_id": 107
    },
    {
      "id": 136524,
      "name": "Калерно",
      "name_default": "Calerno",
      "native": "Calerno",
      "type": "city",
      "level": null,
      "parent_id": null,
      "population": 2093,
      "latitude": "44.74875000",
      "longitude": "10.48603000",
      "timezone": "Europe/Rome",
      "wikiDataId": "Q2329271",
      "country_code": "IT",
      "state_code": "45",
      "state_id": 1773,
      "country_id": 107
    },
    {
      "id": 136525,
      "name": "Калестано",
      "name_default": "Calestano",
      "native": "Calestano",
      "type": "adm3",
      "level": null,
      "parent_id": null,
      "population": 858,
      "latitude": "44.60224000",
      "longitude": "10.12363000",
      "timezone": "Europe/Rome",
      "wikiDataId": "Q2329271",
      "country_code": "IT",
      "state_code": "45",
      "state_id": 1773,
      "country_id": 107
    },
    {
      "id": 136588,
      "name": "Камината",
      "name_default": "Caminata",
      "native": "Escursione",
      "type": "adm3",
      "level": null,
      "parent_id": null,
      "population": 212,
      "latitude": "44.91036000",
      "longitude": "9.30816000",
      "timezone": "Europe/Rome",
      "wikiDataId": "Q18453662",
      "country_code": "IT",
      "state_code": "45",
      "state_id": 1773,
      "country_id": 107
    },
    {
      "id": 136605,
      "name": "Кампаньола Эмилия",
      "name_default": "Campagnola Emilia",
      "native": "Campagnola Emilia",
      "type": "adm3",
      "level": null,
      "parent_id": null,
      "population": 5476,
      "latitude": "44.83925000",
      "longitude": "10.76507000",
      "timezone": "Europe/Rome",
      "wikiDataId": "Q18497523",
      "country_code": "IT",
      "state_code": "45",
      "state_id": 1773,
      "country_id": 107
    },
    {
      "id": 136611,
      "name": "Кампеджин",
      "name_default": "Campegine",
      "native": "Campegine",
      "type": "adm3",
      "level": null,
      "parent_id": null,
      "population": 2527,
      "latitude": "44.78085000",
      "longitude": "10.52836000",
      "timezone": "Europe/Rome",
      "wikiDataId": "Q18469409",
      "country_code": "IT",
      "state_code": "45",
      "state_id": 1773,
      "country_id": 107
    },
    {
      "id": 136657,
      "name": "Кампогаллиано",
      "name_default": "Campogalliano",
      "native": "Campogalliano",
      "type": "adm3",
      "level": null,
      "parent_id": null,
      "population": 6234,
      "latitude": "44.68874000",
      "longitude": "10.84705000",
      "timezone": "Europe/Rome",
      "wikiDataId": "Q18461038",
      "country_code": "IT",
      "state_code": "45",
      "state_id": 1773,
      "country_id": 107
    },
    {
      "id": 136681,
      "name": "Кампосанто",
      "name_default": "Camposanto",
      "native": "Campagna",
      "type": "adm3",
      "level": null,
      "parent_id": null,
      "population": 2503,
      "latitude": "44.79009000",
      "longitude": "11.14049000",
      "timezone": "Europe/Rome",
      "wikiDataId": "Q37672",
      "country_code": "IT",
      "state_code": "45",
      "state_id": 1773,
      "country_id": 107
    },
    {
      "id": 136685,
      "name": "Камуньяно",
      "name_default": "Camugnano",
      "native": "Camugnano",
      "type": "adm3",
      "level": null,
      "parent_id": null,
      "population": 446,
      "latitude": "44.17110000",
      "longitude": "11.08828000",
      "timezone": "Europe/Rome",
      "wikiDataId": "Q2540274",
      "country_code": "IT",
      "state_code": "45",
      "state_id": 1773,
      "country_id": 107
    },
    {
      "id": 136755,
      "name": "Каорсо",
      "name_default": "Caorso",
      "native": "Caorso",
      "type": "adm3",
      "level": null,
      "parent_id": null,
      "population": 3368,
      "latitude": "45.04911000",
      "longitude": "9.87457000",
      "timezone": "Europe/Rome",
      "wikiDataId": "Q18429629",
      "country_code": "IT",
      "state_code": "45",
      "state_id": 1773,
      "country_id": 107
    },
    {
      "id": 136803,
      "name": "Капрара",
      "name_default": "Caprara",
      "native": "Caprara",
      "type": "city",
      "level": null,
      "parent_id": null,
      "population": 1347,
      "latitude": "44.77521000",
      "longitude": "10.51158000",
      "timezone": "Europe/Rome",
      "wikiDataId": "Q18446560",
      "country_code": "IT",
      "state_code": "45",
      "state_id": 1773,
      "country_id": 107
    },
    {
      "id": 136906,
      "name": "Карпането Пьячентино",
      "name_default": "Carpaneto Piacentino",
      "native": "Carpaneto Piacentino",
      "type": "adm3",
      "level": null,
      "parent_id": null,
      "population": 4802,
      "latitude": "44.91355000",
      "longitude": "9.78703000",
      "timezone": "Europe/Rome",
      "wikiDataId": "Q18465915",
      "country_code": "IT",
      "state_code": "45",
      "state_id": 1773,
      "country_id": 107
    },
    {
      "id": 136913,
      "name": "Карпи Чентро",
      "name_default": "Carpi Centro",
      "native": "Carpi Centro",
      "type": "adm3",
      "level": null,
      "parent_id": null,
      "population": 71148,
      "latitude": "44.78237000",
      "longitude": "10.87770000",
      "timezone": "Europe/Rome",
      "wikiDataId": "Q3660665",
      "country_code": "IT",
      "state_code": "45",
      "state_id": 1773,
      "country_id": 107
    },
    {
      "id": 136917,
      "name": "Карпинети",
      "name_default": "Carpineti",
      "native": "Carpineti",
      "type": "adm3",
      "level": null,
      "parent_id": null,
      "population": 1311,
      "latitude": "44.45574000",
      "longitude": "10.51780000",
      "timezone": "Europe/Rome",
      "wikiDataId": "Q3660665",
      "country_code": "IT",
      "state_code": "45",
      "state_id": 1773,
      "country_id": 107
    },
    {
      "id": 136973,
      "name": "Казале",
      "name_default": "Casale",
      "native": "Casale",
      "type": "adm3",
      "level": null,
      "parent_id": null,
      "population": 965,
      "latitude": "44.91665000",
      "longitude": "10.43169000",
      "timezone": "Europe/Rome",
      "wikiDataId": "Q18442111",
      "country_code": "IT",
      "state_code": "45",
      "state_id": 1773,
      "country_id": 107
    },
    {
      "id": 136981,
      "name": "Казалеккьо ди Рено",
      "name_default": "Casalecchio di Reno",
      "native": "Casalecchio di Reno",
      "type": "adm3",
      "level": null,
      "parent_id": null,
      "population": 35414,
      "latitude": "44.47563000",
      "longitude": "11.27495000",
      "timezone": "Europe/Rome",
      "wikiDataId": "Q18442111",
      "country_code": "IT",
      "state_code": "45",
      "state_id": 1773,
      "country_id": 107
    },
    {
      "id": 136990,
      "name": "Казальфийманский",
      "name_default": "Casalfiumanese",
      "native": "Cashiumanese",
      "type": "adm3",
      "level": null,
      "parent_id": null,
      "population": 1861,
      "latitude": "44.29686000",
      "longitude": "11.62402000",
      "timezone": "Europe/Rome",
      "wikiDataId": "Q18442111",
      "country_code": "IT",
      "state_code": "45",
      "state_id": 1773,
      "country_id": 107
    },
    {
      "id": 136991,
      "name": "Казальгранде",
      "name_default": "Casalgrande",
      "native": "Casalgrande",
      "type": "adm3",
      "level": null,
      "parent_id": null,
      "population": 7451,
      "latitude": "44.58466000",
      "longitude": "10.73550000",
      "timezone": "Europe/Rome",
      "wikiDataId": "Q18442111",
      "country_code": "IT",
      "state_code": "45",
      "state_id": 1773,
      "country_id": 107
    },
    {
      "id": 137070,
      "name": "Казина",
      "name_default": "Casina",
      "native": "Casina",
      "type": "adm3",
      "level": null,
      "parent_id": null,
      "population": 1883,
      "latitude": "44.50982000",
      "longitude": "10.49951000",
      "timezone": "Europe/Rome",
      "wikiDataId": "Q3661732",
      "country_code": "IT",
      "state_code": "45",
      "state_id": 1773,
      "country_id": 107
    },
    {
      "id": 137162,
      "name": "Кастель д'Айано",
      "name_default": "Castel d'Aiano",
      "native": "Castel d'Aiano",
      "type": "adm3",
      "level": null,
      "parent_id": null,
      "population": 581,
      "latitude": "44.27751000",
      "longitude": "11.00097000",
      "timezone": "Europe/Rome",
      "wikiDataId": "Q18454463",
      "country_code": "IT",
      "state_code": "45",
      "state_id": 1773,
      "country_id": 107
    },
    {
      "id": 137167,
      "name": "Кастель-дель-Рио",
      "name_default": "Castel del Rio",
      "native": "Castel del Rio",
      "type": "adm3",
      "level": null,
      "parent_id": null,
      "population": 731,
      "latitude": "44.21346000",
      "longitude": "11.50409000",
      "timezone": "Europe/Rome",
      "wikiDataId": "Q18454463",
      "country_code": "IT",
      "state_code": "45",
      "state_id": 1773,
      "country_id": 107
    },
    {
      "id": 137168,
      "name": "Кастель-ди-Касио",
      "name_default": "Castel di Casio",
      "native": "Castel di Casio",
      "type": "adm3",
      "level": null,
      "parent_id": null,
      "population": 198,
      "latitude": "44.16276000",
      "longitude": "11.03505000",
      "timezone": "Europe/Rome",
      "wikiDataId": "Q18454463",
      "country_code": "IT",
      "state_code": "45",
      "state_id": 1773,
      "country_id": 107
    },
    {
      "id": 137142,
      "name": "Кастель-Гвельфо-ди-Болонья",
      "name_default": "Castel Guelfo di Bologna",
      "native": "Castel Guelfo di Bologna",
      "type": "adm3",
      "level": null,
      "parent_id": null,
      "population": 2520,
      "latitude": "44.43166000",
      "longitude": "11.67591000",
      "timezone": "Europe/Rome",
      "wikiDataId": "Q18454463",
      "country_code": "IT",
      "state_code": "45",
      "state_id": 1773,
      "country_id": 107
    },
    {
      "id": 137144,
      "name": "Кастель-Маджоре",
      "name_default": "Castel Maggiore",
      "native": "Castel Maggiore",
      "type": "adm3",
      "level": null,
      "parent_id": null,
      "population": 18462,
      "latitude": "44.57707000",
      "longitude": "11.36071000",
      "timezone": "Europe/Rome",
      "wikiDataId": "Q18454463",
      "country_code": "IT",
      "state_code": "45",
      "state_id": 1773,
      "country_id": 107
    },
    {
      "id": 137151,
      "name": "Кастель Сан Джованни",
      "name_default": "Castel San Giovanni",
      "native": "Castel San Giovanni",
      "type": "adm3",
      "level": null,
      "parent_id": null,
      "population": 14097,
      "latitude": "45.06014000",
      "longitude": "9.43784000",
      "timezone": "Europe/Rome",
      "wikiDataId": "Q18454463",
      "country_code": "IT",
      "state_code": "45",
      "state_id": 1773,
      "country_id": 107
    },
    {
      "id": 137155,
      "name": "Кастель Сан Пьетро Терме",
      "name_default": "Castel San Pietro Terme",
      "native": "Castel San Pietro Terme",
      "type": "adm3",
      "level": null,
      "parent_id": null,
      "population": 11081,
      "latitude": "44.39854000",
      "longitude": "11.58546000",
      "timezone": "Europe/Rome",
      "wikiDataId": "Q18454463",
      "country_code": "IT",
      "state_code": "45",
      "state_id": 1773,
      "country_id": 107
    },
    {
      "id": 137189,
      "name": "Кастельдельчи",
      "name_default": "Casteldelci",
      "native": "Casteldelci",
      "type": "adm3",
      "level": null,
      "parent_id": null,
      "population": 511,
      "latitude": "43.79116000",
      "longitude": "12.15514000",
      "timezone": "Europe/Rome",
      "wikiDataId": "Q3662204",
      "country_code": "IT",
      "state_code": "45",
      "state_id": 1773,
      "country_id": 107
    },
    {
      "id": 137197,
      "name": "Кастельфранко Эмилия",
      "name_default": "Castelfranco Emilia",
      "native": "Castelfranco Emilia",
      "type": "adm3",
      "level": null,
      "parent_id": null,
      "population": 17315,
      "latitude": "44.59445000",
      "longitude": "11.04979000",
      "timezone": "Europe/Rome",
      "wikiDataId": "Q3662204",
      "country_code": "IT",
      "state_code": "45",
      "state_id": 1773,
      "country_id": 107
    },
    {
      "id": 137207,
      "name": "Кастель-Аркуато",
      "name_default": "Castell'Arquato",
      "native": "Castell'arquato",
      "type": "adm3",
      "level": null,
      "parent_id": null,
      "population": 2392,
      "latitude": "44.85451000",
      "longitude": "9.87326000",
      "timezone": "Europe/Rome",
      "wikiDataId": "Q52072",
      "country_code": "IT",
      "state_code": "45",
      "state_id": 1773,
      "country_id": 107
    },
    {
      "id": 137222,
      "name": "Кастелларано",
      "name_default": "Castellarano",
      "native": "Castellarano",
      "type": "adm3",
      "level": null,
      "parent_id": null,
      "population": 9251,
      "latitude": "44.51825000",
      "longitude": "10.73727000",
      "timezone": "Europe/Rome",
      "wikiDataId": "Q18426594",
      "country_code": "IT",
      "state_code": "45",
      "state_id": 1773,
      "country_id": 107
    },
    {
      "id": 137229,
      "name": "Кастеллетто",
      "name_default": "Castelletto",
      "native": "Castelletto",
      "type": "adm3",
      "level": null,
      "parent_id": null,
      "population": 2125,
      "latitude": "44.44015000",
      "longitude": "11.06478000",
      "timezone": "Europe/Rome",
      "wikiDataId": "Q18438261",
      "country_code": "IT",
      "state_code": "45",
      "state_id": 1773,
      "country_id": 107
    },
    {
      "id": 137256,
      "name": "Кастелло д'Аржиле",
      "name_default": "Castello d'Argile",
      "native": "Castello di Arway",
      "type": "adm3",
      "level": null,
      "parent_id": null,
      "population": 3778,
      "latitude": "44.67797000",
      "longitude": "11.29715000",
      "timezone": "Europe/Rome",
      "wikiDataId": "Q18478844",
      "country_code": "IT",
      "state_code": "45",
      "state_id": 1773,
      "country_id": 107
    },
    {
      "id": 137279,
      "name": "Кастельново ди Сотто",
      "name_default": "Castelnovo di Sotto",
      "native": "Castelnovo di Sotto",
      "type": "adm3",
      "level": null,
      "parent_id": null,
      "population": 8484,
      "latitude": "44.81253000",
      "longitude": "10.56694000",
      "timezone": "Europe/Rome",
      "wikiDataId": "Q18506114",
      "country_code": "IT",
      "state_code": "45",
      "state_id": 1773,
      "country_id": 107
    },
    {
      "id": 137280,
      "name": "Кастельново-не'Монти",
      "name_default": "Castelnovo ne'Monti",
      "native": "Castelnovo ne'montti",
      "type": "adm3",
      "level": null,
      "parent_id": null,
      "population": 10046,
      "latitude": "44.43556000",
      "longitude": "10.40329000",
      "timezone": "Europe/Rome",
      "wikiDataId": "Q18506114",
      "country_code": "IT",
      "state_code": "45",
      "state_id": 1773,
      "country_id": 107
    },
    {
      "id": 137293,
      "name": "Кастельнуово Рангоне",
      "name_default": "Castelnuovo Rangone",
      "native": "Castelnuovo Rangone",
      "type": "adm3",
      "level": null,
      "parent_id": null,
      "population": 8064,
      "latitude": "44.54935000",
      "longitude": "10.93350000",
      "timezone": "Europe/Rome",
      "wikiDataId": "Q18506114",
      "country_code": "IT",
      "state_code": "45",
      "state_id": 1773,
      "country_id": 107
    },
    {
      "id": 137331,
      "name": "Кастельветро-ди-Модена",
      "name_default": "Castelvetro di Modena",
      "native": "Castelvetro di Modena",
      "type": "adm3",
      "level": null,
      "parent_id": null,
      "population": 3648,
      "latitude": "44.50422000",
      "longitude": "10.94666000",
      "timezone": "Europe/Rome",
      "wikiDataId": "Q2163325",
      "country_code": "IT",
      "state_code": "45",
      "state_id": 1773,
      "country_id": 107
    },
    {
      "id": 137330,
      "name": "Кастельветро-Пьячентино",
      "name_default": "Castelvetro Piacentino",
      "native": "Castelvetro Piacentino",
      "type": "adm3",
      "level": null,
      "parent_id": null,
      "population": 5243,
      "latitude": "45.10223000",
      "longitude": "9.99041000",
      "timezone": "Europe/Rome",
      "wikiDataId": "Q2163325",
      "country_code": "IT",
      "state_code": "45",
      "state_id": 1773,
      "country_id": 107
    },
    {
      "id": 137333,
      "name": "Кастеназо",
      "name_default": "Castenaso",
      "native": "Castenaso",
      "type": "adm3",
      "level": null,
      "parent_id": null,
      "population": 8961,
      "latitude": "44.51398000",
      "longitude": "11.46842000",
      "timezone": "Europe/Rome",
      "wikiDataId": "Q2163325",
      "country_code": "IT",
      "state_code": "45",
      "state_id": 1773,
      "country_id": 107
    },
    {
      "id": 137351,
      "name": "Кастильоне деи Пеполи",
      "name_default": "Castiglione dei Pepoli",
      "native": "Castiglione dei Pepoli",
      "type": "adm3",
      "level": null,
      "parent_id": null,
      "population": 2761,
      "latitude": "44.14280000",
      "longitude": "11.16028000",
      "timezone": "Europe/Rome",
      "wikiDataId": "Q18457021",
      "country_code": "IT",
      "state_code": "45",
      "state_id": 1773,
      "country_id": 107
    },
    {
      "id": 137378,
      "name": "Кастрокаро-Терме и Терра-дель-Соле",
      "name_default": "Castrocaro Terme e Terra del Sole",
      "native": "Castrocaro Terme e Terra del Sole",
      "type": "adm3",
      "level": null,
      "parent_id": null,
      "population": 6352,
      "latitude": "44.18676000",
      "longitude": "11.96068000",
      "timezone": "Europe/Rome",
      "wikiDataId": "Q2249764",
      "country_code": "IT",
      "state_code": "45",
      "state_id": 1773,
      "country_id": 107
    },
    {
      "id": 137396,
      "name": "Каттолика",
      "name_default": "Cattolica",
      "native": "Cattolica",
      "type": "adm3",
      "level": null,
      "parent_id": null,
      "population": 16543,
      "latitude": "43.96182000",
      "longitude": "12.73631000",
      "timezone": "Europe/Rome",
      "wikiDataId": "Q18490788",
      "country_code": "IT",
      "state_code": "45",
      "state_id": 1773,
      "country_id": 107
    },
    {
      "id": 137429,
      "name": "Каваццона",
      "name_default": "Cavazzona",
      "native": "Cavazzon",
      "type": "city",
      "level": null,
      "parent_id": null,
      "population": 1522,
      "latitude": "44.57326000",
      "longitude": "11.11903000",
      "timezone": "Europe/Rome",
      "wikiDataId": "Q18440883",
      "country_code": "IT",
      "state_code": "45",
      "state_id": 1773,
      "country_id": 107
    },
    {
      "id": 137436,
      "name": "Кавеццо",
      "name_default": "Cavezzo",
      "native": "Cavezzo",
      "type": "adm3",
      "level": null,
      "parent_id": null,
      "population": 5464,
      "latitude": "44.83500000",
      "longitude": "11.02890000",
      "timezone": "Europe/Rome",
      "wikiDataId": "Q18440883",
      "country_code": "IT",
      "state_code": "45",
      "state_id": 1773,
      "country_id": 107
    },
    {
      "id": 137442,
      "name": "Кавриаго",
      "name_default": "Cavriago",
      "native": "Cavriago",
      "type": "adm3",
      "level": null,
      "parent_id": null,
      "population": 9842,
      "latitude": "44.69457000",
      "longitude": "10.52591000",
      "timezone": "Europe/Rome",
      "wikiDataId": "Q18429664",
      "country_code": "IT",
      "state_code": "45",
      "state_id": 1773,
      "country_id": 107
    },
    {
      "id": 137497,
      "name": "Ченто",
      "name_default": "Cento",
      "native": "Uno -lato",
      "type": "adm3",
      "level": null,
      "parent_id": null,
      "population": 18191,
      "latitude": "44.73099000",
      "longitude": "11.28716000",
      "timezone": "Europe/Rome",
      "wikiDataId": "Q18498331",
      "country_code": "IT",
      "state_code": "45",
      "state_id": 1773,
      "country_id": 107
    },
    {
      "id": 137518,
      "name": "Серасоло",
      "name_default": "Cerasolo",
      "native": "Cerasolo",
      "type": "city",
      "level": null,
      "parent_id": null,
      "population": 1309,
      "latitude": "43.98805000",
      "longitude": "12.52988000",
      "timezone": "Europe/Rome",
      "wikiDataId": "Q2164981",
      "country_code": "IT",
      "state_code": "45",
      "state_id": 1773,
      "country_id": 107
    },
    {
      "id": 137549,
      "name": "Чериньял",
      "name_default": "Cerignale",
      "native": "Cerignale",
      "type": "adm3",
      "level": null,
      "parent_id": null,
      "population": 92,
      "latitude": "44.67785000",
      "longitude": "9.35077000",
      "timezone": "Europe/Rome",
      "wikiDataId": "Q2270181",
      "country_code": "IT",
      "state_code": "45",
      "state_id": 1773,
      "country_id": 107
    },
    {
      "id": 137611,
      "name": "Чезена",
      "name_default": "Cesena",
      "native": "Cesena",
      "type": "adm3",
      "level": null,
      "parent_id": null,
      "population": 95778,
      "latitude": "44.13910000",
      "longitude": "12.24315000",
      "timezone": "Europe/Rome",
      "wikiDataId": "Q18503199",
      "country_code": "IT",
      "state_code": "45",
      "state_id": 1773,
      "country_id": 107
    },
    {
      "id": 137612,
      "name": "Чезенатико",
      "name_default": "Cesenatico",
      "native": "Cesenatico",
      "type": "adm3",
      "level": null,
      "parent_id": null,
      "population": 18925,
      "latitude": "44.19987000",
      "longitude": "12.39910000",
      "timezone": "Europe/Rome",
      "wikiDataId": "Q18503199",
      "country_code": "IT",
      "state_code": "45",
      "state_id": 1773,
      "country_id": 107
    },
    {
      "id": 137704,
      "name": "Чиано д'Энца",
      "name_default": "Ciano d'Enza",
      "native": "Ciano d'Enza",
      "type": "adm3",
      "level": null,
      "parent_id": null,
      "population": 2349,
      "latitude": "44.59982000",
      "longitude": "10.41040000",
      "timezone": "Europe/Rome",
      "wikiDataId": "Q18446747",
      "country_code": "IT",
      "state_code": "45",
      "state_id": 1773,
      "country_id": 107
    },
    {
      "id": 137803,
      "name": "Чивителла-ди-Романья",
      "name_default": "Civitella di Romagna",
      "native": "Civitella di Romagna",
      "type": "adm3",
      "level": null,
      "parent_id": null,
      "population": 1523,
      "latitude": "44.00785000",
      "longitude": "11.94398000",
      "timezone": "Europe/Rome",
      "wikiDataId": "Q2333099",
      "country_code": "IT",
      "state_code": "45",
      "state_id": 1773,
      "country_id": 107
    },
    {
      "id": 137806,
      "name": "Класс",
      "name_default": "Classe",
      "native": "Classe",
      "type": "city",
      "level": null,
      "parent_id": null,
      "population": 1989,
      "latitude": "44.37955000",
      "longitude": "12.23654000",
      "timezone": "Europe/Rome",
      "wikiDataId": "Q785115",
      "country_code": "IT",
      "state_code": "45",
      "state_id": 1773,
      "country_id": 107
    },
    {
      "id": 137823,
      "name": "Кокканил-Цеста",
      "name_default": "Coccanile-Cesta",
      "native": "Coccanile-Cesta",
      "type": "city",
      "level": null,
      "parent_id": null,
      "population": 1262,
      "latitude": "44.91667000",
      "longitude": "11.86667000",
      "timezone": "Europe/Rome",
      "wikiDataId": "Q18439195",
      "country_code": "IT",
      "state_code": "45",
      "state_id": 1773,
      "country_id": 107
    },
    {
      "id": 137828,
      "name": "Кодемондо-Кваресимо",
      "name_default": "Codemondo-Quaresimo",
      "native": "Codemondo-Quarresimo",
      "type": "city",
      "level": null,
      "parent_id": null,
      "population": 1244,
      "latitude": "44.69082000",
      "longitude": "10.55098000",
      "timezone": "Europe/Rome",
      "wikiDataId": "Q3682036",
      "country_code": "IT",
      "state_code": "45",
      "state_id": 1773,
      "country_id": 107
    },
    {
      "id": 137831,
      "name": "Кодигоро",
      "name_default": "Codigoro",
      "native": "Codigoro",
      "type": "adm3",
      "level": null,
      "parent_id": null,
      "population": 6752,
      "latitude": "44.83093000",
      "longitude": "12.11073000",
      "timezone": "Europe/Rome",
      "wikiDataId": "Q3682036",
      "country_code": "IT",
      "state_code": "45",
      "state_id": 1773,
      "country_id": 107
    },
    {
      "id": 137832,
      "name": "Кодисотто",
      "name_default": "Codisotto",
      "native": "Codisotto",
      "type": "city",
      "level": null,
      "parent_id": null,
      "population": 1262,
      "latitude": "44.98278000",
      "longitude": "10.72750000",
      "timezone": "Europe/Rome",
      "wikiDataId": "Q18446761",
      "country_code": "IT",
      "state_code": "45",
      "state_id": 1773,
      "country_id": 107
    },
    {
      "id": 137851,
      "name": "Коли",
      "name_default": "Coli",
      "native": "Coli",
      "type": "adm3",
      "level": null,
      "parent_id": null,
      "population": 98,
      "latitude": "44.74582000",
      "longitude": "9.41468000",
      "timezone": "Europe/Rome",
      "wikiDataId": "Q18452883",
      "country_code": "IT",
      "state_code": "45",
      "state_id": 1773,
      "country_id": 107
    },
    {
      "id": 137854,
      "name": "Коллагна",
      "name_default": "Collagna",
      "native": "Collagna",
      "type": "adm3",
      "level": null,
      "parent_id": null,
      "population": 399,
      "latitude": "44.34694000",
      "longitude": "10.27350000",
      "timezone": "Europe/Rome",
      "wikiDataId": "Q18509561",
      "country_code": "IT",
      "state_code": "45",
      "state_id": 1773,
      "country_id": 107
    },
    {
      "id": 137875,
      "name": "Коллеккьо",
      "name_default": "Collecchio",
      "native": "Collecchio",
      "type": "adm3",
      "level": null,
      "parent_id": null,
      "population": 7988,
      "latitude": "44.75197000",
      "longitude": "10.21540000",
      "timezone": "Europe/Rome",
      "wikiDataId": "Q18454524",
      "country_code": "IT",
      "state_code": "45",
      "state_id": 1773,
      "country_id": 107
    },
    {
      "id": 137918,
      "name": "Коломбаро",
      "name_default": "Colombaro",
      "native": "Colombaro",
      "type": "city",
      "level": null,
      "parent_id": null,
      "population": 1380,
      "latitude": "44.55153000",
      "longitude": "10.89628000",
      "timezone": "Europe/Rome",
      "wikiDataId": "Q3683405",
      "country_code": "IT",
      "state_code": "45",
      "state_id": 1773,
      "country_id": 107
    },
    {
      "id": 137926,
      "name": "Колорно",
      "name_default": "Colorno",
      "native": "Colorno",
      "type": "adm3",
      "level": null,
      "parent_id": null,
      "population": 7106,
      "latitude": "44.92572000",
      "longitude": "10.37361000",
      "timezone": "Europe/Rome",
      "wikiDataId": "Q18460606",
      "country_code": "IT",
      "state_code": "45",
      "state_id": 1773,
      "country_id": 107
    },
    {
      "id": 137934,
      "name": "Комаккьо",
      "name_default": "Comacchio",
      "native": "Comacchio",
      "type": "adm3",
      "level": null,
      "parent_id": null,
      "population": 8409,
      "latitude": "44.69478000",
      "longitude": "12.18194000",
      "timezone": "Europe/Rome",
      "wikiDataId": "Q1113069",
      "country_code": "IT",
      "state_code": "45",
      "state_id": 1773,
      "country_id": 107
    },
    {
      "id": 137948,
      "name": "Компьяно",
      "name_default": "Compiano",
      "native": "Compiano",
      "type": "adm3",
      "level": null,
      "parent_id": null,
      "population": 125,
      "latitude": "44.49605000",
      "longitude": "9.66207000",
      "timezone": "Europe/Rome",
      "wikiDataId": "Q18426684",
      "country_code": "IT",
      "state_code": "45",
      "state_id": 1773,
      "country_id": 107
    },
    {
      "id": 137952,
      "name": "Кона",
      "name_default": "Cona",
      "native": "Cona",
      "type": "section",
      "level": null,
      "parent_id": null,
      "population": 1118,
      "latitude": "44.80583000",
      "longitude": "11.70690000",
      "timezone": "Europe/Rome",
      "wikiDataId": "Q3685939",
      "country_code": "IT",
      "state_code": "45",
      "state_id": 1773,
      "country_id": 107
    },
    {
      "id": 137960,
      "name": "Concordia sulla Secchia",
      "name_default": "Concordia sulla Secchia",
      "native": "Concordia sulla Secchia",
      "type": "adm3",
      "level": null,
      "parent_id": null,
      "population": 4832,
      "latitude": "44.91258000",
      "longitude": "10.98802000",
      "timezone": "Europe/Rome",
      "wikiDataId": "Q3685939",
      "country_code": "IT",
      "state_code": "45",
      "state_id": 1773,
      "country_id": 107
    },
    {
      "id": 137971,
      "name": "Консандоло",
      "name_default": "Consandolo",
      "native": "Consandandolo",
      "type": "city",
      "level": null,
      "parent_id": null,
      "population": 1992,
      "latitude": "44.65606000",
      "longitude": "11.77524000",
      "timezone": "Europe/Rome",
      "wikiDataId": "Q18439209",
      "country_code": "IT",
      "state_code": "45",
      "state_id": 1773,
      "country_id": 107
    },
    {
      "id": 137988,
      "name": "Коппаро",
      "name_default": "Copparo",
      "native": "Copparo",
      "type": "adm3",
      "level": null,
      "parent_id": null,
      "population": 8903,
      "latitude": "44.89263000",
      "longitude": "11.82287000",
      "timezone": "Europe/Rome",
      "wikiDataId": "Q3690987",
      "country_code": "IT",
      "state_code": "45",
      "state_id": 1773,
      "country_id": 107
    },
    {
      "id": 137997,
      "name": "Корканьяно",
      "name_default": "Corcagnano",
      "native": "Corpagnano",
      "type": "city",
      "level": null,
      "parent_id": null,
      "population": 3115,
      "latitude": "44.72103000",
      "longitude": "10.30271000",
      "timezone": "Europe/Rome",
      "wikiDataId": "Q18442371",
      "country_code": "IT",
      "state_code": "45",
      "state_id": 1773,
      "country_id": 107
    },
    {
      "id": 138011,
      "name": "Кориано",
      "name_default": "Coriano",
      "native": "Coriano",
      "type": "adm3",
      "level": null,
      "parent_id": null,
      "population": 2359,
      "latitude": "43.96907000",
      "longitude": "12.60055000",
      "timezone": "Europe/Rome",
      "wikiDataId": "Q3693534",
      "country_code": "IT",
      "state_code": "45",
      "state_id": 1773,
      "country_id": 107
    },
    {
      "id": 138032,
      "name": "Корнилио",
      "name_default": "Corniglio",
      "native": "Corniglio",
      "type": "adm3",
      "level": null,
      "parent_id": null,
      "population": 217,
      "latitude": "44.47425000",
      "longitude": "10.09009000",
      "timezone": "Europe/Rome",
      "wikiDataId": "Q18487509",
      "country_code": "IT",
      "state_code": "45",
      "state_id": 1773,
      "country_id": 107
    },
    {
      "id": 138037,
      "name": "Корпо Рено",
      "name_default": "Corpo Reno",
      "native": "Corpo di Reno",
      "type": "city",
      "level": null,
      "parent_id": null,
      "population": 1494,
      "latitude": "44.75591000",
      "longitude": "11.30794000",
      "timezone": "Europe/Rome",
      "wikiDataId": "Q18439225",
      "country_code": "IT",
      "state_code": "45",
      "state_id": 1773,
      "country_id": 107
    },
    {
      "id": 138038,
      "name": "Корполо",
      "name_default": "Corpolò",
      "native": "Corpo",
      "type": "city",
      "level": null,
      "parent_id": null,
      "population": 1338,
      "latitude": "44.01905000",
      "longitude": "12.45266000",
      "timezone": "Europe/Rome",
      "wikiDataId": "Q18447769",
      "country_code": "IT",
      "state_code": "45",
      "state_id": 1773,
      "country_id": 107
    },
    {
      "id": 138039,
      "name": "Корреджо",
      "name_default": "Correggio",
      "native": "Correggio",
      "type": "adm3",
      "level": null,
      "parent_id": null,
      "population": 15571,
      "latitude": "44.76737000",
      "longitude": "10.78345000",
      "timezone": "Europe/Rome",
      "wikiDataId": "Q18447769",
      "country_code": "IT",
      "state_code": "45",
      "state_id": 1773,
      "country_id": 107
    },
    {
      "id": 138060,
      "name": "Кортемаджоре",
      "name_default": "Cortemaggiore",
      "native": "Cortemaggiore",
      "type": "adm3",
      "level": null,
      "parent_id": null,
      "population": 3659,
      "latitude": "44.99185000",
      "longitude": "9.92844000",
      "timezone": "Europe/Rome",
      "wikiDataId": "Q18488299",
      "country_code": "IT",
      "state_code": "45",
      "state_id": 1773,
      "country_id": 107
    },
    {
      "id": 138144,
      "name": "Креспеллано",
      "name_default": "Crespellano",
      "native": "Crespellano",
      "type": "adm3",
      "level": null,
      "parent_id": null,
      "population": 4438,
      "latitude": "44.51196000",
      "longitude": "11.13224000",
      "timezone": "Europe/Rome",
      "wikiDataId": "Q94795",
      "country_code": "IT",
      "state_code": "45",
      "state_id": 1773,
      "country_id": 107
    },
    {
      "id": 138152,
      "name": "Кревалькор",
      "name_default": "Crevalcore",
      "native": "Crevalcore",
      "type": "adm3",
      "level": null,
      "parent_id": null,
      "population": 9017,
      "latitude": "44.71966000",
      "longitude": "11.14765000",
      "timezone": "Europe/Rome",
      "wikiDataId": "Q1081360",
      "country_code": "IT",
      "state_code": "45",
      "state_id": 1773,
      "country_id": 107
    },
    {
      "id": 138213,
      "name": "Кусерколи",
      "name_default": "Cusercoli",
      "native": "Cusercoli",
      "type": "city",
      "level": null,
      "parent_id": null,
      "population": 1076,
      "latitude": "44.04514000",
      "longitude": "12.00740000",
      "timezone": "Europe/Rome",
      "wikiDataId": "Q3699734",
      "country_code": "IT",
      "state_code": "45",
      "state_id": 1773,
      "country_id": 107
    },
    {
      "id": 138235,
      "name": "Децима",
      "name_default": "Decima",
      "native": "Decima",
      "type": "city",
      "level": null,
      "parent_id": null,
      "population": 5181,
      "latitude": "44.71045000",
      "longitude": "11.22978000",
      "timezone": "Europe/Rome",
      "wikiDataId": "Q18438304",
      "country_code": "IT",
      "state_code": "45",
      "state_id": 1773,
      "country_id": 107
    },
    {
      "id": 138275,
      "name": "Додичи Морелли",
      "name_default": "Dodici Morelli",
      "native": "Dodici Morelli",
      "type": "city",
      "level": null,
      "parent_id": null,
      "population": 2267,
      "latitude": "44.79234000",
      "longitude": "11.29124000",
      "timezone": "Europe/Rome",
      "wikiDataId": "Q5287934",
      "country_code": "IT",
      "state_code": "45",
      "state_id": 1773,
      "country_id": 107
    },
    {
      "id": 138316,
      "name": "Доссо",
      "name_default": "Dosso",
      "native": "Dosso",
      "type": "city",
      "level": null,
      "parent_id": null,
      "population": 1436,
      "latitude": "44.76806000",
      "longitude": "11.33938000",
      "timezone": "Europe/Rome",
      "wikiDataId": "Q18439283",
      "country_code": "IT",
      "state_code": "45",
      "state_id": 1773,
      "country_id": 107
    },
    {
      "id": 138322,
      "name": "Довадола",
      "name_default": "Dovadola",
      "native": "Dovadola",
      "type": "adm3",
      "level": null,
      "parent_id": null,
      "population": 1186,
      "latitude": "44.12211000",
      "longitude": "11.88707000",
      "timezone": "Europe/Rome",
      "wikiDataId": "Q2382234",
      "country_code": "IT",
      "state_code": "45",
      "state_id": 1773,
      "country_id": 107
    },
    {
      "id": 138324,
      "name": "Доцца",
      "name_default": "Dozza",
      "native": "Dozza",
      "type": "adm3",
      "level": null,
      "parent_id": null,
      "population": 1142,
      "latitude": "44.36195000",
      "longitude": "11.63547000",
      "timezone": "Europe/Rome",
      "wikiDataId": "Q2382234",
      "country_code": "IT",
      "state_code": "45",
      "state_id": 1773,
      "country_id": 107
    },
    {
      "id": 138392,
      "name": "Фаббрико",
      "name_default": "Fabbrico",
      "native": "Fabbrico",
      "type": "adm3",
      "level": null,
      "parent_id": null,
      "population": 6652,
      "latitude": "44.87214000",
      "longitude": "10.80893000",
      "timezone": "Europe/Rome",
      "wikiDataId": "Q18462884",
      "country_code": "IT",
      "state_code": "45",
      "state_id": 1773,
      "country_id": 107
    },
    {
      "id": 138429,
      "name": "Фанано",
      "name_default": "Fanano",
      "native": "Fanano",
      "type": "adm3",
      "level": null,
      "parent_id": null,
      "population": 1664,
      "latitude": "44.21245000",
      "longitude": "10.79660000",
      "timezone": "Europe/Rome",
      "wikiDataId": "Q18501713",
      "country_code": "IT",
      "state_code": "45",
      "state_id": 1773,
      "country_id": 107
    },
    {
      "id": 138448,
      "name": "Фарини",
      "name_default": "Farini",
      "native": "Farini",
      "type": "adm3",
      "level": null,
      "parent_id": null,
      "population": 254,
      "latitude": "44.71266000",
      "longitude": "9.56887000",
      "timezone": "Europe/Rome",
      "wikiDataId": "Q18437384",
      "country_code": "IT",
      "state_code": "45",
      "state_id": 1773,
      "country_id": 107
    },
    {
      "id": 138466,
      "name": "Фелегара",
      "name_default": "Felegara",
      "native": "Metà",
      "type": "city",
      "level": null,
      "parent_id": null,
      "population": 2702,
      "latitude": "44.72187000",
      "longitude": "10.11273000",
      "timezone": "Europe/Rome",
      "wikiDataId": "Q3742080",
      "country_code": "IT",
      "state_code": "45",
      "state_id": 1773,
      "country_id": 107
    },
    {
      "id": 138468,
      "name": "Фелина",
      "name_default": "Felina",
      "native": "Felina",
      "type": "city",
      "level": null,
      "parent_id": null,
      "population": 1478,
      "latitude": "44.45478000",
      "longitude": "10.46067000",
      "timezone": "Europe/Rome",
      "wikiDataId": "Q18446847",
      "country_code": "IT",
      "state_code": "45",
      "state_id": 1773,
      "country_id": 107
    },
    {
      "id": 138469,
      "name": "Фелино",
      "name_default": "Felino",
      "native": "Felino",
      "type": "adm3",
      "level": null,
      "parent_id": null,
      "population": 4226,
      "latitude": "44.69902000",
      "longitude": "10.23828000",
      "timezone": "Europe/Rome",
      "wikiDataId": "Q18446847",
      "country_code": "IT",
      "state_code": "45",
      "state_id": 1773,
      "country_id": 107
    },
    {
      "id": 138472,
      "name": "Феллегара",
      "name_default": "Fellegara",
      "native": "Verso l'alto",
      "type": "city",
      "level": null,
      "parent_id": null,
      "population": 1017,
      "latitude": "44.61052000",
      "longitude": "10.69700000",
      "timezone": "Europe/Rome",
      "wikiDataId": "Q3742331",
      "country_code": "IT",
      "state_code": "45",
      "state_id": 1773,
      "country_id": 107
    },
    {
      "id": 138489,
      "name": "Феррара",
      "name_default": "Ferrara",
      "native": "Ferrara",
      "type": "adm2",
      "level": null,
      "parent_id": null,
      "population": 132009,
      "latitude": "44.83804000",
      "longitude": "11.62057000",
      "timezone": "Europe/Rome",
      "wikiDataId": "Q18498384",
      "country_code": "IT",
      "state_code": "45",
      "state_id": 1773,
      "country_id": 107
    },
    {
      "id": 138496,
      "name": "Феррьер",
      "name_default": "Ferriere",
      "native": "Ferriere",
      "type": "adm3",
      "level": null,
      "parent_id": null,
      "population": 314,
      "latitude": "44.64385000",
      "longitude": "9.49657000",
      "timezone": "Europe/Rome",
      "wikiDataId": "Q18443146",
      "country_code": "IT",
      "state_code": "45",
      "state_id": 1773,
      "country_id": 107
    },
    {
      "id": 138507,
      "name": "Фиденца",
      "name_default": "Fidenza",
      "native": "Fidenza",
      "type": "adm3",
      "level": null,
      "parent_id": null,
      "population": 26945,
      "latitude": "44.86694000",
      "longitude": "10.06039000",
      "timezone": "Europe/Rome",
      "wikiDataId": "Q18457570",
      "country_code": "IT",
      "state_code": "45",
      "state_id": 1773,
      "country_id": 107
    },
    {
      "id": 138535,
      "name": "Финале Эмилия",
      "name_default": "Finale Emilia",
      "native": "Finale Emilia",
      "type": "adm3",
      "level": null,
      "parent_id": null,
      "population": 9044,
      "latitude": "44.83373000",
      "longitude": "11.29378000",
      "timezone": "Europe/Rome",
      "wikiDataId": "Q2156103",
      "country_code": "IT",
      "state_code": "45",
      "state_id": 1773,
      "country_id": 107
    },
    {
      "id": 138539,
      "name": "Фиорано",
      "name_default": "Fiorano",
      "native": "Fiorano",
      "type": "adm3",
      "level": null,
      "parent_id": null,
      "population": 16278,
      "latitude": "44.53889000",
      "longitude": "10.81166000",
      "timezone": "Europe/Rome",
      "wikiDataId": "Q2156103",
      "country_code": "IT",
      "state_code": "45",
      "state_id": 1773,
      "country_id": 107
    },
    {
      "id": 138542,
      "name": "Фьоренцуола д'Арда",
      "name_default": "Fiorenzuola d'Arda",
      "native": "Fiorenzuola d'Arda",
      "type": "adm3",
      "level": null,
      "parent_id": null,
      "population": 14874,
      "latitude": "44.92435000",
      "longitude": "9.91329000",
      "timezone": "Europe/Rome",
      "wikiDataId": "Q2156103",
      "country_code": "IT",
      "state_code": "45",
      "state_id": 1773,
      "country_id": 107
    },
    {
      "id": 138547,
      "name": "Фьюмальбо-Догана",
      "name_default": "Fiumalbo-Dogana",
      "native": "FIUMEBO-Customs",
      "type": "adm3",
      "level": null,
      "parent_id": null,
      "population": 732,
      "latitude": "44.17925000",
      "longitude": "10.64720000",
      "timezone": "Europe/Rome",
      "wikiDataId": "Q2156103",
      "country_code": "IT",
      "state_code": "45",
      "state_id": 1773,
      "country_id": 107
    },
    {
      "id": 138548,
      "name": "Фьюмана",
      "name_default": "Fiumana",
      "native": "Fiumana",
      "type": "city",
      "level": null,
      "parent_id": null,
      "population": 1647,
      "latitude": "44.14325000",
      "longitude": "11.98719000",
      "timezone": "Europe/Rome",
      "wikiDataId": "Q2530264",
      "country_code": "IT",
      "state_code": "45",
      "state_id": 1773,
      "country_id": 107
    },
    {
      "id": 138575,
      "name": "Фольяно",
      "name_default": "Fogliano",
      "native": "Fogliano",
      "type": "city",
      "level": null,
      "parent_id": null,
      "population": 2607,
      "latitude": "44.64751000",
      "longitude": "10.64505000",
      "timezone": "Europe/Rome",
      "wikiDataId": "Q18446852",
      "country_code": "IT",
      "state_code": "45",
      "state_id": 1773,
      "country_id": 107
    },
    {
      "id": 138577,
      "name": "Фоньяно",
      "name_default": "Fognano",
      "native": "Fognano",
      "type": "city",
      "level": null,
      "parent_id": null,
      "population": 1400,
      "latitude": "44.20509000",
      "longitude": "11.73782000",
      "timezone": "Europe/Rome",
      "wikiDataId": "Q18445985",
      "country_code": "IT",
      "state_code": "45",
      "state_id": 1773,
      "country_id": 107
    },
    {
      "id": 138597,
      "name": "Фонтанеличе",
      "name_default": "Fontanelice",
      "native": "Fontanelice",
      "type": "adm3",
      "level": null,
      "parent_id": null,
      "population": 1207,
      "latitude": "44.25932000",
      "longitude": "11.55852000",
      "timezone": "Europe/Rome",
      "wikiDataId": "Q18473390",
      "country_code": "IT",
      "state_code": "45",
      "state_id": 1773,
      "country_id": 107
    },
    {
      "id": 138600,
      "name": "Фонтанеллато",
      "name_default": "Fontanellato",
      "native": "Fontanellato",
      "type": "adm3",
      "level": null,
      "parent_id": null,
      "population": 3897,
      "latitude": "44.88187000",
      "longitude": "10.17631000",
      "timezone": "Europe/Rome",
      "wikiDataId": "Q18504159",
      "country_code": "IT",
      "state_code": "45",
      "state_id": 1773,
      "country_id": 107
    },
    {
      "id": 138613,
      "name": "Фонтевиво",
      "name_default": "Fontevivo",
      "native": "Fontevivo",
      "type": "adm3",
      "level": null,
      "parent_id": null,
      "population": 1254,
      "latitude": "44.85942000",
      "longitude": "10.17281000",
      "timezone": "Europe/Rome",
      "wikiDataId": "Q3747504",
      "country_code": "IT",
      "state_code": "45",
      "state_id": 1773,
      "country_id": 107
    },
    {
      "id": 138619,
      "name": "Форче",
      "name_default": "Forche",
      "native": "Forche",
      "type": "city",
      "level": null,
      "parent_id": null,
      "population": 1330,
      "latitude": "44.63646000",
      "longitude": "10.57316000",
      "timezone": "Europe/Rome",
      "wikiDataId": "Q18446857",
      "country_code": "IT",
      "state_code": "45",
      "state_id": 1773,
      "country_id": 107
    },
    {
      "id": 138632,
      "name": "Форли",
      "name_default": "Forlì",
      "native": "Forlì",
      "type": "adm2",
      "level": null,
      "parent_id": null,
      "population": 116440,
      "latitude": "44.22177000",
      "longitude": "12.04144000",
      "timezone": "Europe/Rome",
      "wikiDataId": "Q18504665",
      "country_code": "IT",
      "state_code": "45",
      "state_id": 1773,
      "country_id": 107
    },
    {
      "id": 138631,
      "name": "Форлимпополи",
      "name_default": "Forlimpopoli",
      "native": "Forlimpopoli",
      "type": "adm3",
      "level": null,
      "parent_id": null,
      "population": 9392,
      "latitude": "44.19107000",
      "longitude": "12.12873000",
      "timezone": "Europe/Rome",
      "wikiDataId": "Q18504665",
      "country_code": "IT",
      "state_code": "45",
      "state_id": 1773,
      "country_id": 107
    },
    {
      "id": 138637,
      "name": "Формика",
      "name_default": "Formica",
      "native": "Formica",
      "type": "city",
      "level": null,
      "parent_id": null,
      "population": 2209,
      "latitude": "44.46838000",
      "longitude": "11.01337000",
      "timezone": "Europe/Rome",
      "wikiDataId": "Q18440987",
      "country_code": "IT",
      "state_code": "45",
      "state_id": 1773,
      "country_id": 107
    },
    {
      "id": 138640,
      "name": "Формигин",
      "name_default": "Formigine",
      "native": "Formigine",
      "type": "adm3",
      "level": null,
      "parent_id": null,
      "population": 34467,
      "latitude": "44.57268000",
      "longitude": "10.84737000",
      "timezone": "Europe/Rome",
      "wikiDataId": "Q18440987",
      "country_code": "IT",
      "state_code": "45",
      "state_id": 1773,
      "country_id": 107
    },
    {
      "id": 138642,
      "name": "Форминьяна",
      "name_default": "Formignana",
      "native": "Promposto",
      "type": "adm3",
      "level": null,
      "parent_id": null,
      "population": 1974,
      "latitude": "44.84230000",
      "longitude": "11.85935000",
      "timezone": "Europe/Rome",
      "wikiDataId": "Q18440987",
      "country_code": "IT",
      "state_code": "45",
      "state_id": 1773,
      "country_id": 107
    },
    {
      "id": 138644,
      "name": "Форнасе Зараттини",
      "name_default": "Fornace Zarattini",
      "native": "Fornace Zarattini",
      "type": "city",
      "level": null,
      "parent_id": null,
      "population": 1138,
      "latitude": "44.41667000",
      "longitude": "12.13333000",
      "timezone": "Europe/Rome",
      "wikiDataId": "Q18445990",
      "country_code": "IT",
      "state_code": "45",
      "state_id": 1773,
      "country_id": 107
    },
    {
      "id": 138660,
      "name": "Форново ди Таро",
      "name_default": "Fornovo di Taro",
      "native": "Fornovo di Taro",
      "type": "adm3",
      "level": null,
      "parent_id": null,
      "population": 3029,
      "latitude": "44.69465000",
      "longitude": "10.10178000",
      "timezone": "Europe/Rome",
      "wikiDataId": "Q3748429",
      "country_code": "IT",
      "state_code": "45",
      "state_id": 1773,
      "country_id": 107
    },
    {
      "id": 138668,
      "name": "Фосса",
      "name_default": "Fossa",
      "native": "Fossa",
      "type": "city",
      "level": null,
      "parent_id": null,
      "population": 1344,
      "latitude": "44.92304000",
      "longitude": "11.02356000",
      "timezone": "Europe/Rome",
      "wikiDataId": "Q18440989",
      "country_code": "IT",
      "state_code": "45",
      "state_id": 1773,
      "country_id": 107
    },
    {
      "id": 138679,
      "name": "Фоссо Гиайя",
      "name_default": "Fosso Ghiaia",
      "native": "Fosso Ghiaia",
      "type": "city",
      "level": null,
      "parent_id": null,
      "population": 1326,
      "latitude": "44.35525000",
      "longitude": "12.25430000",
      "timezone": "Europe/Rome",
      "wikiDataId": "Q3749016",
      "country_code": "IT",
      "state_code": "45",
      "state_id": 1773,
      "country_id": 107
    },
    {
      "id": 138680,
      "name": "Фоссоли",
      "name_default": "Fossoli",
      "native": "Fossoli",
      "type": "locality",
      "level": null,
      "parent_id": null,
      "population": 3578,
      "latitude": "44.82160000",
      "longitude": "10.88977000",
      "timezone": "Europe/Rome",
      "wikiDataId": "Q321506",
      "country_code": "IT",
      "state_code": "45",
      "state_id": 1773,
      "country_id": 107
    },
    {
      "id": 138704,
      "name": "Франколино",
      "name_default": "Francolino",
      "native": "Francolino",
      "type": "city",
      "level": null,
      "parent_id": null,
      "population": 1961,
      "latitude": "44.89662000",
      "longitude": "11.65701000",
      "timezone": "Europe/Rome",
      "wikiDataId": "Q3751712",
      "country_code": "IT",
      "state_code": "45",
      "state_id": 1773,
      "country_id": 107
    },
    {
      "id": 138716,
      "name": "Фрассиноро",
      "name_default": "Frassinoro",
      "native": "Frassinoro",
      "type": "adm3",
      "level": null,
      "parent_id": null,
      "population": 598,
      "latitude": "44.29451000",
      "longitude": "10.57117000",
      "timezone": "Europe/Rome",
      "wikiDataId": "Q3751712",
      "country_code": "IT",
      "state_code": "45",
      "state_id": 1773,
      "country_id": 107
    },
    {
      "id": 138720,
      "name": "Фратта Терме",
      "name_default": "Fratta Terme",
      "native": "Fratta Terme",
      "type": "city",
      "level": null,
      "parent_id": null,
      "population": 1487,
      "latitude": "44.14157000",
      "longitude": "12.10213000",
      "timezone": "Europe/Rome",
      "wikiDataId": "Q3752466",
      "country_code": "IT",
      "state_code": "45",
      "state_id": 1773,
      "country_id": 107
    },
    {
      "id": 138778,
      "name": "Гаджио",
      "name_default": "Gaggio",
      "native": "Gaggio",
      "type": "city",
      "level": null,
      "parent_id": null,
      "population": 1280,
      "latitude": "44.63458000",
      "longitude": "11.01334000",
      "timezone": "Europe/Rome",
      "wikiDataId": "Q18441004",
      "country_code": "IT",
      "state_code": "45",
      "state_id": 1773,
      "country_id": 107
    },
    {
      "id": 138779,
      "name": "Гаджио Монтано",
      "name_default": "Gaggio Montano",
      "native": "Gaggio Montano",
      "type": "adm3",
      "level": null,
      "parent_id": null,
      "population": 1407,
      "latitude": "44.19583000",
      "longitude": "10.93518000",
      "timezone": "Europe/Rome",
      "wikiDataId": "Q18441004",
      "country_code": "IT",
      "state_code": "45",
      "state_id": 1773,
      "country_id": 107
    },
    {
      "id": 138786,
      "name": "Гайано",
      "name_default": "Gaiano",
      "native": "Gaiano",
      "type": "city",
      "level": null,
      "parent_id": null,
      "population": 1074,
      "latitude": "44.72391000",
      "longitude": "10.17267000",
      "timezone": "Europe/Rome",
      "wikiDataId": "Q18442538",
      "country_code": "IT",
      "state_code": "45",
      "state_id": 1773,
      "country_id": 107
    },
    {
      "id": 138789,
      "name": "Гайбанелла-Сант-Эдиджио",
      "name_default": "Gaibanella-Sant'Edigio",
      "native": "Caibanella-Saint",
      "type": "city",
      "level": null,
      "parent_id": null,
      "population": 1038,
      "latitude": "44.76667000",
      "longitude": "11.65000000",
      "timezone": "Europe/Rome",
      "wikiDataId": "Q18439318",
      "country_code": "IT",
      "state_code": "45",
      "state_id": 1773,
      "country_id": 107
    },
    {
      "id": 138799,
      "name": "Галеата",
      "name_default": "Galeata",
      "native": "Secchio",
      "type": "adm3",
      "level": null,
      "parent_id": null,
      "population": 2433,
      "latitude": "43.99607000",
      "longitude": "11.91057000",
      "timezone": "Europe/Rome",
      "wikiDataId": "Q18449329",
      "country_code": "IT",
      "state_code": "45",
      "state_id": 1773,
      "country_id": 107
    },
    {
      "id": 138814,
      "name": "Галло",
      "name_default": "Gallo",
      "native": "Gallo",
      "type": "city",
      "level": null,
      "parent_id": null,
      "population": 2056,
      "latitude": "44.73144000",
      "longitude": "11.55284000",
      "timezone": "Europe/Rome",
      "wikiDataId": "Q18439319",
      "country_code": "IT",
      "state_code": "45",
      "state_id": 1773,
      "country_id": 107
    },
    {
      "id": 138833,
      "name": "Гамбеттола",
      "name_default": "Gambettola",
      "native": "Gambettola",
      "type": "adm3",
      "level": null,
      "parent_id": null,
      "population": 10682,
      "latitude": "44.11748000",
      "longitude": "12.33705000",
      "timezone": "Europe/Rome",
      "wikiDataId": "Q2161598",
      "country_code": "IT",
      "state_code": "45",
      "state_id": 1773,
      "country_id": 107
    },
    {
      "id": 138866,
      "name": "Гаттео а Маре",
      "name_default": "Gatteo a Mare",
      "native": "Gatteo a Mare",
      "type": "city",
      "level": null,
      "parent_id": null,
      "population": 1912,
      "latitude": "44.17069000",
      "longitude": "12.43549000",
      "timezone": "Europe/Rome",
      "wikiDataId": "Q15078215",
      "country_code": "IT",
      "state_code": "45",
      "state_id": 1773,
      "country_id": 107
    },
    {
      "id": 138867,
      "name": "Гаттео-Сант-Анджело",
      "name_default": "Gatteo-Sant'Angelo",
      "native": "Gatteo-Sant'Angelo",
      "type": "adm3",
      "level": null,
      "parent_id": null,
      "population": 5603,
      "latitude": "44.11194000",
      "longitude": "12.39139000",
      "timezone": "Europe/Rome",
      "wikiDataId": "Q18440056",
      "country_code": "IT",
      "state_code": "45",
      "state_id": 1773,
      "country_id": 107
    },
    {
      "id": 138886,
      "name": "Гаццола",
      "name_default": "Gazzola",
      "native": "Gazzola",
      "type": "adm3",
      "level": null,
      "parent_id": null,
      "population": 349,
      "latitude": "44.96006000",
      "longitude": "9.54896000",
      "timezone": "Europe/Rome",
      "wikiDataId": "Q18490431",
      "country_code": "IT",
      "state_code": "45",
      "state_id": 1773,
      "country_id": 107
    },
    {
      "id": 138892,
      "name": "Джеммано",
      "name_default": "Gemmano",
      "native": "Gemmano",
      "type": "adm3",
      "level": null,
      "parent_id": null,
      "population": 360,
      "latitude": "43.90393000",
      "longitude": "12.58091000",
      "timezone": "Europe/Rome",
      "wikiDataId": "Q18447874",
      "country_code": "IT",
      "state_code": "45",
      "state_id": 1773,
      "country_id": 107
    },
    {
      "id": 139006,
      "name": "Глори",
      "name_default": "Glorie",
      "native": "Gloria",
      "type": "city",
      "level": null,
      "parent_id": null,
      "population": 1306,
      "latitude": "44.46994000",
      "longitude": "12.07707000",
      "timezone": "Europe/Rome",
      "wikiDataId": "Q2071281",
      "country_code": "IT",
      "state_code": "45",
      "state_id": 1773,
      "country_id": 107
    },
    {
      "id": 139009,
      "name": "Годо",
      "name_default": "Godo",
      "native": "Bene",
      "type": "city",
      "level": null,
      "parent_id": null,
      "population": 1579,
      "latitude": "44.39173000",
      "longitude": "12.07495000",
      "timezone": "Europe/Rome",
      "wikiDataId": "Q2326372",
      "country_code": "IT",
      "state_code": "45",
      "state_id": 1773,
      "country_id": 107
    },
    {
      "id": 139039,
      "name": "Горо",
      "name_default": "Goro",
      "native": "Goro",
      "type": "adm3",
      "level": null,
      "parent_id": null,
      "population": 3475,
      "latitude": "44.85150000",
      "longitude": "12.29651000",
      "timezone": "Europe/Rome",
      "wikiDataId": "Q18501820",
      "country_code": "IT",
      "state_code": "45",
      "state_id": 1773,
      "country_id": 107
    },
    {
      "id": 139041,
      "name": "Горцано",
      "name_default": "Gorzano",
      "native": "Gorzano",
      "type": "city",
      "level": null,
      "parent_id": null,
      "population": 1455,
      "latitude": "44.51626000",
      "longitude": "10.87983000",
      "timezone": "Europe/Rome",
      "wikiDataId": "Q18441037",
      "country_code": "IT",
      "state_code": "45",
      "state_id": 1773,
      "country_id": 107
    },
    {
      "id": 139044,
      "name": "Госсоленго",
      "name_default": "Gossolengo",
      "native": "Gossolengo",
      "type": "adm3",
      "level": null,
      "parent_id": null,
      "population": 3542,
      "latitude": "45.00248000",
      "longitude": "9.61799000",
      "timezone": "Europe/Rome",
      "wikiDataId": "Q18441037",
      "country_code": "IT",
      "state_code": "45",
      "state_id": 1773,
      "country_id": 107
    },
    {
      "id": 139057,
      "name": "Граньяно Треббиенсе",
      "name_default": "Gragnano Trebbiense",
      "native": "Gragnano Trebbiense",
      "type": "adm3",
      "level": null,
      "parent_id": null,
      "population": 2274,
      "latitude": "45.01225000",
      "longitude": "9.57139000",
      "timezone": "Europe/Rome",
      "wikiDataId": "Q18498460",
      "country_code": "IT",
      "state_code": "45",
      "state_id": 1773,
      "country_id": 107
    },
    {
      "id": 139060,
      "name": "Гранароло",
      "name_default": "Granarolo",
      "native": "Granarolo",
      "type": "section",
      "level": null,
      "parent_id": null,
      "population": 1249,
      "latitude": "44.35859000",
      "longitude": "11.93459000",
      "timezone": "Europe/Rome",
      "wikiDataId": "Q2293125",
      "country_code": "IT",
      "state_code": "45",
      "state_id": 1773,
      "country_id": 107
    },
    {
      "id": 139061,
      "name": "Гранароло дель Эмилия и Виадагола",
      "name_default": "Granarolo dell'Emilia e Viadagola",
      "native": "Granarolo dell'Emilia e Viadagola",
      "type": "adm3",
      "level": null,
      "parent_id": null,
      "population": 5633,
      "latitude": "44.55327000",
      "longitude": "11.44291000",
      "timezone": "Europe/Rome",
      "wikiDataId": "Q2293125",
      "country_code": "IT",
      "state_code": "45",
      "state_id": 1773,
      "country_id": 107
    },
    {
      "id": 139105,
      "name": "Гриззана",
      "name_default": "Grizzana",
      "native": "Grizzana",
      "type": "adm3",
      "level": null,
      "parent_id": null,
      "population": 284,
      "latitude": "44.25806000",
      "longitude": "11.15557000",
      "timezone": "Europe/Rome",
      "wikiDataId": "Q18438367",
      "country_code": "IT",
      "state_code": "45",
      "state_id": 1773,
      "country_id": 107
    },
    {
      "id": 139106,
      "name": "Гриццана Моранди",
      "name_default": "Grizzana Morandi",
      "native": "Grizzana Morandi",
      "type": "adm3",
      "level": null,
      "parent_id": null,
      "population": 3887,
      "latitude": "44.25820000",
      "longitude": "11.15288000",
      "timezone": "Europe/Rome",
      "wikiDataId": "Q18438367",
      "country_code": "IT",
      "state_code": "45",
      "state_id": 1773,
      "country_id": 107
    },
    {
      "id": 139114,
      "name": "Гроппарелло",
      "name_default": "Gropparello",
      "native": "Gropparello",
      "type": "adm3",
      "level": null,
      "parent_id": null,
      "population": 769,
      "latitude": "44.83354000",
      "longitude": "9.72801000",
      "timezone": "Europe/Rome",
      "wikiDataId": "Q18468288",
      "country_code": "IT",
      "state_code": "45",
      "state_id": 1773,
      "country_id": 107
    },
    {
      "id": 139148,
      "name": "Гальтиери",
      "name_default": "Gualtieri",
      "native": "Gualtieri",
      "type": "adm3",
      "level": null,
      "parent_id": null,
      "population": 3461,
      "latitude": "44.89736000",
      "longitude": "10.62860000",
      "timezone": "Europe/Rome",
      "wikiDataId": "Q18453762",
      "country_code": "IT",
      "state_code": "45",
      "state_id": 1773,
      "country_id": 107
    },
    {
      "id": 139169,
      "name": "Гвасталла",
      "name_default": "Guastalla",
      "native": "Guastalla",
      "type": "adm3",
      "level": null,
      "parent_id": null,
      "population": 14591,
      "latitude": "44.91172000",
      "longitude": "10.66186000",
      "timezone": "Europe/Rome",
      "wikiDataId": "Q18429326",
      "country_code": "IT",
      "state_code": "45",
      "state_id": 1773,
      "country_id": 107
    },
    {
      "id": 139180,
      "name": "Гуилья",
      "name_default": "Guiglia",
      "native": "Guiglia",
      "type": "adm3",
      "level": null,
      "parent_id": null,
      "population": 1635,
      "latitude": "44.42432000",
      "longitude": "10.96125000",
      "timezone": "Europe/Rome",
      "wikiDataId": "Q18454681",
      "country_code": "IT",
      "state_code": "45",
      "state_id": 1773,
      "country_id": 107
    },
    {
      "id": 139199,
      "name": "Имола",
      "name_default": "Imola",
      "native": "Imola",
      "type": "adm3",
      "level": null,
      "parent_id": null,
      "population": 69121,
      "latitude": "44.35916000",
      "longitude": "11.71320000",
      "timezone": "Europe/Rome",
      "wikiDataId": "Q3792920",
      "country_code": "IT",
      "state_code": "45",
      "state_id": 1773,
      "country_id": 107
    },
    {
      "id": 139279,
      "name": "Иоланда ди Савойя",
      "name_default": "Jolanda di Savoia",
      "native": "Jolanda di Savoia",
      "type": "adm3",
      "level": null,
      "parent_id": null,
      "population": 1562,
      "latitude": "44.88319000",
      "longitude": "11.97910000",
      "timezone": "Europe/Rome",
      "wikiDataId": "Q1118172",
      "country_code": "IT",
      "state_code": "45",
      "state_id": 1773,
      "country_id": 107
    },
    {
      "id": 139302,
      "name": "Ла Салетта-Тамара",
      "name_default": "La Saletta-Tamara",
      "native": "La Saletta-Tamara",
      "type": "city",
      "level": null,
      "parent_id": null,
      "population": 1469,
      "latitude": "44.88151000",
      "longitude": "11.77236000",
      "timezone": "Europe/Rome",
      "wikiDataId": "Q18439398",
      "country_code": "IT",
      "state_code": "45",
      "state_id": 1773,
      "country_id": 107
    },
    {
      "id": 139328,
      "name": "Лагосанто",
      "name_default": "Lagosanto",
      "native": "Lagosanto",
      "type": "adm3",
      "level": null,
      "parent_id": null,
      "population": 4718,
      "latitude": "44.76282000",
      "longitude": "12.14005000",
      "timezone": "Europe/Rome",
      "wikiDataId": "Q18454703",
      "country_code": "IT",
      "state_code": "45",
      "state_id": 1773,
      "country_id": 107
    },
    {
      "id": 139339,
      "name": "Лама",
      "name_default": "Lama",
      "native": "Lama",
      "type": "adm3",
      "level": null,
      "parent_id": null,
      "population": 1094,
      "latitude": "44.30726000",
      "longitude": "10.73060000",
      "timezone": "Europe/Rome",
      "wikiDataId": "Q18429861",
      "country_code": "IT",
      "state_code": "45",
      "state_id": 1773,
      "country_id": 107
    },
    {
      "id": 139358,
      "name": "Лангирано",
      "name_default": "Langhirano",
      "native": "Langhirano",
      "type": "adm3",
      "level": null,
      "parent_id": null,
      "population": 5894,
      "latitude": "44.61913000",
      "longitude": "10.26652000",
      "timezone": "Europe/Rome",
      "wikiDataId": "Q18437448",
      "country_code": "IT",
      "state_code": "45",
      "state_id": 1773,
      "country_id": 107
    },
    {
      "id": 139414,
      "name": "Лавеццола",
      "name_default": "Lavezzola",
      "native": "Lavezzola",
      "type": "city",
      "level": null,
      "parent_id": null,
      "population": 3017,
      "latitude": "44.56099000",
      "longitude": "11.87557000",
      "timezone": "Europe/Rome",
      "wikiDataId": "Q3828055",
      "country_code": "IT",
      "state_code": "45",
      "state_id": 1773,
      "country_id": 107
    },
    {
      "id": 139453,
      "name": "Lentigione-Sorbolo a Mane",
      "name_default": "Lentigione-Sorbolo a Mane",
      "native": "Lentigione-Sorbolo a Mane",
      "type": "city",
      "level": null,
      "parent_id": null,
      "population": 2218,
      "latitude": "44.86667000",
      "longitude": "10.48333000",
      "timezone": "Europe/Rome",
      "wikiDataId": "Q18447022",
      "country_code": "IT",
      "state_code": "45",
      "state_id": 1773,
      "country_id": 107
    },
    {
      "id": 139468,
      "name": "Lesignano de'Bagni",
      "name_default": "Lesignano de'Bagni",
      "native": "Lesignano de'Bagni",
      "type": "adm3",
      "level": null,
      "parent_id": null,
      "population": 3825,
      "latitude": "44.64346000",
      "longitude": "10.30039000",
      "timezone": "Europe/Rome",
      "wikiDataId": "Q18448167",
      "country_code": "IT",
      "state_code": "45",
      "state_id": 1773,
      "country_id": 107
    },
    {
      "id": 139502,
      "name": "Лидо Адриано",
      "name_default": "Lido Adriano",
      "native": "Leggi Adriano",
      "type": "city",
      "level": null,
      "parent_id": null,
      "population": 5693,
      "latitude": "44.41673000",
      "longitude": "12.30552000",
      "timezone": "Europe/Rome",
      "wikiDataId": "Q3832068",
      "country_code": "IT",
      "state_code": "45",
      "state_id": 1773,
      "country_id": 107
    },
    {
      "id": 139503,
      "name": "Lido degli Estensi",
      "name_default": "Lido degli Estensi",
      "native": "Lido degli Estensi",
      "type": "city",
      "level": null,
      "parent_id": null,
      "population": 1644,
      "latitude": "44.66639000",
      "longitude": "12.25000000",
      "timezone": "Europe/Rome",
      "wikiDataId": "Q2427518",
      "country_code": "IT",
      "state_code": "45",
      "state_id": 1773,
      "country_id": 107
    },