{
  "locale": "it",
  "country": {
    "id": 207,
    "code": "ES",
    "iso3": "ESP",
    "numeric_code": "724",
    "name": "Spagna",
    "name_default": "Spain",
    "native": "España",
    "capital": "Madrid",
    "phonecode": "34",
    "currency": "EUR",
    "currency_name": "Euro",
    "currency_symbol": "€",
    "tld": ".es",
    "population": 49315949,
    "gdp": 1799511,
    "region": "Europe",
    "region_id": 4,
    "subregion": "Southern Europe",
    "subregion_id": 16,
    "nationality": "Spanish",
    "timezones": [
      {
        "zoneName": "Africa/Ceuta",
        "gmtOffset": 3600,
        "gmtOffsetName": "UTC+01:00",
        "abbreviation": "CET",
        "tzName": "Central European Time"
      },
      {
        "zoneName": "Atlantic/Canary",
        "gmtOffset": 0,
        "gmtOffsetName": "UTC±00",
        "abbreviation": "WET",
        "tzName": "Western European Time"
      },
      {
        "zoneName": "Europe/Madrid",
        "gmtOffset": 3600,
        "gmtOffsetName": "UTC+01:00",
        "abbreviation": "CET",
        "tzName": "Central European Time"
      }
    ],
    "latitude": "40.00000000",
    "longitude": "-4.00000000",
    "emoji": "🇪🇸",
    "emojiU": "U+1F1EA U+1F1F8"
  },
  "state": {
    "id": 1147,
    "code": "SA",
    "iso2": "SA",
    "iso3166_2": "ES-SA",
    "fips_code": "",
    "name": "Salamanca",
    "name_default": "Salamanca",
    "native": "Salamanca",
    "type": "province",
    "level": "1",
    "parent_id": "5329",
    "population": 144866,
    "latitude": "40.76655820",
    "longitude": "-6.02176500",
    "timezone": "Europe/Madrid",
    "wikiDataId": "Q71080",
    "country_code": "ES"
  },
  "cities": [
    {
      "id": 31919,
      "name": "Abusejo",
      "name_default": "Abusejo",
      "native": "Abus",
      "type": "adm3",
      "level": null,
      "parent_id": null,
      "population": 248,
      "latitude": "40.70900000",
      "longitude": "-6.14074000",
      "timezone": "Europe/Madrid",
      "wikiDataId": "Q1634871",
      "country_code": "ES",
      "state_code": "SA",
      "state_id": 1147,
      "country_id": 207
    },
    {
      "id": 31945,
      "name": "Agallas",
      "name_default": "Agallas",
      "native": "Agallas",
      "type": "adm3",
      "level": null,
      "parent_id": null,
      "population": 180,
      "latitude": "40.44867000",
      "longitude": "-6.44176000",
      "timezone": "Europe/Madrid",
      "wikiDataId": "Q1634860",
      "country_code": "ES",
      "state_code": "SA",
      "state_id": 1147,
      "country_id": 207
    },
    {
      "id": 31976,
      "name": "Ahigal de los Aceiteros",
      "name_default": "Ahigal de los Aceiteros",
      "native": "Ahigal de los Aceiteros",
      "type": "adm3",
      "level": null,
      "parent_id": null,
      "population": 164,
      "latitude": "40.87231000",
      "longitude": "-6.74702000",
      "timezone": "Europe/Madrid",
      "wikiDataId": "Q1628726",
      "country_code": "ES",
      "state_code": "SA",
      "state_id": 1147,
      "country_id": 207
    },
    {
      "id": 31975,
      "name": "Ahigal de Villarino",
      "name_default": "Ahigal de Villarino",
      "native": "Ahigal de Villarino",
      "type": "adm3",
      "level": null,
      "parent_id": null,
      "population": 42,
      "latitude": "41.15819000",
      "longitude": "-6.38037000",
      "timezone": "Europe/Madrid",
      "wikiDataId": "Q1628684",
      "country_code": "ES",
      "state_code": "SA",
      "state_id": 1147,
      "country_id": 207
    },
    {
      "id": 32003,
      "name": "Alaraz",
      "name_default": "Alaraz",
      "native": "Alaraz",
      "type": "adm3",
      "level": null,
      "parent_id": null,
      "population": 610,
      "latitude": "40.74886000",
      "longitude": "-5.28781000",
      "timezone": "Europe/Madrid",
      "wikiDataId": "Q1625907",
      "country_code": "ES",
      "state_code": "SA",
      "state_id": 1147,
      "country_id": 207
    },
    {
      "id": 32011,
      "name": "Alba de Tormes",
      "name_default": "Alba de Tormes",
      "native": "Alba de Tormes",
      "type": "adm3",
      "level": null,
      "parent_id": null,
      "population": 5122,
      "latitude": "40.82664000",
      "longitude": "-5.51237000",
      "timezone": "Europe/Madrid",
      "wikiDataId": "Q946344",
      "country_code": "ES",
      "state_code": "SA",
      "state_id": 1147,
      "country_id": 207
    },
    {
      "id": 32012,
      "name": "Alba de Yeltes",
      "name_default": "Alba de Yeltes",
      "native": "Alba de Yeltes",
      "type": "adm3",
      "level": null,
      "parent_id": null,
      "population": 255,
      "latitude": "40.67180000",
      "longitude": "-6.31660000",
      "timezone": "Europe/Madrid",
      "wikiDataId": "Q1650536",
      "country_code": "ES",
      "state_code": "SA",
      "state_id": 1147,
      "country_id": 207
    },
    {
      "id": 32113,
      "name": "Alconada",
      "name_default": "Alconada",
      "native": "Alconada",
      "type": "adm3",
      "level": null,
      "parent_id": null,
      "population": 203,
      "latitude": "40.91092000",
      "longitude": "-5.36305000",
      "timezone": "Europe/Madrid",
      "wikiDataId": "Q1648532",
      "country_code": "ES",
      "state_code": "SA",
      "state_id": 1147,
      "country_id": 207
    },
    {
      "id": 32145,
      "name": "Aldea del Obispo",
      "name_default": "Aldea del Obispo",
      "native": "Aldea del Obispo",
      "type": "adm3",
      "level": null,
      "parent_id": null,
      "population": 401,
      "latitude": "40.70677000",
      "longitude": "-6.79253000",
      "timezone": "Europe/Madrid",
      "wikiDataId": "Q427514",
      "country_code": "ES",
      "state_code": "SA",
      "state_id": 1147,
      "country_id": 207
    },
    {
      "id": 32148,
      "name": "Aldeacipreste",
      "name_default": "Aldeacipreste",
      "native": "Aldecipre",
      "type": "adm3",
      "level": null,
      "parent_id": null,
      "population": 189,
      "latitude": "40.38090000",
      "longitude": "-5.89754000",
      "timezone": "Europe/Madrid",
      "wikiDataId": "Q1648494",
      "country_code": "ES",
      "state_code": "SA",
      "state_id": 1147,
      "country_id": 207
    },
    {
      "id": 32149,
      "name": "Aldeadávila de la Ribera",
      "name_default": "Aldeadávila de la Ribera",
      "native": "Aldeadávila de la Ribera",
      "type": "adm3",
      "level": null,
      "parent_id": null,
      "population": 1490,
      "latitude": "41.21769000",
      "longitude": "-6.61786000",
      "timezone": "Europe/Madrid",
      "wikiDataId": "Q1625925",
      "country_code": "ES",
      "state_code": "SA",
      "state_id": 1147,
      "country_id": 207
    },
    {
      "id": 32152,
      "name": "Aldealengua",
      "name_default": "Aldealengua",
      "native": "Aldeal",
      "type": "adm3",
      "level": null,
      "parent_id": null,
      "population": 561,
      "latitude": "40.98090000",
      "longitude": "-5.54922000",
      "timezone": "Europe/Madrid",
      "wikiDataId": "Q591641",
      "country_code": "ES",
      "state_code": "SA",
      "state_id": 1147,
      "country_id": 207
    },
    {
      "id": 32159,
      "name": "Aldeanueva de Figueroa",
      "name_default": "Aldeanueva de Figueroa",
      "native": "Aldeanueva de Figueroa",
      "type": "adm3",
      "level": null,
      "parent_id": null,
      "population": 253,
      "latitude": "41.14809000",
      "longitude": "-5.52404000",
      "timezone": "Europe/Madrid",
      "wikiDataId": "Q1637606",
      "country_code": "ES",
      "state_code": "SA",
      "state_id": 1147,
      "country_id": 207
    },
    {
      "id": 32163,
      "name": "Aldeanueva de la Sierra",
      "name_default": "Aldeanueva de la Sierra",
      "native": "Aldeanueva de la Sierra",
      "type": "adm3",
      "level": null,
      "parent_id": null,
      "population": 98,
      "latitude": "40.61620000",
      "longitude": "-6.10023000",
      "timezone": "Europe/Madrid",
      "wikiDataId": "Q1640781",
      "country_code": "ES",
      "state_code": "SA",
      "state_id": 1147,
      "country_id": 207
    },
    {
      "id": 32168,
      "name": "Aldearrodrigo",
      "name_default": "Aldearrodrigo",
      "native": "AldeARRODRIGO",
      "type": "adm3",
      "level": null,
      "parent_id": null,
      "population": 150,
      "latitude": "41.10966000",
      "longitude": "-5.80726000",
      "timezone": "Europe/Madrid",
      "wikiDataId": "Q933527",
      "country_code": "ES",
      "state_code": "SA",
      "state_id": 1147,
      "country_id": 207
    },
    {
      "id": 32169,
      "name": "Aldearrubia",
      "name_default": "Aldearrubia",
      "native": "Aderrona",
      "type": "adm3",
      "level": null,
      "parent_id": null,
      "population": 519,
      "latitude": "41.00807000",
      "longitude": "-5.49829000",
      "timezone": "Europe/Madrid",
      "wikiDataId": "Q1110050",
      "country_code": "ES",
      "state_code": "SA",
      "state_id": 1147,
      "country_id": 207
    },
    {
      "id": 32171,
      "name": "Aldeaseca de Alba",
      "name_default": "Aldeaseca de Alba",
      "native": "Aldeaseca de Alba",
      "type": "adm3",
      "level": null,
      "parent_id": null,
      "population": 104,
      "latitude": "40.81909000",
      "longitude": "-5.44699000",
      "timezone": "Europe/Madrid",
      "wikiDataId": "Q1640761",
      "country_code": "ES",
      "state_code": "SA",
      "state_id": 1147,
      "country_id": 207
    },
    {
      "id": 32172,
      "name": "Aldeaseca de la Frontera",
      "name_default": "Aldeaseca de la Frontera",
      "native": "Aldeaseca de la Frontera",
      "type": "adm3",
      "level": null,
      "parent_id": null,
      "population": 327,
      "latitude": "40.94161000",
      "longitude": "-5.20719000",
      "timezone": "Europe/Madrid",
      "wikiDataId": "Q1640711",
      "country_code": "ES",
      "state_code": "SA",
      "state_id": 1147,
      "country_id": 207
    },
    {
      "id": 32174,
      "name": "Aldeatejada",
      "name_default": "Aldeatejada",
      "native": "Aldeatejada",
      "type": "adm3",
      "level": null,
      "parent_id": null,
      "population": 873,
      "latitude": "40.92168000",
      "longitude": "-5.69273000",
      "timezone": "Europe/Madrid",
      "wikiDataId": "Q1650475",
      "country_code": "ES",
      "state_code": "SA",
      "state_id": 1147,
      "country_id": 207
    },
    {
      "id": 32175,
      "name": "Aldeavieja de Tormes",
      "name_default": "Aldeavieja de Tormes",
      "native": "Aldeavieja de Tormes",
      "type": "adm3",
      "level": null,
      "parent_id": null,
      "population": 131,
      "latitude": "40.58307000",
      "longitude": "-5.61705000",
      "timezone": "Europe/Madrid",
      "wikiDataId": "Q1648549",
      "country_code": "ES",
      "state_code": "SA",
      "state_id": 1147,
      "country_id": 207
    },
    {
      "id": 32178,
      "name": "Aldehuela de la Bóveda",
      "name_default": "Aldehuela de la Bóveda",
      "native": "Aldehuela de la Bóveda",
      "type": "adm3",
      "level": null,
      "parent_id": null,
      "population": 336,
      "latitude": "40.85077000",
      "longitude": "-6.05260000",
      "timezone": "Europe/Madrid",
      "wikiDataId": "Q1651757",
      "country_code": "ES",
      "state_code": "SA",
      "state_id": 1147,
      "country_id": 207
    },
    {
      "id": 32177,
      "name": "Aldehuela de Yeltes",
      "name_default": "Aldehuela de Yeltes",
      "native": "Aldehuela de Yeltes",
      "type": "adm3",
      "level": null,
      "parent_id": null,
      "population": 243,
      "latitude": "40.66254000",
      "longitude": "-6.24332000",
      "timezone": "Europe/Madrid",
      "wikiDataId": "Q22827982",
      "country_code": "ES",
      "state_code": "SA",
      "state_id": 1147,
      "country_id": 207
    },
    {
      "id": 32284,
      "name": "Almenara de Tormes",
      "name_default": "Almenara de Tormes",
      "native": "Almenara de Tormes",
      "type": "adm3",
      "level": null,
      "parent_id": null,
      "population": 305,
      "latitude": "41.06390000",
      "longitude": "-5.82350000",
      "timezone": "Europe/Madrid",
      "wikiDataId": "Q681076",
      "country_code": "ES",
      "state_code": "SA",
      "state_id": 1147,
      "country_id": 207
    },
    {
      "id": 32285,
      "name": "Almendra",
      "name_default": "Almendra",
      "native": "Almendra",
      "type": "adm3",
      "level": null,
      "parent_id": null,
      "population": 226,
      "latitude": "41.22922000",
      "longitude": "-6.34068000",
      "timezone": "Europe/Madrid",
      "wikiDataId": "Q681076",
      "country_code": "ES",
      "state_code": "SA",
      "state_id": 1147,
      "country_id": 207
    },
    {
      "id": 32367,
      "name": "Anaya de Alba",
      "name_default": "Anaya de Alba",
      "native": "Anaya de Alba",
      "type": "adm3",
      "level": null,
      "parent_id": null,
      "population": 277,
      "latitude": "40.72828000",
      "longitude": "-5.49266000",
      "timezone": "Europe/Madrid",
      "wikiDataId": "Q1765316",
      "country_code": "ES",
      "state_code": "SA",
      "state_id": 1147,
      "country_id": 207
    },
    {
      "id": 32599,
      "name": "Añover de Tormes",
      "name_default": "Añover de Tormes",
      "native": "Añover de Tormes",
      "type": "adm3",
      "level": null,
      "parent_id": null,
      "population": 89,
      "latitude": "41.13658000",
      "longitude": "-5.91585000",
      "timezone": "Europe/Madrid",
      "wikiDataId": "Q1648537",
      "country_code": "ES",
      "state_code": "SA",
      "state_id": 1147,
      "country_id": 207
    },
    {
      "id": 152505,
      "name": "Arabayona de Mógica",
      "name_default": "Arabayona de Mógica",
      "native": "Arabayona de Mógica",
      "type": "adm3",
      "level": null,
      "parent_id": null,
      "population": 325,
      "latitude": "41.04842910",
      "longitude": "-5.38741130",
      "timezone": "Europe/Madrid",
      "wikiDataId": "Q428433",
      "country_code": "ES",
      "state_code": "SA",
      "state_id": 1147,
      "country_id": 207
    },
    {
      "id": 32415,
      "name": "Arapiles",
      "name_default": "Arapiles",
      "native": "Arrepiles",
      "type": "adm3",
      "level": null,
      "parent_id": null,
      "population": 509,
      "latitude": "40.89366000",
      "longitude": "-5.64494000",
      "timezone": "Europe/Madrid",
      "wikiDataId": "Q1641154",
      "country_code": "ES",
      "state_code": "SA",
      "state_id": 1147,
      "country_id": 207
    },
    {
      "id": 32428,
      "name": "Arcediano",
      "name_default": "Arcediano",
      "native": "Arcediano",
      "type": "adm3",
      "level": null,
      "parent_id": null,
      "population": 96,
      "latitude": "41.09379000",
      "longitude": "-5.56055000",
      "timezone": "Europe/Madrid",
      "wikiDataId": "Q1777910",
      "country_code": "ES",
      "state_code": "SA",
      "state_id": 1147,
      "country_id": 207
    },
    {
      "id": 32487,
      "name": "Armenteros",
      "name_default": "Armenteros",
      "native": "Armenteros",
      "type": "adm3",
      "level": null,
      "parent_id": null,
      "population": 305,
      "latitude": "40.59320000",
      "longitude": "-5.44806000",
      "timezone": "Europe/Madrid",
      "wikiDataId": "Q1651814",
      "country_code": "ES",
      "state_code": "SA",
      "state_id": 1147,
      "country_id": 207
    },
    {
      "id": 32600,
      "name": "Babilafuente",
      "name_default": "Babilafuente",
      "native": "Babilafuente",
      "type": "adm3",
      "level": null,
      "parent_id": null,
      "population": 925,
      "latitude": "40.97704000",
      "longitude": "-5.42554000",
      "timezone": "Europe/Madrid",
      "wikiDataId": "Q1606563",
      "country_code": "ES",
      "state_code": "SA",
      "state_id": 1147,
      "country_id": 207
    },
    {
      "id": 32702,
      "name": "Bañobárez",
      "name_default": "Bañobárez",
      "native": "Bañobárez",
      "type": "adm3",
      "level": null,
      "parent_id": null,
      "population": 356,
      "latitude": "40.84825000",
      "longitude": "-6.61311000",
      "timezone": "Europe/Madrid",
      "wikiDataId": "Q1640483",
      "country_code": "ES",
      "state_code": "SA",
      "state_id": 1147,
      "country_id": 207
    },
    {
      "id": 152509,
      "name": "Barbadillo",
      "name_default": "Barbadillo",
      "native": "Barbadillo",
      "type": "adm3",
      "level": null,
      "parent_id": null,
      "population": 390,
      "latitude": "40.93190170",
      "longitude": "-5.88089550",
      "timezone": "Europe/Madrid",
      "wikiDataId": "Q1648454",
      "country_code": "ES",
      "state_code": "SA",
      "state_id": 1147,
      "country_id": 207
    },
    {
      "id": 32644,
      "name": "Barbalos",
      "name_default": "Barbalos",
      "native": "Bárbocas",
      "type": "adm3",
      "level": null,
      "parent_id": null,
      "population": 100,
      "latitude": "40.67678000",
      "longitude": "-5.94258000",
      "timezone": "Europe/Madrid",
      "wikiDataId": "Q919413",
      "country_code": "ES",
      "state_code": "SA",
      "state_id": 1147,
      "country_id": 207
    },
    {
      "id": 32654,
      "name": "Barcellona",
      "name_default": "Barceo",
      "native": "Barceo",
      "type": "adm3",
      "level": null,
      "parent_id": null,
      "population": 48,
      "latitude": "41.06108000",
      "longitude": "-6.45175000",
      "timezone": "Europe/Madrid",
      "wikiDataId": "Q1628733",
      "country_code": "ES",
      "state_code": "SA",
      "state_id": 1147,
      "country_id": 207
    },
    {
      "id": 32681,
      "name": "Barruecopardo",
      "name_default": "Barruecopardo",
      "native": "Interior",
      "type": "adm3",
      "level": null,
      "parent_id": null,
      "population": 421,
      "latitude": "41.07215000",
      "longitude": "-6.66423000",
      "timezone": "Europe/Madrid",
      "wikiDataId": "Q1640512",
      "country_code": "ES",
      "state_code": "SA",
      "state_id": 1147,
      "country_id": 207
    },
    {
      "id": 33058,
      "name": "Béjar",
      "name_default": "Béjar",
      "native": "Béjar",
      "type": "adm3",
      "level": null,
      "parent_id": null,
      "population": 15007,
      "latitude": "40.38641000",
      "longitude": "-5.76341000",
      "timezone": "Europe/Madrid",
      "wikiDataId": "Q695375",
      "country_code": "ES",
      "state_code": "SA",
      "state_id": 1147,
      "country_id": 207
    },
    {
      "id": 32738,
      "name": "Beleña",
      "name_default": "Beleña",
      "native": "Beleña",
      "type": "adm3",
      "level": null,
      "parent_id": null,
      "population": 177,
      "latitude": "40.75067000",
      "longitude": "-5.62713000",
      "timezone": "Europe/Madrid",
      "wikiDataId": "Q24016479",
      "country_code": "ES",
      "state_code": "SA",
      "state_id": 1147,
      "country_id": 207
    },
    {
      "id": 32858,
      "name": "Bermellar",
      "name_default": "Bermellar",
      "native": "Bermellar",
      "type": "adm3",
      "level": null,
      "parent_id": null,
      "population": 190,
      "latitude": "40.99918000",
      "longitude": "-6.67014000",
      "timezone": "Europe/Madrid",
      "wikiDataId": "Q683499",
      "country_code": "ES",
      "state_code": "SA",
      "state_id": 1147,
      "country_id": 207
    },
    {
      "id": 32869,
      "name": "Berrocal de Huebra",
      "name_default": "Berrocal de Huebra",
      "native": "Berrocal de Huebra",
      "type": "adm3",
      "level": null,
      "parent_id": null,
      "population": 105,
      "latitude": "40.71864000",
      "longitude": "-6.00054000",
      "timezone": "Europe/Madrid",
      "wikiDataId": "Q1640878",
      "country_code": "ES",
      "state_code": "SA",
      "state_id": 1147,
      "country_id": 207
    },
    {
      "id": 32870,
      "name": "Berrocal de Salvatierra",
      "name_default": "Berrocal de Salvatierra",
      "native": "Berrocal de Salvatierra",
      "type": "adm3",
      "level": null,
      "parent_id": null,
      "population": 120,
      "latitude": "40.63331000",
      "longitude": "-5.69005000",
      "timezone": "Europe/Madrid",
      "wikiDataId": "Q1651966",
      "country_code": "ES",
      "state_code": "SA",
      "state_id": 1147,
      "country_id": 207
    },
    {
      "id": 32914,
      "name": "Boada",
      "name_default": "Boada",
      "native": "Boad",
      "type": "adm3",
      "level": null,
      "parent_id": null,
      "population": 359,
      "latitude": "40.81569000",
      "longitude": "-6.30611000",
      "timezone": "Europe/Madrid",
      "wikiDataId": "Q1777965",
      "country_code": "ES",
      "state_code": "SA",
      "state_id": 1147,
      "country_id": 207
    },
    {
      "id": 32929,
      "name": "Bogajo",
      "name_default": "Bogajo",
      "native": "La riqueza",
      "type": "adm3",
      "level": null,
      "parent_id": null,
      "population": 194,
      "latitude": "40.90710000",
      "longitude": "-6.53065000",
      "timezone": "Europe/Madrid",
      "wikiDataId": "Q1648226",
      "country_code": "ES",
      "state_code": "SA",
      "state_id": 1147,
      "country_id": 207
    },
    {
      "id": 33063,
      "name": "Bóveda del Río Almar",
      "name_default": "Bóveda del Río Almar",
      "native": "Bóveda del Río Almar",
      "type": "adm3",
      "level": null,
      "parent_id": null,
      "population": 290,
      "latitude": "40.85719000",
      "longitude": "-5.21030000",
      "timezone": "Europe/Madrid",
      "wikiDataId": "Q1640620",
      "country_code": "ES",
      "state_code": "SA",
      "state_id": 1147,
      "country_id": 207
    },
    {
      "id": 32987,
      "name": "Brincones",
      "name_default": "Brincones",
      "native": "Pendientes",
      "type": "adm3",
      "level": null,
      "parent_id": null,
      "population": 87,
      "latitude": "41.11339000",
      "longitude": "-6.34865000",
      "timezone": "Europe/Madrid",
      "wikiDataId": "Q1625911",
      "country_code": "ES",
      "state_code": "SA",
      "state_id": 1147,
      "country_id": 207
    },
    {
      "id": 33001,
      "name": "Buenamadre",
      "name_default": "Buenamadre",
      "native": "Buenamadre",
      "type": "adm3",
      "level": null,
      "parent_id": null,
      "population": 152,
      "latitude": "40.85705000",
      "longitude": "-6.24987000",
      "timezone": "Europe/Madrid",
      "wikiDataId": "Q1650519",
      "country_code": "ES",
      "state_code": "SA",
      "state_id": 1147,
      "country_id": 207
    },
    {
      "id": 33003,
      "name": "Buonavista",
      "name_default": "Buenavista",
      "native": "Buenavista",
      "type": "adm3",
      "level": null,
      "parent_id": null,
      "population": 157,
      "latitude": "40.76763000",
      "longitude": "-5.61139000",
      "timezone": "Europe/Madrid",
      "wikiDataId": "Q2000956",
      "country_code": "ES",
      "state_code": "SA",
      "state_id": 1147,
      "country_id": 207
    },
    {
      "id": 33078,
      "name": "Cabeza del Caballo",
      "name_default": "Cabeza del Caballo",
      "native": "Cabeza del Caballo",
      "type": "adm3",
      "level": null,
      "parent_id": null,
      "population": 443,
      "latitude": "41.12982000",
      "longitude": "-6.55742000",
      "timezone": "Europe/Madrid",
      "wikiDataId": "Q1639363",
      "country_code": "ES",
      "state_code": "SA",
      "state_id": 1147,
      "country_id": 207
    },
    {
      "id": 33081,
      "name": "Cabezabellosa de la Calzada",
      "name_default": "Cabezabellosa de la Calzada",
      "native": "Cabezabellosa de la Calzada",
      "type": "adm3",
      "level": null,
      "parent_id": null,
      "population": 123,
      "latitude": "41.04395000",
      "longitude": "-5.48866000",
      "timezone": "Europe/Madrid",
      "wikiDataId": "Q1651906",
      "country_code": "ES",
      "state_code": "SA",
      "state_id": 1147,
      "country_id": 207
    },
    {
      "id": 33105,
      "name": "Cabrerizos",
      "name_default": "Cabrerizos",
      "native": "Cabrerizos",
      "type": "adm3",
      "level": null,
      "parent_id": null,
      "population": 2919,
      "latitude": "40.97808000",
      "longitude": "-5.60907000",
      "timezone": "Europe/Madrid",
      "wikiDataId": "Q1628707",
      "country_code": "ES",
      "state_code": "SA",
      "state_id": 1147,
      "country_id": 207
    },
    {
      "id": 33110,
      "name": "Cabrillas",
      "name_default": "Cabrillas",
      "native": "Cabrillas",
      "type": "adm3",
      "level": null,
      "parent_id": null,
      "population": 476,
      "latitude": "40.73977000",
      "longitude": "-6.17873000",
      "timezone": "Europe/Madrid",
      "wikiDataId": "Q1640871",
      "country_code": "ES",
      "state_code": "SA",
      "state_id": 1147,
      "country_id": 207
    },
    {
      "id": 33153,
      "name": "Calvarrasa de Abajo",
      "name_default": "Calvarrasa de Abajo",
      "native": "Calvarrasa de Abajo",
      "type": "adm3",
      "level": null,
      "parent_id": null,
      "population": 1201,
      "latitude": "40.94638000",
      "longitude": "-5.55258000",
      "timezone": "Europe/Madrid",
      "wikiDataId": "Q1640886",
      "country_code": "ES",
      "state_code": "SA",
      "state_id": 1147,
      "country_id": 207
    },
    {
      "id": 33154,
      "name": "Calvarrasa de Arriba",
      "name_default": "Calvarrasa de Arriba",
      "native": "Calvarrasa de Arriba",
      "type": "adm3",
      "level": null,
      "parent_id": null,
      "population": 615,
      "latitude": "40.90672000",
      "longitude": "-5.59199000",
      "timezone": "Europe/Madrid",
      "wikiDataId": "Q24014172",
      "country_code": "ES",
      "state_code": "SA",
      "state_id": 1147,
      "country_id": 207
    },
    {
      "id": 33157,
      "name": "Calzada de Don Diego",
      "name_default": "Calzada de Don Diego",
      "native": "Calzada de Don Diego",
      "type": "adm3",
      "level": null,
      "parent_id": null,
      "population": 221,
      "latitude": "40.90500000",
      "longitude": "-5.90279000",
      "timezone": "Europe/Madrid",
      "wikiDataId": "Q1648516",
      "country_code": "ES",
      "state_code": "SA",
      "state_id": 1147,
      "country_id": 207
    },
    {
      "id": 33158,
      "name": "Calzada de Valdunciel",
      "name_default": "Calzada de Valdunciel",
      "native": "Calzada de Valdunciel",
      "type": "adm3",
      "level": null,
      "parent_id": null,
      "population": 700,
      "latitude": "41.08663000",
      "longitude": "-5.70219000",
      "timezone": "Europe/Madrid",
      "wikiDataId": "Q24014169",
      "country_code": "ES",
      "state_code": "SA",
      "state_id": 1147,
      "country_id": 207
    },
    {
      "id": 33190,
      "name": "Campillo de Azaba",
      "name_default": "Campillo de Azaba",
      "native": "Campillo de Azaba",
      "type": "adm3",
      "level": null,
      "parent_id": null,
      "population": 245,
      "latitude": "40.50951000",
      "longitude": "-6.68705000",
      "timezone": "Europe/Madrid",
      "wikiDataId": "Q1648490",
      "country_code": "ES",
      "state_code": "SA",
      "state_id": 1147,
      "country_id": 207
    },
    {
      "id": 33227,
      "name": "Candelario",
      "name_default": "Candelario",
      "native": "Candelario",
      "type": "adm3",
      "level": null,
      "parent_id": null,
      "population": 843,
      "latitude": "40.36806000",
      "longitude": "-5.74499000",
      "timezone": "Europe/Madrid",
      "wikiDataId": "Q487268",
      "country_code": "ES",
      "state_code": "SA",
      "state_id": 1147,
      "country_id": 207
    },
    {
      "id": 33240,
      "name": "Canillas de Abajo",
      "name_default": "Canillas de Abajo",
      "native": "Canillas de Abajo",
      "type": "adm3",
      "level": null,
      "parent_id": null,
      "population": 101,
      "latitude": "40.92266000",
      "longitude": "-5.92905000",
      "timezone": "Europe/Madrid",
      "wikiDataId": "Q1640649",
      "country_code": "ES",
      "state_code": "SA",
      "state_id": 1147,
      "country_id": 207
    },
    {
      "id": 33249,
      "name": "Cantagallo",
      "name_default": "Cantagallo",
      "native": "Cantagallo",
      "type": "adm3",
      "level": null,
      "parent_id": null,
      "population": 279,
      "latitude": "40.37239000",
      "longitude": "-5.81890000",
      "timezone": "Europe/Madrid",
      "wikiDataId": "Q1939628",
      "country_code": "ES",
      "state_code": "SA",
      "state_id": 1147,
      "country_id": 207
    },
    {
      "id": 33250,
      "name": "Cantalapiedra",
      "name_default": "Cantalapiedra",
      "native": "Cantalapia",
      "type": "adm3",
      "level": null,
      "parent_id": null,
      "population": 1225,
      "latitude": "41.12630000",
      "longitude": "-5.18351000",
      "timezone": "Europe/Madrid",
      "wikiDataId": "Q1628716",
      "country_code": "ES",
      "state_code": "SA",
      "state_id": 1147,
      "country_id": 207
    },
    {
      "id": 33254,
      "name": "Cantalpino",
      "name_default": "Cantalpino",
      "native": "Cantalpino",
      "type": "adm3",
      "level": null,
      "parent_id": null,
      "population": 1055,
      "latitude": "41.05341000",
      "longitude": "-5.33045000",
      "timezone": "Europe/Madrid",
      "wikiDataId": "Q1640807",
      "country_code": "ES",
      "state_code": "SA",
      "state_id": 1147,
      "country_id": 207
    },
    {
      "id": 33255,
      "name": "Cantaracillo",
      "name_default": "Cantaracillo",
      "native": "Cantaracillo",
      "type": "adm3",
      "level": null,
      "parent_id": null,
      "population": 245,
      "latitude": "40.90376000",
      "longitude": "-5.16291000",
      "timezone": "Europe/Madrid",
      "wikiDataId": "Q1640695",
      "country_code": "ES",
      "state_code": "SA",
      "state_id": 1147,
      "country_id": 207
    },
    {
      "id": 33281,
      "name": "Carbajosa de la Sagrada",
      "name_default": "Carbajosa de la Sagrada",
      "native": "Carbajosa de la Sagrada",
      "type": "adm3",
      "level": null,
      "parent_id": null,
      "population": 3467,
      "latitude": "40.93305000",
      "longitude": "-5.65026000",
      "timezone": "Europe/Madrid",
      "wikiDataId": "Q1640862",
      "country_code": "ES",
      "state_code": "SA",
      "state_id": 1147,
      "country_id": 207
    },
    {
      "id": 33314,
      "name": "Carpio de Azaba",
      "name_default": "Carpio de Azaba",
      "native": "Carpio de Azaba",
      "type": "adm3",
      "level": null,
      "parent_id": null,
      "population": 112,
      "latitude": "40.59602000",
      "longitude": "-6.64680000",
      "timezone": "Europe/Madrid",
      "wikiDataId": "Q1640680",
      "country_code": "ES",
      "state_code": "SA",
      "state_id": 1147,
      "country_id": 207
    },
    {
      "id": 33318,
      "name": "Carrascal de Barregas",
      "name_default": "Carrascal de Barregas",
      "native": "Cortascal de mix",
      "type": "adm3",
      "level": null,
      "parent_id": null,
      "population": 567,
      "latitude": "40.97868000",
      "longitude": "-5.76227000",
      "timezone": "Europe/Madrid",
      "wikiDataId": "Q1648479",
      "country_code": "ES",
      "state_code": "SA",
      "state_id": 1147,
      "country_id": 207
    },
    {
      "id": 33319,
      "name": "Carrascal del Obispo",
      "name_default": "Carrascal del Obispo",
      "native": "Carrascal del Obispo",
      "type": "adm3",
      "level": null,
      "parent_id": null,
      "population": 187,
      "latitude": "40.76376000",
      "longitude": "-5.99913000",
      "timezone": "Europe/Madrid",
      "wikiDataId": "Q1640566",
      "country_code": "ES",
      "state_code": "SA",
      "state_id": 1147,
      "country_id": 207
    },
    {
      "id": 33344,
      "name": "Casafranca",
      "name_default": "Casafranca",
      "native": "Clima en CaSophy",
      "type": "adm3",
      "level": null,
      "parent_id": null,
      "population": 68,
      "latitude": "40.59267000",
      "longitude": "-5.76039000",
      "timezone": "Europe/Madrid",
      "wikiDataId": "Q1628754",
      "country_code": "ES",
      "state_code": "SA",
      "state_id": 1147,
      "country_id": 207
    },
    {
      "id": 33390,
      "name": "Casillas de Flores",
      "name_default": "Casillas de Flores",
      "native": "Casillas de Flores",
      "type": "adm3",
      "level": null,
      "parent_id": null,
      "population": 222,
      "latitude": "40.38108000",
      "longitude": "-6.75602000",
      "timezone": "Europe/Madrid",
      "wikiDataId": "Q1628765",
      "country_code": "ES",
      "state_code": "SA",
      "state_id": 1147,
      "country_id": 207
    },
    {
      "id": 33415,
      "name": "Castellanos de Moriscos",
      "name_default": "Castellanos de Moriscos",
      "native": "Castellanos de Moriscos",
      "type": "adm3",
      "level": null,
      "parent_id": null,
      "population": 441,
      "latitude": "41.01917000",
      "longitude": "-5.59065000",
      "timezone": "Europe/Madrid",
      "wikiDataId": "Q1628745",
      "country_code": "ES",
      "state_code": "SA",
      "state_id": 1147,
      "country_id": 207
    },
    {
      "id": 33416,
      "name": "Castellanos de Villiquera",
      "name_default": "Castellanos de Villiquera",
      "native": "Castellanos de Villiquera",
      "type": "adm3",
      "level": null,
      "parent_id": null,
      "population": 703,
      "latitude": "41.05139000",
      "longitude": "-5.69477000",
      "timezone": "Europe/Madrid",
      "wikiDataId": "Q1640666",
      "country_code": "ES",
      "state_code": "SA",
      "state_id": 1147,
      "country_id": 207
    },
    {
      "id": 33458,
      "name": "Castillejo de Martín Viejo",
      "name_default": "Castillejo de Martín Viejo",
      "native": "Castillejo de Martín Viejo",
      "type": "adm3",
      "level": null,
      "parent_id": null,
      "population": 315,
      "latitude": "40.69728000",
      "longitude": "-6.63763000",
      "timezone": "Europe/Madrid",
      "wikiDataId": "Q1640598",
      "country_code": "ES",
      "state_code": "SA",
      "state_id": 1147,
      "country_id": 207
    },
    {
      "id": 33471,
      "name": "Castraz",
      "name_default": "Castraz",
      "native": "Castaza",
      "type": "adm3",
      "level": null,
      "parent_id": null,
      "population": 56,
      "latitude": "40.70517000",
      "longitude": "-6.33383000",
      "timezone": "Europe/Madrid",
      "wikiDataId": "Q1640722",
      "country_code": "ES",
      "state_code": "SA",
      "state_id": 1147,
      "country_id": 207
    },
    {
      "id": 33576,
      "name": "Cepeda",
      "name_default": "Cepeda",
      "native": "Cepeda",
      "type": "adm3",
      "level": null,
      "parent_id": null,
      "population": 471,
      "latitude": "40.46600000",
      "longitude": "-6.04100000",
      "timezone": "Europe/Madrid",
      "wikiDataId": "Q1640738",
      "country_code": "ES",
      "state_code": "SA",
      "state_id": 1147,
      "country_id": 207
    },
    {
      "id": 33583,
      "name": "Cereceda de la Sierra",
      "name_default": "Cereceda de la Sierra",
      "native": "Cereceda de la Sierra",
      "type": "adm3",
      "level": null,
      "parent_id": null,
      "population": 97,
      "latitude": "40.56627000",
      "longitude": "-6.09140000",
      "timezone": "Europe/Madrid",
      "wikiDataId": "Q1606686",
      "country_code": "ES",
      "state_code": "SA",
      "state_id": 1147,
      "country_id": 207
    },
    {
      "id": 33586,
      "name": "Cerezal de Peñahorcada",
      "name_default": "Cerezal de Peñahorcada",
      "native": "Cerezal de Peñahorcada",
      "type": "adm3",
      "level": null,
      "parent_id": null,
      "population": 127,
      "latitude": "41.13071000",
      "longitude": "-6.65357000",
      "timezone": "Europe/Madrid",
      "wikiDataId": "Q1637672",
      "country_code": "ES",
      "state_code": "SA",
      "state_id": 1147,
      "country_id": 207
    },
    {
      "id": 33591,
      "name": "Cerralbo",
      "name_default": "Cerralbo",
      "native": "Cerralbo",
      "type": "adm3",
      "level": null,
      "parent_id": null,
      "population": 231,
      "latitude": "40.97347000",
      "longitude": "-6.58710000",
      "timezone": "Europe/Madrid",
      "wikiDataId": "Q1633616",
      "country_code": "ES",
      "state_code": "SA",
      "state_id": 1147,
      "country_id": 207
    },
    {
      "id": 152519,
      "name": "Cespedosa de Tormes",
      "name_default": "Cespedosa de Tormes",
      "native": "Cespedosa de Tormes",
      "type": "city",
      "level": null,
      "parent_id": null,
      "population": 496,
      "latitude": "40.54393940",
      "longitude": "-5.58076380",
      "timezone": "Europe/Madrid",
      "wikiDataId": "Q1640854",
      "country_code": "ES",
      "state_code": "SA",
      "state_id": 1147,
      "country_id": 207
    },
    {
      "id": 152521,
      "name": "Chagarcía Medianero",
      "name_default": "Chagarcía Medianero",
      "native": "Chagarcía Medianero",
      "type": "adm3",
      "level": null,
      "parent_id": null,
      "population": 73,
      "latitude": "40.64962540",
      "longitude": "-5.38152250",
      "timezone": "Europe/Madrid",
      "wikiDataId": "Q1651955",
      "country_code": "ES",
      "state_code": "SA",
      "state_id": 1147,
      "country_id": 207
    },
    {
      "id": 33668,
      "name": "Cilleros de la Bastida",
      "name_default": "Cilleros de la Bastida",
      "native": "Cilleros de la Bastida",
      "type": "adm3",
      "level": null,
      "parent_id": null,
      "population": 35,
      "latitude": "40.57614000",
      "longitude": "-6.06094000",
      "timezone": "Europe/Madrid",
      "wikiDataId": "Q1640895",
      "country_code": "ES",
      "state_code": "SA",
      "state_id": 1147,
      "country_id": 207
    },
    {
      "id": 33680,
      "name": "Cipérez",
      "name_default": "Cipérez",
      "native": "Lucha",
      "type": "adm3",
      "level": null,
      "parent_id": null,
      "population": 376,
      "latitude": "40.96210000",
      "longitude": "-6.26552000",
      "timezone": "Europe/Madrid",
      "wikiDataId": "Q1640795",
      "country_code": "ES",
      "state_code": "SA",
      "state_id": 1147,
      "country_id": 207
    },
    {
      "id": 33698,
      "name": "Città Rodrigo",
      "name_default": "Ciudad Rodrigo",
      "native": "Ciudad Rodrigo",
      "type": "adm3",
      "level": null,
      "parent_id": null,
      "population": 11846,
      "latitude": "40.60000000",
      "longitude": "-6.53333000",
      "timezone": "Europe/Madrid",
      "wikiDataId": "Q820476",
      "country_code": "ES",
      "state_code": "SA",
      "state_id": 1147,
      "country_id": 207
    },
    {
      "id": 33715,
      "name": "Coca de Alba",
      "name_default": "Coca de Alba",
      "native": "Coca de Alba",
      "type": "adm3",
      "level": null,
      "parent_id": null,
      "population": 124,
      "latitude": "40.87833000",
      "longitude": "-5.36537000",
      "timezone": "Europe/Madrid",
      "wikiDataId": "Q1651744",
      "country_code": "ES",
      "state_code": "SA",
      "state_id": 1147,
      "country_id": 207
    },
    {
      "id": 33743,
      "name": "Colmenar de Montemayor",
      "name_default": "Colmenar de Montemayor",
      "native": "Colmenar de Montemayor",
      "type": "adm3",
      "level": null,
      "parent_id": null,
      "population": 239,
      "latitude": "40.39957000",
      "longitude": "-5.95618000",
      "timezone": "Europe/Madrid",
      "wikiDataId": "Q1640815",
      "country_code": "ES",
      "state_code": "SA",
      "state_id": 1147,
      "country_id": 207
    },
    {
      "id": 33781,
      "name": "Cordovilla",
      "name_default": "Cordovilla",
      "native": "Cordovilla",
      "type": "adm3",
      "level": null,
      "parent_id": null,
      "population": 108,
      "latitude": "40.95095000",
      "longitude": "-5.40725000",
      "timezone": "Europe/Madrid",
      "wikiDataId": "Q1651775",
      "country_code": "ES",
      "state_code": "SA",
      "state_id": 1147,
      "country_id": 207
    },
    {
      "id": 33837,
      "name": "Cristoforo",
      "name_default": "Cristóbal",
      "native": "Cristóbal",
      "type": "adm3",
      "level": null,
      "parent_id": null,
      "population": 210,
      "latitude": "40.46923000",
      "longitude": "-5.88967000",
      "timezone": "Europe/Madrid",
      "wikiDataId": "Q1651917",
      "country_code": "ES",
      "state_code": "SA",
      "state_id": 1147,
      "country_id": 207
    },
    {
      "id": 33935,
      "name": "Dios le Guarde",
      "name_default": "Dios le Guarde",
      "native": "Dios le Guarde",
      "type": "adm3",
      "level": null,
      "parent_id": null,
      "population": 174,
      "latitude": "40.64283000",
      "longitude": "-6.31511000",
      "timezone": "Europe/Madrid",
      "wikiDataId": "Q1650163",
      "country_code": "ES",
      "state_code": "SA",
      "state_id": 1147,
      "country_id": 207
    },
    {
      "id": 33955,
      "name": "Doñinos de Ledesma",
      "name_default": "Doñinos de Ledesma",
      "native": "Doñinos de Ledesma",
      "type": "adm3",
      "level": null,
      "parent_id": null,
      "population": 98,
      "latitude": "41.01251000",
      "longitude": "-6.03412000",
      "timezone": "Europe/Madrid",
      "wikiDataId": "Q1640625",
      "country_code": "ES",
      "state_code": "SA",
      "state_id": 1147,
      "country_id": 207
    },
    {
      "id": 33956,
      "name": "Doñinos de Salamanca",
      "name_default": "Doñinos de Salamanca",
      "native": "Doñinos de Salamanca",
      "type": "adm3",
      "level": null,
      "parent_id": null,
      "population": 835,
      "latitude": "40.95978000",
      "longitude": "-5.74349000",
      "timezone": "Europe/Madrid",
      "wikiDataId": "Q1640688",
      "country_code": "ES",
      "state_code": "SA",
      "state_id": 1147,
      "country_id": 207
    },
    {
      "id": 33975,
      "name": "Ejeme",
      "name_default": "Ejeme",
      "native": "Mi movimiento",
      "type": "adm3",
      "level": null,
      "parent_id": null,
      "population": 144,
      "latitude": "40.76685000",
      "longitude": "-5.53828000",
      "timezone": "Europe/Madrid",
      "wikiDataId": "Q1648510",
      "country_code": "ES",
      "state_code": "SA",
      "state_id": 1147,
      "country_id": 207
    },
    {
      "id": 152506,
      "name": "El Arco",
      "name_default": "El Arco",
      "native": "El Arco",
      "type": "adm3",
      "level": null,
      "parent_id": null,
      "population": 89,
      "latitude": "41.11312950",
      "longitude": "-5.82549440",
      "timezone": "Europe/Madrid",
      "wikiDataId": "Q1917818",
      "country_code": "ES",
      "state_code": "SA",
      "state_id": 1147,
      "country_id": 207
    },
    {
      "id": 152511,
      "name": "El Bodón",
      "name_default": "El Bodón",
      "native": "El Bodón",
      "type": "adm3",
      "level": null,
      "parent_id": null,
      "population": 245,
      "latitude": "40.48785100",
      "longitude": "-6.57500220",
      "timezone": "Europe/Madrid",
      "wikiDataId": "Q120171155",
      "country_code": "ES",
      "state_code": "SA",
      "state_id": 1147,
      "country_id": 207
    },
    {
      "id": 152513,
      "name": "El Cabaco",
      "name_default": "El Cabaco",
      "native": "El Cabaco",
      "type": "adm3",
      "level": null,
      "parent_id": null,
      "population": 225,
      "latitude": "40.97010390",
      "longitude": "-5.66353970",
      "timezone": "Europe/Madrid",
      "wikiDataId": "Q1640774",
      "country_code": "ES",
      "state_code": "SA",
      "state_id": 1147,
      "country_id": 207
    },
    {
      "id": 152516,
      "name": "El Campo de Peñaranda",
      "name_default": "El Campo de Peñaranda",
      "native": "El Campo de Peñaranda",
      "type": "adm3",
      "level": null,
      "parent_id": null,
      "population": 250,
      "latitude": "40.98464870",
      "longitude": "-5.25734400",
      "timezone": "Europe/Madrid",
      "wikiDataId": "Q120171094",
      "country_code": "ES",
      "state_code": "SA",
      "state_id": 1147,
      "country_id": 207
    },
    {
      "id": 152518,
      "name": "El Cerro",
      "name_default": "El Cerro",
      "native": "El Cerro",
      "type": "city",
      "level": null,
      "parent_id": null,
      "population": 524,
      "latitude": "40.32668200",
      "longitude": "-5.91653750",
      "timezone": "Europe/Madrid",
      "wikiDataId": "Q1770005",
      "country_code": "ES",
      "state_code": "SA",
      "state_id": 1147,
      "country_id": 207
    },
    {
      "id": 152520,
      "name": "El Cubo de Don Sancho",
      "name_default": "El Cubo de Don Sancho",
      "native": "El Cubo de Don Sancho",
      "type": "city",
      "level": null,
      "parent_id": null,
      "population": 529,
      "latitude": "40.89122940",
      "longitude": "-6.30532970",
      "timezone": "Europe/Madrid",
      "wikiDataId": "Q255252",
      "country_code": "ES",
      "state_code": "SA",
      "state_id": 1147,
      "country_id": 207
    },
    {
      "id": 152531,
      "name": "El Maíllo",
      "name_default": "El Maíllo",
      "native": "El Maíllo",
      "type": "adm3",
      "level": null,
      "parent_id": null,
      "population": 282,
      "latitude": "40.56628660",
      "longitude": "-6.18087380",
      "timezone": "Europe/Madrid",
      "wikiDataId": "Q120172910",
      "country_code": "ES",
      "state_code": "SA",
      "state_id": 1147,
      "country_id": 207
    },
    {
      "id": 152532,
      "name": "El Manzano",
      "name_default": "El Manzano",
      "native": "El Manzano",
      "type": "adm3",
      "level": null,
      "parent_id": null,
      "population": 57,
      "latitude": "41.17401000",
      "longitude": "-6.28872110",
      "timezone": "Europe/Madrid",
      "wikiDataId": "Q385056",
      "country_code": "ES",
      "state_code": "SA",
      "state_id": 1147,
      "country_id": 207
    },
    {
      "id": 152535,
      "name": "El Milano",
      "name_default": "El Milano",
      "native": "El Milano",
      "type": "adm3",
      "level": null,
      "parent_id": null,
      "population": 88,
      "latitude": "41.09273770",
      "longitude": "-6.59902880",
      "timezone": "Europe/Madrid",
      "wikiDataId": "Q1648672",
      "country_code": "ES",
      "state_code": "SA",
      "state_id": 1147,
      "country_id": 207
    },
    {
      "id": 152538,
      "name": "El Payo",
      "name_default": "El Payo",
      "native": "El Payo",
      "type": "adm3",
      "level": null,
      "parent_id": null,
      "population": 313,
      "latitude": "40.28745490",
      "longitude": "-6.72732290",
      "timezone": "Europe/Madrid",
      "wikiDataId": "Q1646351",
      "country_code": "ES",
      "state_code": "SA",
      "state_id": 1147,
      "country_id": 207
    },
    {
      "id": 152539,
      "name": "El Pedroso de la Armuña",
      "name_default": "El Pedroso de la Armuña",
      "native": "El Pedroso de la Armuña",
      "type": "adm3",
      "level": null,
      "parent_id": null,
      "population": 215,
      "latitude": "41.07987980",
      "longitude": "-5.39984520",
      "timezone": "Europe/Madrid",
      "wikiDataId": "Q1768261",
      "country_code": "ES",
      "state_code": "SA",
      "state_id": 1147,
      "country_id": 207
    },
    {
      "id": 152542,
      "name": "El Pino de Tormes",
      "name_default": "El Pino de Tormes",
      "native": "El Pino de Tormes",
      "type": "adm3",
      "level": null,
      "parent_id": null,
      "population": 149,
      "latitude": "41.03947080",
      "longitude": "-5.79254190",
      "timezone": "Europe/Madrid",
      "wikiDataId": "Q1769953",
      "country_code": "ES",
      "state_code": "SA",
      "state_id": 1147,
      "country_id": 207
    },
    {
      "id": 152547,
      "name": "El Sahugo",
      "name_default": "El Sahugo",
      "native": "El Sahugo",
      "type": "adm3",
      "level": null,
      "parent_id": null,
      "population": 181,
      "latitude": "40.41494090",
      "longitude": "-6.54164700",
      "timezone": "Europe/Madrid",
      "wikiDataId": "Q1640123",
      "country_code": "ES",
      "state_code": "SA",
      "state_id": 1147,
      "country_id": 207
    },
    {
      "id": 152552,
      "name": "El Tejado",
      "name_default": "El Tejado",
      "native": "El Tejado",
      "type": "adm3",
      "level": null,
      "parent_id": null,
      "population": 83,
      "latitude": "40.44234670",
      "longitude": "-5.53932780",
      "timezone": "Europe/Madrid",
      "wikiDataId": "Q1648448",
      "country_code": "ES",
      "state_code": "SA",
      "state_id": 1147,
      "country_id": 207
    },
    {
      "id": 152553,
      "name": "El Tornadizo",
      "name_default": "El Tornadizo",
      "native": "El Me desgarré",
      "type": "adm3",
      "level": null,
      "parent_id": null,
      "population": 86,
      "latitude": "40.54246180",
      "longitude": "-5.89145390",
      "timezone": "Europe/Madrid",
      "wikiDataId": "Q120172760",
      "country_code": "ES",
      "state_code": "SA",
      "state_id": 1147,
      "country_id": 207
    },
    {
      "id": 34044,
      "name": "Encina de San Silvestre",
      "name_default": "Encina de San Silvestre",
      "native": "Encina de San Silvestre",
      "type": "adm3",
      "level": null,
      "parent_id": null,
      "population": 108,
      "latitude": "41.01442000",
      "longitude": "-6.09268000",
      "timezone": "Europe/Madrid",
      "wikiDataId": "Q1640631",
      "country_code": "ES",
      "state_code": "SA",
      "state_id": 1147,
      "country_id": 207
    },
    {
      "id": 34048,
      "name": "Encinas de Abajo",
      "name_default": "Encinas de Abajo",
      "native": "Encinas de Abajo",
      "type": "adm3",
      "level": null,
      "parent_id": null,
      "population": 619,
      "latitude": "40.93493000",
      "longitude": "-5.47037000",
      "timezone": "Europe/Madrid",
      "wikiDataId": "Q1651897",
      "country_code": "ES",
      "state_code": "SA",
      "state_id": 1147,
      "country_id": 207
    },
    {
      "id": 34049,
      "name": "Encinas de Arriba",
      "name_default": "Encinas de Arriba",
      "native": "Encinas de Arriba",
      "type": "adm3",
      "level": null,
      "parent_id": null,
      "population": 226,
      "latitude": "40.77120000",
      "longitude": "-5.55661000",
      "timezone": "Europe/Madrid",
      "wikiDataId": "Q1651833",
      "country_code": "ES",
      "state_code": "SA",
      "state_id": 1147,
      "country_id": 207
    },
    {
      "id": 34052,
      "name": "Encinasola de los Comendadores",
      "name_default": "Encinasola de los Comendadores",
      "native": "Encinasola de los Comendadores",
      "type": "adm3",
      "level": null,
      "parent_id": null,
      "population": 253,
      "latitude": "41.03089000",
      "longitude": "-6.53261000",
      "timezone": "Europe/Madrid",
      "wikiDataId": "Q1648257",
      "country_code": "ES",
      "state_code": "SA",
      "state_id": 1147,
      "country_id": 207
    },
    {
      "id": 34057,
      "name": "Endrinale",
      "name_default": "Endrinal",
      "native": "Endmininal",
      "type": "adm3",
      "level": null,
      "parent_id": null,
      "population": 291,
      "latitude": "40.59109000",
      "longitude": "-5.80411000",
      "timezone": "Europe/Madrid",
      "wikiDataId": "Q1769898",
      "country_code": "ES",
      "state_code": "SA",
      "state_id": 1147,
      "country_id": 207
    },
    {
      "id": 34093,
      "name": "Escurial de la Sierra",
      "name_default": "Escurial de la Sierra",
      "native": "Escurial de la Sierra",
      "type": "adm3",
      "level": null,
      "parent_id": null,
      "population": 244,
      "latitude": "40.61731000",
      "longitude": "-5.95520000",
      "timezone": "Europe/Madrid",
      "wikiDataId": "Q1648441",
      "country_code": "ES",
      "state_code": "SA",
      "state_id": 1147,
      "country_id": 207
    },
    {
      "id": 34101,
      "name": "Espadaña",
      "name_default": "Espadaña",
      "native": "Espadaña",
      "type": "adm3",
      "level": null,
      "parent_id": null,
      "population": 47,
      "latitude": "41.06085000",
      "longitude": "-6.28457000",
      "timezone": "Europe/Madrid",
      "wikiDataId": "Q1640849",
      "country_code": "ES",
      "state_code": "SA",
      "state_id": 1147,
      "country_id": 207
    },
    {
      "id": 34110,
      "name": "Specchia",
      "name_default": "Espeja",
      "native": "Espiga",
      "type": "adm3",
      "level": null,
      "parent_id": null,
      "population": 272,
      "latitude": "40.56565000",
      "longitude": "-6.71582000",
      "timezone": "Europe/Madrid",
      "wikiDataId": "Q1628327",
      "country_code": "ES",
      "state_code": "SA",
      "state_id": 1147,
      "country_id": 207
    },
    {
      "id": 34117,
      "name": "Espino de la Orbada",
      "name_default": "Espino de la Orbada",
      "native": "Espino de la Orbada",
      "type": "adm3",
      "level": null,
      "parent_id": null,
      "population": 311,
      "latitude": "41.10693000",
      "longitude": "-5.42515000",
      "timezone": "Europe/Madrid",
      "wikiDataId": "Q1447434",
      "country_code": "ES",
      "state_code": "SA",
      "state_id": 1147,
      "country_id": 207
    },
    {
      "id": 34197,
      "name": "Florida de Liébana",
      "name_default": "Florida de Liébana",
      "native": "Florida de Liébana",
      "type": "adm3",
      "level": null,
      "parent_id": null,
      "population": 244,
      "latitude": "41.02361000",
      "longitude": "-5.76252000",
      "timezone": "Europe/Madrid",
      "wikiDataId": "Q1768634",
      "country_code": "ES",
      "state_code": "SA",
      "state_id": 1147,
      "country_id": 207
    },
    {
      "id": 34221,
      "name": "Forfoleda",
      "name_default": "Forfoleda",
      "native": "Forfeeda",
      "type": "adm3",
      "level": null,
      "parent_id": null,
      "population": 204,
      "latitude": "41.09779000",
      "longitude": "-5.74979000",
      "timezone": "Europe/Madrid",
      "wikiDataId": "Q24014123",
      "country_code": "ES",
      "state_code": "SA",
      "state_id": 1147,
      "country_id": 207
    },
    {
      "id": 34236,
      "name": "Frades de la Sierra",
      "name_default": "Frades de la Sierra",
      "native": "Frades de la Sierra",
      "type": "adm3",
      "level": null,
      "parent_id": null,
      "population": 256,
      "latitude": "40.65687000",
      "longitude": "-5.78223000",
      "timezone": "Europe/Madrid",
      "wikiDataId": "Q24014122",
      "country_code": "ES",
      "state_code": "SA",
      "state_id": 1147,
      "country_id": 207
    },
    {
      "id": 34250,
      "name": "Fresnedoso",
      "name_default": "Fresnedoso",
      "native": "Fresnedoso",
      "type": "adm3",
      "level": null,
      "parent_id": null,
      "population": 129,
      "latitude": "40.43619000",
      "longitude": "-5.70969000",
      "timezone": "Europe/Madrid",
      "wikiDataId": "Q1768614",
      "country_code": "ES",
      "state_code": "SA",
      "state_id": 1147,
      "country_id": 207
    },
    {
      "id": 152524,
      "name": "Fresno Alhándiga",
      "name_default": "Fresno Alhándiga",
      "native": "Fresno Alhándiga",
      "type": "adm3",
      "level": null,
      "parent_id": null,
      "population": 181,
      "latitude": "40.71307930",
      "longitude": "-5.61520210",
      "timezone": "Europe/Madrid",
      "wikiDataId": "Q1768628",
      "country_code": "ES",
      "state_code": "SA",
      "state_id": 1147,
      "country_id": 207
    },
    {
      "id": 34315,
      "name": "Fuenteguinaldo",
      "name_default": "Fuenteguinaldo",
      "native": "Fuenteguinaldo",
      "type": "adm3",
      "level": null,
      "parent_id": null,
      "population": 858,
      "latitude": "40.42876000",
      "longitude": "-6.67528000",
      "timezone": "Europe/Madrid",
      "wikiDataId": "Q1640604",
      "country_code": "ES",
      "state_code": "SA",
      "state_id": 1147,
      "country_id": 207
    },
    {
      "id": 152526,
      "name": "Fuenteliante",
      "name_default": "Fuenteliante",
      "native": "Fuenteliante",
      "type": "adm3",
      "level": null,
      "parent_id": null,
      "population": 84,
      "latitude": "40.84259290",
      "longitude": "-6.56766250",
      "timezone": "Europe/Madrid",
      "wikiDataId": "Q1651789",
      "country_code": "ES",
      "state_code": "SA",
      "state_id": 1147,
      "country_id": 207
    },
    {
      "id": 34333,
      "name": "Fuenterroble de Salvatierra",
      "name_default": "Fuenterroble de Salvatierra",
      "native": "Fuenterroble de Salvatierra",
      "type": "adm3",
      "level": null,
      "parent_id": null,
      "population": 252,
      "latitude": "40.56466000",
      "longitude": "-5.73379000",
      "timezone": "Europe/Madrid",
      "wikiDataId": "Q1650181",
      "country_code": "ES",
      "state_code": "SA",
      "state_id": 1147,
      "country_id": 207
    },
    {
      "id": 34341,
      "name": "Fonti di Béjar",
      "name_default": "Fuentes de Béjar",
      "native": "Fuentes de Béjar",
      "type": "adm3",
      "level": null,
      "parent_id": null,
      "population": 244,
      "latitude": "40.50815000",
      "longitude": "-5.69270000",
      "timezone": "Europe/Madrid",
      "wikiDataId": "Q1632373",
      "country_code": "ES",
      "state_code": "SA",
      "state_id": 1147,
      "country_id": 207
    },
    {
      "id": 34348,
      "name": "Fuentes de Oñoro",
      "name_default": "Fuentes de Oñoro",
      "native": "Fuentes de Oñoro",
      "type": "adm3",
      "level": null,
      "parent_id": null,
      "population": 1538,
      "latitude": "40.59102000",
      "longitude": "-6.81144000",
      "timezone": "Europe/Madrid",
      "wikiDataId": "Q927947",
      "country_code": "ES",
      "state_code": "SA",
      "state_id": 1147,
      "country_id": 207
    },
    {
      "id": 34372,
      "name": "Gajates",
      "name_default": "Gajates",
      "native": "Gayatts",
      "type": "adm3",
      "level": null,
      "parent_id": null,
      "population": 187,
      "latitude": "40.78254000",
      "longitude": "-5.36506000",
      "timezone": "Europe/Madrid",
      "wikiDataId": "Q1654894",
      "country_code": "ES",
      "state_code": "SA",
      "state_id": 1147,
      "country_id": 207
    },
    {
      "id": 34382,
      "name": "Galindo y Perahuy",
      "name_default": "Galindo y Perahuy",
      "native": "Galindo y Perahuy",
      "type": "adm3",
      "level": null,
      "parent_id": null,
      "population": 537,
      "latitude": "40.94397000",
      "longitude": "-5.87410000",
      "timezone": "Europe/Madrid",
      "wikiDataId": "Q1777817",
      "country_code": "ES",
      "state_code": "SA",
      "state_id": 1147,
      "country_id": 207
    },
    {
      "id": 34383,
      "name": "Galinduste",
      "name_default": "Galinduste",
      "native": "Galinduste",
      "type": "adm3",
      "level": null,
      "parent_id": null,
      "population": 531,
      "latitude": "40.66266000",
      "longitude": "-5.54003000",
      "timezone": "Europe/Madrid",
      "wikiDataId": "Q1777833",
      "country_code": "ES",
      "state_code": "SA",
      "state_id": 1147,
      "country_id": 207
    },
    {
      "id": 34384,
      "name": "Galisancho",
      "name_default": "Galisancho",
      "native": "Inspro",
      "type": "adm3",
      "level": null,
      "parent_id": null,
      "population": 459,
      "latitude": "40.74418000",
      "longitude": "-5.55471000",
      "timezone": "Europe/Madrid",
      "wikiDataId": "Q1650167",
      "country_code": "ES",
      "state_code": "SA",
      "state_id": 1147,
      "country_id": 207
    },
    {
      "id": 34387,
      "name": "Gallegos de Argañán",
      "name_default": "Gallegos de Argañán",
      "native": "Gallegos de Argañán",
      "type": "adm3",
      "level": null,
      "parent_id": null,
      "population": 359,
      "latitude": "40.63146000",
      "longitude": "-6.70246000",
      "timezone": "Europe/Madrid",
      "wikiDataId": "Q1777885",
      "country_code": "ES",
      "state_code": "SA",
      "state_id": 1147,
      "country_id": 207
    },
    {
      "id": 152527,
      "name": "Gallegos de Solmirón",
      "name_default": "Gallegos de Solmirón",
      "native": "Gallegos de Solmirón",
      "type": "adm3",
      "level": null,
      "parent_id": null,
      "population": 109,
      "latitude": "40.53605130",
      "longitude": "-5.46729620",
      "timezone": "Europe/Madrid",
      "wikiDataId": "Q1778001",
      "country_code": "ES",
      "state_code": "SA",
      "state_id": 1147,
      "country_id": 207
    },
    {
      "id": 34409,
      "name": "Garcibuey",
      "name_default": "Garcibuey",
      "native": "Garcibuey",
      "type": "adm3",
      "level": null,
      "parent_id": null,
      "population": 204,
      "latitude": "40.51552000",
      "longitude": "-5.99439000",
      "timezone": "Europe/Madrid",
      "wikiDataId": "Q611412",
      "country_code": "ES",
      "state_code": "SA",
      "state_id": 1147,
      "country_id": 207
    },
    {
      "id": 34410,
      "name": "Garcihernández",
      "name_default": "Garcihernández",
      "native": "Garcihernández",
      "type": "adm3",
      "level": null,
      "parent_id": null,
      "population": 579,
      "latitude": "40.86096000",
      "longitude": "-5.43567000",
      "timezone": "Europe/Madrid",
      "wikiDataId": "Q1012957",
      "country_code": "ES",
      "state_code": "SA",
      "state_id": 1147,
      "country_id": 207
    },
    {
      "id": 34412,
      "name": "Garcirrey",
      "name_default": "Garcirrey",
      "native": "Garcirrey",
      "type": "adm3",
      "level": null,
      "parent_id": null,
      "population": 96,
      "latitude": "40.90049000",
      "longitude": "-6.13120000",
      "timezone": "Europe/Madrid",
      "wikiDataId": "Q1648373",
      "country_code": "ES",
      "state_code": "SA",
      "state_id": 1147,
      "country_id": 207
    },
    {
      "id": 34444,
      "name": "Gejuelo del Barro",
      "name_default": "Gejuelo del Barro",
      "native": "Gejuelo del Barro",
      "type": "adm3",
      "level": null,
      "parent_id": null,
      "population": 50,
      "latitude": "41.07633000",
      "longitude": "-6.12332000",
      "timezone": "Europe/Madrid",
      "wikiDataId": "Q1648239",
      "country_code": "ES",
      "state_code": "SA",
      "state_id": 1147,
      "country_id": 207
    },
    {
      "id": 34481,
      "name": "Golpejas",
      "name_default": "Golpejas",
      "native": "Golpejas",
      "type": "adm3",
      "level": null,
      "parent_id": null,
      "population": 182,
      "latitude": "40.99981000",
      "longitude": "-5.90687000",
      "timezone": "Europe/Madrid",
      "wikiDataId": "Q1778020",
      "country_code": "ES",
      "state_code": "SA",
      "state_id": 1147,
      "country_id": 207
    },
    {
      "id": 34482,
      "name": "Gomecello",
      "name_default": "Gomecello",
      "native": "Gomecello",
      "type": "adm3",
      "level": null,
      "parent_id": null,
      "population": 412,
      "latitude": "41.04280000",
      "longitude": "-5.53585000",
      "timezone": "Europe/Madrid",
      "wikiDataId": "Q1651769",
      "country_code": "ES",
      "state_code": "SA",
      "state_id": 1147,
      "country_id": 207
    },
    {
      "id": 34532,
      "name": "Guadramiro",
      "name_default": "Guadramiro",
      "native": "Guadramiro",
      "type": "adm3",
      "level": null,
      "parent_id": null,
      "population": 191,
      "latitude": "41.01703000",
      "longitude": "-6.49369000",
      "timezone": "Europe/Madrid",
      "wikiDataId": "Q244324",
      "country_code": "ES",
      "state_code": "SA",
      "state_id": 1147,
      "country_id": 207
    },
    {
      "id": 34546,
      "name": "Guijo de Ávila",
      "name_default": "Guijo de Ávila",
      "native": "Guijo de Ávila",
      "type": "adm3",
      "level": null,
      "parent_id": null,
      "population": 109,
      "latitude": "40.53078000",
      "longitude": "-5.63970000",
      "timezone": "Europe/Madrid",
      "wikiDataId": "Q1645193",
      "country_code": "ES",
      "state_code": "SA",
      "state_id": 1147,
      "country_id": 207
    },
    {
      "id": 34547,
      "name": "Guijuelo",
      "name_default": "Guijuelo",
      "native": "Guijuelo",
      "type": "adm3",
      "level": null,
      "parent_id": null,
      "population": 5508,
      "latitude": "40.55757000",
      "longitude": "-5.67067000",
      "timezone": "Europe/Madrid",
      "wikiDataId": "Q1605747",
      "country_code": "ES",
      "state_code": "SA",
      "state_id": 1147,
      "country_id": 207
    },
    {
      "id": 34583,
      "name": "Herguijuela de Ciudad Rodrigo",
      "name_default": "Herguijuela de Ciudad Rodrigo",
      "native": "Herguijuela de Ciudad Rodrigo",
      "type": "adm3",
      "level": null,
      "parent_id": null,
      "population": 154,
      "latitude": "40.45860000",
      "longitude": "-6.52075000",
      "timezone": "Europe/Madrid",
      "wikiDataId": "Q1632508",
      "country_code": "ES",
      "state_code": "SA",
      "state_id": 1147,
      "country_id": 207
    },
    {
      "id": 34584,
      "name": "Herguijuela de la Sierra",
      "name_default": "Herguijuela de la Sierra",
      "native": "Herguijuela de la Sierra",
      "type": "adm3",
      "level": null,
      "parent_id": null,
      "population": 294,
      "latitude": "40.44535000",
      "longitude": "-6.07445000",
      "timezone": "Europe/Madrid",
      "wikiDataId": "Q1651800",
      "country_code": "ES",
      "state_code": "SA",
      "state_id": 1147,
      "country_id": 207
    },
    {
      "id": 34585,
      "name": "Herguijuela del Campo",
      "name_default": "Herguijuela del Campo",
      "native": "Herguijuela del Campo",
      "type": "adm3",
      "level": null,
      "parent_id": null,
      "population": 117,
      "latitude": "40.63102000",
      "longitude": "-5.86398000",
      "timezone": "Europe/Madrid",
      "wikiDataId": "Q1651782",
      "country_code": "ES",
      "state_code": "SA",
      "state_id": 1147,
      "country_id": 207
    },
    {
      "id": 34623,
      "name": "Hinojosa de Duero",
      "name_default": "Hinojosa de Duero",
      "native": "Hinojosa de Duero",
      "type": "adm3",
      "level": null,
      "parent_id": null,
      "population": 779,
      "latitude": "40.98674000",
      "longitude": "-6.79529000",
      "timezone": "Europe/Madrid",
      "wikiDataId": "Q1651850",
      "country_code": "ES",
      "state_code": "SA",
      "state_id": 1147,
      "country_id": 207
    },
    {
      "id": 34650,
      "name": "Horcajo de Montemayor",
      "name_default": "Horcajo de Montemayor",
      "native": "Horcajo de Montemayor",
      "type": "adm3",
      "level": null,
      "parent_id": null,
      "population": 196,
      "latitude": "40.42265000",
      "longitude": "-5.89427000",
      "timezone": "Europe/Madrid",
      "wikiDataId": "Q1751962",
      "country_code": "ES",
      "state_code": "SA",
      "state_id": 1147,
      "country_id": 207
    },
    {
      "id": 152528,
      "name": "Horcajo Medianero",
      "name_default": "Horcajo Medianero",
      "native": "Horcajo Medianero",
      "type": "adm3",
      "level": null,
      "parent_id": null,
      "population": 205,
      "latitude": "40.63900510",
      "longitude": "-5.40573580",
      "timezone": "Europe/Madrid",
      "wikiDataId": "Q1777903",
      "country_code": "ES",
      "state_code": "SA",
      "state_id": 1147,
      "country_id": 207
    },
    {
      "id": 152530,
      "name": "Huerta",
      "name_default": "Huerta",
      "native": "Huerta",
      "type": "adm3",
      "level": null,
      "parent_id": null,
      "population": 0,
      "latitude": "40.96838410",
      "longitude": "-5.46777690",
      "timezone": "Europe/Madrid",
      "wikiDataId": "Q16642483",
      "country_code": "ES",
      "state_code": "SA",
      "state_id": 1147,
      "country_id": 207
    },
    {
      "id": 34760,
      "name": "Iruelos",
      "name_default": "Iruelos",
      "native": "Iruelos",
      "type": "adm3",
      "level": null,
      "parent_id": null,
      "population": 54,
      "latitude": "41.14135000",
      "longitude": "-6.32808000",
      "timezone": "Europe/Madrid",
      "wikiDataId": "Q1640609",
      "country_code": "ES",
      "state_code": "SA",
      "state_id": 1147,
      "country_id": 207
    },
    {
      "id": 34772,
      "name": "Ituero de Azaba",
      "name_default": "Ituero de Azaba",
      "native": "Ituarero de Azaba",
      "type": "adm3",
      "level": null,
      "parent_id": null,
      "population": 277,
      "latitude": "40.48487000",
      "longitude": "-6.69272000",
      "timezone": "Europe/Madrid",
      "wikiDataId": "Q258043",
      "country_code": "ES",
      "state_code": "SA",
      "state_id": 1147,
      "country_id": 207
    },
    {
      "id": 34835,
      "name": "Juzbado",
      "name_default": "Juzbado",
      "native": "Juevo",
      "type": "adm3",
      "level": null,
      "parent_id": null,
      "population": 183,
      "latitude": "41.07791000",
      "longitude": "-5.86140000",
      "timezone": "Europe/Madrid",
      "wikiDataId": "Q1778013",
      "country_code": "ES",
      "state_code": "SA",
      "state_id": 1147,
      "country_id": 207
    },
    {
      "id": 152501,
      "name": "La Alameda de Gardón",
      "name_default": "La Alameda de Gardón",
      "native": "La Alameda de Gardón",
      "type": "adm3",
      "level": null,
      "parent_id": null,
      "population": 74,
      "latitude": "40.65060050",
      "longitude": "-6.75809810",
      "timezone": "Europe/Madrid",
      "wikiDataId": "Q1777798",
      "country_code": "ES",
      "state_code": "SA",
      "state_id": 1147,
      "country_id": 207
    },
    {
      "id": 152502,
      "name": "La Alamedilla",
      "name_default": "La Alamedilla",
      "native": "La Alamedilla",
      "type": "city",
      "level": null,
      "parent_id": null,
      "population": 101,
      "latitude": "40.47221790",
      "longitude": "-6.82806550",
      "timezone": "Europe/Madrid",
      "wikiDataId": "Q1777808",
      "country_code": "ES",
      "state_code": "SA",
      "state_id": 1147,
      "country_id": 207
    },
    {
      "id": 152503,
      "name": "La Alberca",
      "name_default": "La Alberca",
      "native": "La Alberca",
      "type": "city",
      "level": null,
      "parent_id": null,
      "population": 1045,
      "latitude": "40.48301250",
      "longitude": "-6.12089260",
      "timezone": "Europe/Madrid",
      "wikiDataId": "Q1012961",
      "country_code": "ES",
      "state_code": "SA",
      "state_id": 1147,
      "country_id": 207
    },
    {
      "id": 152504,
      "name": "La Albergueria de Argañán",
      "name_default": "La Alberguería de Argañán",
      "native": "La Argáñán",
      "type": "adm3",
      "level": null,
      "parent_id": null,
      "population": 98,
      "latitude": "40.41313450",
      "longitude": "-6.81433390",
      "timezone": "Europe/Madrid",
      "wikiDataId": "Q120173380",
      "country_code": "ES",
      "state_code": "SA",
      "state_id": 1147,
      "country_id": 207
    },
    {
      "id": 152508,
      "name": "La Atalaya",
      "name_default": "La Atalaya",
      "native": "La Atalaya",
      "type": "adm3",
      "level": null,
      "parent_id": null,
      "population": 100,
      "latitude": "40.50860900",
      "longitude": "-6.39708840",
      "timezone": "Europe/Madrid",
      "wikiDataId": "Q1994164",
      "country_code": "ES",
      "state_code": "SA",
      "state_id": 1147,
      "country_id": 207
    },
    {
      "id": 152510,
      "name": "La Bastida",
      "name_default": "La Bastida",
      "native": "La Bastida",
      "type": "adm3",
      "level": null,
      "parent_id": null,
      "population": 26,
      "latitude": "40.58540180",
      "longitude": "-6.05898470",
      "timezone": "Europe/Madrid",
      "wikiDataId": "Q120173274",
      "country_code": "ES",
      "state_code": "SA",
      "state_id": 1147,
      "country_id": 207
    },
    {
      "id": 152512,
      "name": "La Bouza",
      "name_default": "La Bouza",
      "native": "La Bouza",
      "type": "adm3",
      "level": null,
      "parent_id": null,
      "population": 66,
      "latitude": "40.83630880",
      "longitude": "-6.79558320",
      "timezone": "Europe/Madrid",
      "wikiDataId": "Q584647",
      "country_code": "ES",
      "state_code": "SA",
      "state_id": 1147,
      "country_id": 207
    },
    {
      "id": 152514,
      "name": "La Cabeza de Béjar",
      "name_default": "La Cabeza de Béjar",
      "native": "La Cabeza de Béjar",
      "type": "adm3",
      "level": null,
      "parent_id": null,
      "population": 60,
      "latitude": "40.50134550",
      "longitude": "-5.66157100",
      "timezone": "Europe/Madrid",
      "wikiDataId": "Q1777821",
      "country_code": "ES",
      "state_code": "SA",
      "state_id": 1147,
      "country_id": 207
    },
    {
      "id": 152515,
      "name": "La Calzada de Béjar",
      "name_default": "La Calzada de Béjar",
      "native": "La Calzada de Béjar",
      "type": "adm3",
      "level": null,
      "parent_id": null,
      "population": 248,
      "latitude": "40.41175350",
      "longitude": "-5.81758420",
      "timezone": "Europe/Madrid",
      "wikiDataId": "Q655115",
      "country_code": "ES",
      "state_code": "SA",
      "state_id": 1147,
      "country_id": 207
    },
    {
      "id": 152522,
      "name": "La Encina",
      "name_default": "La Encina",
      "native": "La Encina",
      "type": "adm3",
      "level": null,
      "parent_id": null,
      "population": 100,
      "latitude": "40.51635500",
      "longitude": "-6.53031020",
      "timezone": "Europe/Madrid",
      "wikiDataId": "Q594765",
      "country_code": "ES",
      "state_code": "SA",
      "state_id": 1147,
      "country_id": 207
    },
    {
      "id": 152523,
      "name": "La Fregeneda",
      "name_default": "La Fregeneda",
      "native": "La Fregeneda",
      "type": "city",
      "level": null,
      "parent_id": null,
      "population": 308,
      "latitude": "40.98801120",
      "longitude": "-6.86659650",
      "timezone": "Europe/Madrid",
      "wikiDataId": "Q1768874",
      "country_code": "ES",
      "state_code": "SA",
      "state_id": 1147,
      "country_id": 207
    },
    {
      "id": 152525,
      "name": "La Fuente de San Esteban",
      "name_default": "La Fuente de San Esteban",
      "native": "La Fuente de San Esteban",
      "type": "city",
      "level": null,
      "parent_id": null,
      "population": 1279,
      "latitude": "40.80061560",
      "longitude": "-6.25750910",
      "timezone": "Europe/Madrid",
      "wikiDataId": "Q1637591",
      "country_code": "ES",
      "state_code": "SA",
      "state_id": 1147,
      "country_id": 207
    },
    {
      "id": 152529,
      "name": "La Hoya",
      "name_default": "La Hoya",
      "native": "La Hoya",
      "type": "adm3",
      "level": null,
      "parent_id": null,
      "population": 30,
      "latitude": "40.40719210",
      "longitude": "-5.69872690",
      "timezone": "Europe/Madrid",
      "wikiDataId": "Q1777869",
      "country_code": "ES",
      "state_code": "SA",
      "state_id": 1147,
      "country_id": 207
    },
    {
      "id": 152533,
      "name": "La Mata de Ledesma",
      "name_default": "La Mata de Ledesma",
      "native": "La Mata de Ledesma",
      "type": "adm3",
      "level": null,
      "parent_id": null,
      "population": 101,
      "latitude": "41.00052450",
      "longitude": "-5.97103110",
      "timezone": "Europe/Madrid",
      "wikiDataId": "Q1910988",
      "country_code": "ES",
      "state_code": "SA",
      "state_id": 1147,
      "country_id": 207
    },
    {
      "id": 152534,
      "name": "La Maya",
      "name_default": "La Maya",
      "native": "La Maya",
      "type": "adm3",
      "level": null,
      "parent_id": null,
      "population": 158,
      "latitude": "40.68838100",
      "longitude": "-5.61688340",
      "timezone": "Europe/Madrid",
      "wikiDataId": "Q1911038",
      "country_code": "ES",
      "state_code": "SA",
      "state_id": 1147,
      "country_id": 207
    },
    {
      "id": 152537,
      "name": "La Orbada",
      "name_default": "La Orbada",
      "native": "La Orbada",
      "type": "adm3",
      "level": null,
      "parent_id": null,
      "population": 182,
      "latitude": "41.10354440",
      "longitude": "-5.48367970",
      "timezone": "Europe/Madrid",
      "wikiDataId": "Q1651931",
      "country_code": "ES",
      "state_code": "SA",
      "state_id": 1147,
      "country_id": 207
    },
    {
      "id": 152540,
      "name": "La Peña",
      "name_default": "La Peña",
      "native": "La Peña",
      "type": "adm3",
      "level": null,
      "parent_id": null,
      "population": 70,
      "latitude": "41.17376640",
      "longitude": "-6.51875450",
      "timezone": "Europe/Madrid",
      "wikiDataId": "Q2265894",
      "country_code": "ES",
      "state_code": "SA",
      "state_id": 1147,
      "country_id": 207
    },
    {
      "id": 152543,
      "name": "La Redonda",
      "name_default": "La Redonda",
      "native": "La Redonda",
      "type": "adm3",
      "level": null,
      "parent_id": null,
      "population": 65,
      "latitude": "40.90827040",
      "longitude": "-6.74873020",
      "timezone": "Europe/Madrid",
      "wikiDataId": "Q1648715",
      "country_code": "ES",
      "state_code": "SA",
      "state_id": 1147,
      "country_id": 207
    },
    {
      "id": 152544,
      "name": "La Rinconada de la Sierra",
      "name_default": "La Rinconada de la Sierra",
      "native": "La Rinconada de la Sierra",
      "type": "adm3",
      "level": null,
      "parent_id": null,
      "population": 100,
      "latitude": "40.61301620",
      "longitude": "-6.02094400",
      "timezone": "Europe/Madrid",
      "wikiDataId": "Q120172995",
      "country_code": "ES",
      "state_code": "SA",
      "state_id": 1147,
      "country_id": 207
    },
    {
      "id": 152545,
      "name": "La Sagrada",
      "name_default": "La Sagrada",
      "native": "La Sagrada",
      "type": "adm3",
      "level": null,
      "parent_id": null,
      "population": 82,
      "latitude": "40.74433770",
      "longitude": "-6.07122890",
      "timezone": "Europe/Madrid",
      "wikiDataId": "Q1910921",
      "country_code": "ES",
      "state_code": "SA",
      "state_id": 1147,
      "country_id": 207
    },
    {
      "id": 152549,
      "name": "La Sierpe",
      "name_default": "La Sierpe",
      "native": "La Sierpe",
      "type": "adm3",
      "level": null,
      "parent_id": null,
      "population": 42,
      "latitude": "40.64387490",
      "longitude": "-5.85121000",
      "timezone": "Europe/Madrid",
      "wikiDataId": "Q1020530",
      "country_code": "ES",
      "state_code": "SA",
      "state_id": 1147,
      "country_id": 207
    },
    {
      "id": 152551,
      "name": "La Tala",
      "name_default": "La Tala",
      "native": "La Tala",
      "type": "adm3",
      "level": null,
      "parent_id": null,
      "population": 76,
      "latitude": "40.58982760",
      "longitude": "-5.53683540",
      "timezone": "Europe/Madrid",
      "wikiDataId": "Q1778027",
      "country_code": "ES",
      "state_code": "SA",
      "state_id": 1147,
      "country_id": 207
    },
    {
      "id": 152555,
      "name": "La Vellés",
      "name_default": "La Vellés",
      "native": "El Felle",
      "type": "adm3",
      "level": null,
      "parent_id": null,
      "population": 540,
      "latitude": "41.07079740",
      "longitude": "-5.57748140",
      "timezone": "Europe/Madrid",
      "wikiDataId": "Q1769424",
      "country_code": "ES",
      "state_code": "SA",
      "state_id": 1147,
      "country_id": 207
    },
    {
      "id": 152556,
      "name": "La Vídola",
      "name_default": "La Vídola",
      "native": "La Vídola",
      "type": "adm3",
      "level": null,
      "parent_id": null,
      "population": 107,
      "latitude": "41.15424380",
      "longitude": "-6.48698230",
      "timezone": "Europe/Madrid",
      "wikiDataId": "Q1769454",
      "country_code": "ES",
      "state_code": "SA",
      "state_id": 1147,
      "country_id": 207
    },
    {
      "id": 152558,
      "name": "La Zarza de Pumareda",
      "name_default": "La Zarza de Pumareda",
      "native": "La Zarza de Pumareda",
      "type": "adm3",
      "level": null,
      "parent_id": null,
      "population": 133,
      "latitude": "41.16127260",
      "longitude": "-6.62765420",
      "timezone": "Europe/Madrid",
      "wikiDataId": "Q1755960",
      "country_code": "ES",
      "state_code": "SA",
      "state_id": 1147,
      "country_id": 207
    },
    {
      "id": 34952,
      "name": "Lagunilla",
      "name_default": "Lagunilla",
      "native": "Lagunilla",
      "type": "adm3",
      "level": null,
      "parent_id": null,
      "population": 557,
      "latitude": "40.32491000",
      "longitude": "-5.97132000",
      "timezone": "Europe/Madrid",
      "wikiDataId": "Q1990962",
      "country_code": "ES",
      "state_code": "SA",
      "state_id": 1147,
      "country_id": 207
    },
    {
      "id": 34981,
      "name": "Larrodrigo",
      "name_default": "Larrodrigo",
      "native": "Laródrigo",
      "type": "adm3",
      "level": null,
      "parent_id": null,
      "population": 277,
      "latitude": "40.73722000",
      "longitude": "-5.44895000",
      "timezone": "Europe/Madrid",
      "wikiDataId": "Q1769442",
      "country_code": "ES",
      "state_code": "SA",
      "state_id": 1147,
      "country_id": 207
    },
    {
      "id": 152517,
      "name": "Las Casas del Conde",
      "name_default": "Las Casas del Conde",
      "native": "Las Casas del Conde",
      "type": "city",
      "level": null,
      "parent_id": null,
      "population": 63,
      "latitude": "40.50759830",
      "longitude": "-6.04158850",
      "timezone": "Europe/Madrid",
      "wikiDataId": "Q120172758",
      "country_code": "ES",
      "state_code": "SA",
      "state_id": 1147,
      "country_id": 207
    },
    {
      "id": 152554,
      "name": "Las Veguillas",
      "name_default": "Las Veguillas",
      "native": "Las Veguillas",
      "type": "city",
      "level": null,
      "parent_id": null,
      "population": 275,
      "latitude": "40.71499430",
      "longitude": "-5.83208710",
      "timezone": "Europe/Madrid",
      "wikiDataId": "Q120173467",
      "country_code": "ES",
      "state_code": "SA",
      "state_id": 1147,
      "country_id": 207
    },
    {
      "id": 35016,
      "name": "Ledesma",
      "name_default": "Ledesma",
      "native": "Ledesma",
      "type": "adm3",
      "level": null,
      "parent_id": null,
      "population": 1517,
      "latitude": "41.08829000",
      "longitude": "-6.00178000",
      "timezone": "Europe/Madrid",
      "wikiDataId": "Q1648815",
      "country_code": "ES",
      "state_code": "SA",
      "state_id": 1147,
      "country_id": 207
    },
    {
      "id": 35019,
      "name": "Ledrada",
      "name_default": "Ledrada",
      "native": "Cuero",
      "type": "adm3",
      "level": null,
      "parent_id": null,
      "population": 465,
      "latitude": "40.46878000",
      "longitude": "-5.72038000",
      "timezone": "Europe/Madrid",
      "wikiDataId": "Q1777860",
      "country_code": "ES",
      "state_code": "SA",
      "state_id": 1147,
      "country_id": 207
    },
    {
      "id": 35054,
      "name": "Linares de Riofrío",
      "name_default": "Linares de Riofrío",
      "native": "Linares de Riofrío",
      "type": "adm3",
      "level": null,
      "parent_id": null,
      "population": 913,
      "latitude": "40.58338000",
      "longitude": "-5.92091000",
      "timezone": "Europe/Madrid",
      "wikiDataId": "Q1628671",
      "country_code": "ES",
      "state_code": "SA",
      "state_id": 1147,
      "country_id": 207
    },
    {
      "id": 35163,
      "name": "Lumbrales",
      "name_default": "Lumbrales",
      "native": "Lumbrales",
      "type": "adm3",
      "level": null,
      "parent_id": null,
      "population": 2018,
      "latitude": "40.93501000",
      "longitude": "-6.71948000",
      "timezone": "Europe/Madrid",
      "wikiDataId": "Q1639439",
      "country_code": "ES",
      "state_code": "SA",
      "state_id": 1147,
      "country_id": 207
    },
    {
      "id": 35182,
      "name": "Machacón",
      "name_default": "Machacón",
      "native": "Machacón",
      "type": "adm3",
      "level": null,
      "parent_id": null,
      "population": 445,
      "latitude": "40.92623000",
      "longitude": "-5.52430000",
      "timezone": "Europe/Madrid",
      "wikiDataId": "Q1911047",
      "country_code": "ES",
      "state_code": "SA",
      "state_id": 1147,
      "country_id": 207
    },
    {
      "id": 35183,
      "name": "Macotera",
      "name_default": "Macotera",
      "native": "Macotra",
      "type": "adm3",
      "level": null,
      "parent_id": null,
      "population": 1525,
      "latitude": "40.83105000",
      "longitude": "-5.28526000",
      "timezone": "Europe/Madrid",
      "wikiDataId": "Q31917914",
      "country_code": "ES",
      "state_code": "SA",
      "state_id": 1147,
      "country_id": 207
    },
    {
      "id": 35195,
      "name": "Madroñal",
      "name_default": "Madroñal",
      "native": "Madroñal",
      "type": "adm3",
      "level": null,
      "parent_id": null,
      "population": 135,
      "latitude": "40.46407000",
      "longitude": "-6.06271000",
      "timezone": "Europe/Madrid",
      "wikiDataId": "Q582891",
      "country_code": "ES",
      "state_code": "SA",
      "state_id": 1147,
      "country_id": 207
    },
    {
      "id": 35225,
      "name": "Malpartida",
      "name_default": "Malpartida",
      "native": "Malpartida",
      "type": "adm3",
      "level": null,
      "parent_id": null,
      "population": 140,
      "latitude": "40.76269000",
      "longitude": "-5.23149000",
      "timezone": "Europe/Madrid",
      "wikiDataId": "Q1639432",
      "country_code": "ES",
      "state_code": "SA",
      "state_id": 1147,
      "country_id": 207
    },
    {
      "id": 35240,
      "name": "Mancera de Abajo",
      "name_default": "Mancera de Abajo",
      "native": "Mancera de Abajo",
      "type": "adm3",
      "level": null,
      "parent_id": null,
      "population": 316,
      "latitude": "40.83974000",
      "longitude": "-5.19933000",
      "timezone": "Europe/Madrid",
      "wikiDataId": "Q1769823",
      "country_code": "ES",
      "state_code": "SA",
      "state_id": 1147,
      "country_id": 207
    },
    {
      "id": 35298,
      "name": "Martiago",
      "name_default": "Martiago",
      "native": "Martiago",
      "type": "adm3",
      "level": null,
      "parent_id": null,
      "population": 361,
      "latitude": "40.45420000",
      "longitude": "-6.49010000",
      "timezone": "Europe/Madrid",
      "wikiDataId": "Q1769438",
      "country_code": "ES",
      "state_code": "SA",
      "state_id": 1147,
      "country_id": 207
    },
    {
      "id": 35306,
      "name": "Martin de Yeltes",
      "name_default": "Martín de Yeltes",
      "native": "Martín de Yeltes",
      "type": "adm3",
      "level": null,
      "parent_id": null,
      "population": 515,
      "latitude": "40.77594000",
      "longitude": "-6.29162000",
      "timezone": "Europe/Madrid",
      "wikiDataId": "Q1910944",
      "country_code": "ES",
      "state_code": "SA",
      "state_id": 1147,
      "country_id": 207
    },
    {
      "id": 35300,
      "name": "Martinamor",
      "name_default": "Martinamor",
      "native": "Martinamor",
      "type": "adm3",
      "level": null,
      "parent_id": null,
      "population": 82,
      "latitude": "40.80676000",
      "longitude": "-5.59913000",
      "timezone": "Europe/Madrid",
      "wikiDataId": "Q1910968",
      "country_code": "ES",
      "state_code": "SA",
      "state_id": 1147,
      "country_id": 207
    },
    {
      "id": 35328,
      "name": "Masueco",
      "name_default": "Masueco",
      "native": "Masueco",
      "type": "adm3",
      "level": null,
      "parent_id": null,
      "population": 414,
      "latitude": "41.20352000",
      "longitude": "-6.58938000",
      "timezone": "Europe/Madrid",
      "wikiDataId": "Q1640520",
      "country_code": "ES",
      "state_code": "SA",
      "state_id": 1147,
      "country_id": 207
    },
    {
      "id": 35344,
      "name": "Matilla de los Caños del Río",
      "name_default": "Matilla de los Caños del Río",
      "native": "Matilla de los Caños del Río",
      "type": "adm3",
      "level": null,
      "parent_id": null,
      "population": 613,
      "latitude": "40.82539000",
      "longitude": "-5.94276000",
      "timezone": "Europe/Madrid",
      "wikiDataId": "Q389043",
      "country_code": "ES",
      "state_code": "SA",
      "state_id": 1147,
      "country_id": 207
    },
    {
      "id": 35394,
      "name": "Membribe de la Sierra",
      "name_default": "Membribe de la Sierra",
      "native": "Membribe de la Sierra",
      "type": "adm3",
      "level": null,
      "parent_id": null,
      "population": 105,
      "latitude": "40.69123000",
      "longitude": "-5.80568000",
      "timezone": "Europe/Madrid",
      "wikiDataId": "Q1911024",
      "country_code": "ES",
      "state_code": "SA",
      "state_id": 1147,
      "country_id": 207
    },
    {
      "id": 35422,
      "name": "Mieza",
      "name_default": "Mieza",
      "native": "Miza",
      "type": "adm3",
      "level": null,
      "parent_id": null,
      "population": 325,
      "latitude": "41.16424000",
      "longitude": "-6.69137000",
      "timezone": "Europe/Madrid",
      "wikiDataId": "Q1770832",
      "country_code": "ES",
      "state_code": "SA",
      "state_id": 1147,
      "country_id": 207
    },
    {
      "id": 35449,
      "name": "Miranda de Azán",
      "name_default": "Miranda de Azán",
      "native": "Miranda de Azán",
      "type": "adm3",
      "level": null,
      "parent_id": null,
      "population": 447,
      "latitude": "40.88752000",
      "longitude": "-5.68182000",
      "timezone": "Europe/Madrid",
      "wikiDataId": "Q1911063",
      "country_code": "ES",
      "state_code": "SA",
      "state_id": 1147,
      "country_id": 207
    },
    {
      "id": 35451,
      "name": "Miranda del Castañar",
      "name_default": "Miranda del Castañar",
      "native": "Miranda del Castañar",
      "type": "adm3",
      "level": null,
      "parent_id": null,
      "population": 558,
      "latitude": "40.48448000",
      "longitude": "-5.99581000",
      "timezone": "Europe/Madrid",
      "wikiDataId": "Q1769783",
      "country_code": "ES",
      "state_code": "SA",
      "state_id": 1147,
      "country_id": 207
    },
    {
      "id": 35466,
      "name": "Mogarraz",
      "name_default": "Mogarraz",
      "native": "Motagaraz",
      "type": "adm3",
      "level": null,
      "parent_id": null,
      "population": 0,
      "latitude": "40.49264000",
      "longitude": "-6.05327000",
      "timezone": "Europe/Madrid",
      "wikiDataId": "Q1910893",
      "country_code": "ES",
      "state_code": "SA",
      "state_id": 1147,
      "country_id": 207
    },
    {
      "id": 35481,
      "name": "Molinillo",
      "name_default": "Molinillo",
      "native": "Molinillo",
      "type": "adm3",
      "level": null,
      "parent_id": null,
      "population": 67,
      "latitude": "40.46898000",
      "longitude": "-5.94493000",
      "timezone": "Europe/Madrid",
      "wikiDataId": "Q44873",
      "country_code": "ES",
      "state_code": "SA",
      "state_id": 1147,
      "country_id": 207
    },
    {
      "id": 35515,
      "name": "Monforte de la Sierra",
      "name_default": "Monforte de la Sierra",
      "native": "Monforte de la Sierra",
      "type": "adm3",
      "level": null,
      "parent_id": null,
      "population": 91,
      "latitude": "40.48264000",
      "longitude": "-6.05671000",
      "timezone": "Europe/Madrid",
      "wikiDataId": "Q1768879",
      "country_code": "ES",
      "state_code": "SA",
      "state_id": 1147,
      "country_id": 207
    },
    {
      "id": 35519,
      "name": "Monleón",
      "name_default": "Monleón",
      "native": "Monleón",
      "type": "adm3",
      "level": null,
      "parent_id": null,
      "population": 119,
      "latitude": "40.58192000",
      "longitude": "-5.84312000",
      "timezone": "Europe/Madrid",
      "wikiDataId": "Q1768753",
      "country_code": "ES",
      "state_code": "SA",
      "state_id": 1147,
      "country_id": 207
    },
    {
      "id": 35518,
      "name": "Monleras",
      "name_default": "Monleras",
      "native": "Monumento",
      "type": "adm3",
      "level": null,
      "parent_id": null,
      "population": 245,
      "latitude": "41.18704000",
      "longitude": "-6.22622000",
      "timezone": "Europe/Madrid",
      "wikiDataId": "Q1911000",
      "country_code": "ES",
      "state_code": "SA",
      "state_id": 1147,
      "country_id": 207
    },
    {
      "id": 35525,
      "name": "Monsagro",
      "name_default": "Monsagro",
      "native": "Monsagro",
      "type": "adm3",
      "level": null,
      "parent_id": null,
      "population": 189,
      "latitude": "40.50343000",
      "longitude": "-6.27110000",
      "timezone": "Europe/Madrid",
      "wikiDataId": "Q1769428",
      "country_code": "ES",
      "state_code": "SA",
      "state_id": 1147,
      "country_id": 207
    },
    {
      "id": 35552,
      "name": "Montejo",
      "name_default": "Montejo",
      "native": "Montejo",
      "type": "adm3",
      "level": null,
      "parent_id": null,
      "population": 198,
      "latitude": "40.63246000",
      "longitude": "-5.62287000",
      "timezone": "Europe/Madrid",
      "wikiDataId": "Q942920",
      "country_code": "ES",
      "state_code": "SA",
      "state_id": 1147,
      "country_id": 207
    },
    {
      "id": 35560,
      "name": "Montemayor del Río",
      "name_default": "Montemayor del Río",
      "native": "Montemayor del Río",
      "type": "adm3",
      "level": null,
      "parent_id": null,
      "population": 334,
      "latitude": "40.34836000",
      "longitude": "-5.89427000",
      "timezone": "Europe/Madrid",
      "wikiDataId": "Q1910888",
      "country_code": "ES",
      "state_code": "SA",
      "state_id": 1147,
      "country_id": 207
    },
    {
      "id": 35567,
      "name": "Monterrubio de Armuña",
      "name_default": "Monterrubio de Armuña",
      "native": "Monterrubio de Armuña",
      "type": "adm3",
      "level": null,
      "parent_id": null,
      "population": 673,
      "latitude": "41.02651000",
      "longitude": "-5.64389000",
      "timezone": "Europe/Madrid",
      "wikiDataId": "Q936575",
      "country_code": "ES",
      "state_code": "SA",
      "state_id": 1147,
      "country_id": 207
    },
    {
      "id": 35569,
      "name": "Monterrubio de la Sierra",
      "name_default": "Monterrubio de la Sierra",
      "native": "Monterrubio de la Sierra",
      "type": "adm3",
      "level": null,
      "parent_id": null,
      "population": 148,
      "latitude": "40.75592000",
      "longitude": "-5.69329000",
      "timezone": "Europe/Madrid",
      "wikiDataId": "Q513531",
      "country_code": "ES",
      "state_code": "SA",
      "state_id": 1147,
      "country_id": 207
    },
    {
      "id": 35613,
      "name": "Morasverdes",
      "name_default": "Morasverdes",
      "native": "Morasverdes",
      "type": "adm3",
      "level": null,
      "parent_id": null,
      "population": 380,
      "latitude": "40.60019000",
      "longitude": "-6.27503000",
      "timezone": "Europe/Madrid",
      "wikiDataId": "Q1650224",
      "country_code": "ES",
      "state_code": "SA",
      "state_id": 1147,
      "country_id": 207
    },
    {
      "id": 35630,
      "name": "Morille",
      "name_default": "Morille",
      "native": "Morille",
      "type": "adm3",
      "level": null,
      "parent_id": null,
      "population": 224,
      "latitude": "40.80693000",
      "longitude": "-5.69833000",
      "timezone": "Europe/Madrid",
      "wikiDataId": "Q1910879",
      "country_code": "ES",
      "state_code": "SA",
      "state_id": 1147,
      "country_id": 207
    },
    {
      "id": 152536,
      "name": "Moríñigo",
      "name_default": "Moríñigo",
      "native": "Moríñigo",
      "type": "adm3",
      "level": null,
      "parent_id": null,
      "population": 88,
      "latitude": "40.96984480",
      "longitude": "-5.41424560",
      "timezone": "Europe/Madrid",
      "wikiDataId": "Q1911073",
      "country_code": "ES",
      "state_code": "SA",
      "state_id": 1147,
      "country_id": 207
    },
    {
      "id": 35631,
      "name": "Moriscos",
      "name_default": "Moriscos",
      "native": "Moriscos",
      "type": "adm3",
      "level": null,
      "parent_id": null,
      "population": 119,
      "latitude": "41.00818000",
      "longitude": "-5.58184000",
      "timezone": "Europe/Madrid",
      "wikiDataId": "Q1910879",
      "country_code": "ES",
      "state_code": "SA",
      "state_id": 1147,
      "country_id": 207
    },
    {
      "id": 35632,
      "name": "Moronta",
      "name_default": "Moronta",
      "native": "Moronta",
      "type": "adm3",
      "level": null,
      "parent_id": null,
      "population": 114,
      "latitude": "40.97688000",
      "longitude": "-6.43103000",
      "timezone": "Europe/Madrid",
      "wikiDataId": "Q1768571",
      "country_code": "ES",
      "state_code": "SA",
      "state_id": 1147,
      "country_id": 207
    },