{
  "locale": "uk",
  "country": {
    "id": 101,
    "code": "IN",
    "iso3": "IND",
    "numeric_code": "356",
    "name": "Індія",
    "name_default": "India",
    "native": "भारत",
    "capital": "New Delhi",
    "phonecode": "91",
    "currency": "INR",
    "currency_name": "Indian rupee",
    "currency_symbol": "₹",
    "tld": ".in",
    "population": 1417492000,
    "gdp": 4187017,
    "region": "Asia",
    "region_id": 3,
    "subregion": "Southern Asia",
    "subregion_id": 14,
    "nationality": "Indian",
    "timezones": [
      {
        "zoneName": "Asia/Kolkata",
        "gmtOffset": 19800,
        "gmtOffsetName": "UTC+05:30",
        "abbreviation": "IST",
        "tzName": "Indian Standard Time"
      }
    ],
    "latitude": "20.00000000",
    "longitude": "77.00000000",
    "emoji": "🇮🇳",
    "emojiU": "U+1F1EE U+1F1F3"
  },
  "state": {
    "id": 4008,
    "code": "MH",
    "iso2": "MH",
    "iso3166_2": "IN-MH",
    "fips_code": "16",
    "name": "Махараштра",
    "name_default": "Maharashtra",
    "native": "महाराष्ट्र",
    "type": "state",
    "level": null,
    "parent_id": null,
    "population": 128659000,
    "latitude": "18.90683560",
    "longitude": "75.67415790",
    "timezone": "Asia/Kolkata",
    "wikiDataId": "Q1191",
    "country_code": "IN"
  },
  "cities": [
    {
      "id": 57589,
      "name": "Ачалпур",
      "name_default": "Achalpur",
      "native": "अचलपुर",
      "type": "city",
      "level": null,
      "parent_id": null,
      "population": 112311,
      "latitude": "21.25665000",
      "longitude": "77.51006000",
      "timezone": "Asia/Kolkata",
      "wikiDataId": "Q490886",
      "country_code": "IN",
      "state_code": "MH",
      "state_id": 4008,
      "country_id": 101
    },
    {
      "id": 147667,
      "name": "Адавад",
      "name_default": "Adawad",
      "native": "अदावाद",
      "type": "city",
      "level": null,
      "parent_id": null,
      "population": 0,
      "latitude": "21.21666667",
      "longitude": "75.45000000",
      "timezone": "Asia/Kolkata",
      "wikiDataId": "Q4680894",
      "country_code": "IN",
      "state_code": "MH",
      "state_id": 4008,
      "country_id": 101
    },
    {
      "id": 147668,
      "name": "Агар Панчайтан",
      "name_default": "Agar Panchaitan",
      "native": "अगर पंचायतन",
      "type": "city",
      "level": null,
      "parent_id": null,
      "population": 0,
      "latitude": "18.17369200",
      "longitude": "72.98853300",
      "timezone": "Asia/Kolkata",
      "wikiDataId": "Q4691267",
      "country_code": "IN",
      "state_code": "MH",
      "state_id": 4008,
      "country_id": 101
    },
    {
      "id": 147669,
      "name": "Ахері",
      "name_default": "Aheri",
      "native": "अहेरी",
      "type": "city",
      "level": null,
      "parent_id": null,
      "population": 14609,
      "latitude": "19.41166667",
      "longitude": "80.00388889",
      "timezone": "Asia/Kolkata",
      "wikiDataId": "Q3606967",
      "country_code": "IN",
      "state_code": "MH",
      "state_id": 4008,
      "country_id": 101
    },
    {
      "id": 57604,
      "name": "Ахмадпур",
      "name_default": "Ahmadpur",
      "native": "अहमदपुर",
      "type": "city",
      "level": null,
      "parent_id": null,
      "population": 43936,
      "latitude": "18.70622000",
      "longitude": "76.93731000",
      "timezone": "Asia/Kolkata",
      "wikiDataId": "Q590521",
      "country_code": "IN",
      "state_code": "MH",
      "state_id": 4008,
      "country_id": 101
    },
    {
      "id": 147670,
      "name": "Ахмеднагар",
      "name_default": "Ahmednagar",
      "native": "अहमदनगर",
      "type": "city",
      "level": null,
      "parent_id": null,
      "population": null,
      "latitude": "19.08333333",
      "longitude": "74.73333333",
      "timezone": "Asia/Kolkata",
      "wikiDataId": "Q223517",
      "country_code": "IN",
      "state_code": "MH",
      "state_id": 4008,
      "country_id": 101
    },
    {
      "id": 57609,
      "name": "Айролі",
      "name_default": "Airoli",
      "native": "ऐरोली",
      "type": "city",
      "level": null,
      "parent_id": null,
      "population": 100000,
      "latitude": "19.15096000",
      "longitude": "72.99625000",
      "timezone": "Asia/Kolkata",
      "wikiDataId": "Q4698841",
      "country_code": "IN",
      "state_code": "MH",
      "state_id": 4008,
      "country_id": 101
    },
    {
      "id": 57617,
      "name": "Аджарія",
      "name_default": "Ajara",
      "native": "अजारा",
      "type": "city",
      "level": null,
      "parent_id": null,
      "population": 17257,
      "latitude": "16.11601000",
      "longitude": "74.21097000",
      "timezone": "Asia/Kolkata",
      "wikiDataId": "Q584021",
      "country_code": "IN",
      "state_code": "MH",
      "state_id": 4008,
      "country_id": 101
    },
    {
      "id": 57618,
      "name": "Акалкот",
      "name_default": "Akalkot",
      "native": "अकालकोट",
      "type": "city",
      "level": null,
      "parent_id": null,
      "population": 40103,
      "latitude": "17.52532000",
      "longitude": "76.20611000",
      "timezone": "Asia/Kolkata",
      "wikiDataId": "Q239809",
      "country_code": "IN",
      "state_code": "MH",
      "state_id": 4008,
      "country_id": 101
    },
    {
      "id": 147672,
      "name": "Аклуй",
      "name_default": "Akluj",
      "native": "अकलुज",
      "type": "city",
      "level": null,
      "parent_id": null,
      "population": 39972,
      "latitude": "17.88333333",
      "longitude": "75.01666667",
      "timezone": "Asia/Kolkata",
      "wikiDataId": "Q4701451",
      "country_code": "IN",
      "state_code": "MH",
      "state_id": 4008,
      "country_id": 101
    },
    {
      "id": 57627,
      "name": "Акола",
      "name_default": "Akola",
      "native": "अकोला",
      "type": "city",
      "level": null,
      "parent_id": null,
      "population": 428857,
      "latitude": "20.50000000",
      "longitude": "77.16667000",
      "timezone": "Asia/Kolkata",
      "wikiDataId": "Q213014",
      "country_code": "IN",
      "state_code": "MH",
      "state_id": 4008,
      "country_id": 101
    },
    {
      "id": 147673,
      "name": "Аколнер",
      "name_default": "Akolner",
      "native": "अकोल्नर",
      "type": "city",
      "level": null,
      "parent_id": null,
      "population": 0,
      "latitude": "18.98333333",
      "longitude": "74.66666667",
      "timezone": "Asia/Kolkata",
      "wikiDataId": "Q4701525",
      "country_code": "IN",
      "state_code": "MH",
      "state_id": 4008,
      "country_id": 101
    },
    {
      "id": 57628,
      "name": "Акот",
      "name_default": "Akot",
      "native": "अकोट",
      "type": "city",
      "level": null,
      "parent_id": null,
      "population": 92637,
      "latitude": "21.09630000",
      "longitude": "77.05880000",
      "timezone": "Asia/Kolkata",
      "wikiDataId": "Q589224",
      "country_code": "IN",
      "state_code": "MH",
      "state_id": 4008,
      "country_id": 101
    },
    {
      "id": 147674,
      "name": "Акрані",
      "name_default": "Akrani",
      "native": "अक्रानी",
      "type": "city",
      "level": null,
      "parent_id": null,
      "population": 6093,
      "latitude": "21.82423611",
      "longitude": "74.21687222",
      "timezone": "Asia/Kolkata",
      "wikiDataId": "Q2721836",
      "country_code": "IN",
      "state_code": "MH",
      "state_id": 4008,
      "country_id": 101
    },
    {
      "id": 57633,
      "name": "Аланді",
      "name_default": "Alandi",
      "native": "आलंदी",
      "type": "city",
      "level": null,
      "parent_id": null,
      "population": 28645,
      "latitude": "18.67756000",
      "longitude": "73.89868000",
      "timezone": "Asia/Kolkata",
      "wikiDataId": "Q589653",
      "country_code": "IN",
      "state_code": "MH",
      "state_id": 4008,
      "country_id": 101
    },
    {
      "id": 147675,
      "name": "Ель",
      "name_default": "Ale",
      "native": "यवसुरा",
      "type": "city",
      "level": null,
      "parent_id": null,
      "population": 0,
      "latitude": "19.17000000",
      "longitude": "74.12000000",
      "timezone": "Asia/Kolkata",
      "wikiDataId": "Q4714044",
      "country_code": "IN",
      "state_code": "MH",
      "state_id": 4008,
      "country_id": 101
    },
    {
      "id": 57652,
      "name": "Алібаг",
      "name_default": "Alibag",
      "native": "अलीबाग",
      "type": "city",
      "level": null,
      "parent_id": null,
      "population": 20752,
      "latitude": "18.64813000",
      "longitude": "72.87579000",
      "timezone": "Asia/Kolkata",
      "wikiDataId": "Q385394",
      "country_code": "IN",
      "state_code": "MH",
      "state_id": 4008,
      "country_id": 101
    },
    {
      "id": 147676,
      "name": "Алкуті",
      "name_default": "Alkuti",
      "native": "अलकुटी",
      "type": "city",
      "level": null,
      "parent_id": null,
      "population": 0,
      "latitude": "19.05000000",
      "longitude": "74.23000000",
      "timezone": "Asia/Kolkata",
      "wikiDataId": "Q4727727",
      "country_code": "IN",
      "state_code": "MH",
      "state_id": 4008,
      "country_id": 101
    },
    {
      "id": 57642,
      "name": "Аллапаллі",
      "name_default": "Allapalli",
      "native": "अल्लापल्ली",
      "type": "city",
      "level": null,
      "parent_id": null,
      "population": 10772,
      "latitude": "19.43172000",
      "longitude": "80.06377000",
      "timezone": "Asia/Kolkata",
      "wikiDataId": "Q589789",
      "country_code": "IN",
      "state_code": "MH",
      "state_id": 4008,
      "country_id": 101
    },
    {
      "id": 57657,
      "name": "Амальнер",
      "name_default": "Amalner",
      "native": "अमलनेर",
      "type": "city",
      "level": null,
      "parent_id": null,
      "population": 97369,
      "latitude": "21.03983000",
      "longitude": "75.05887000",
      "timezone": "Asia/Kolkata",
      "wikiDataId": "Q589095",
      "country_code": "IN",
      "state_code": "MH",
      "state_id": 4008,
      "country_id": 101
    },
    {
      "id": 57660,
      "name": "Амарнатх",
      "name_default": "Amarnath",
      "native": "अमरनाथ",
      "type": "city",
      "level": null,
      "parent_id": null,
      "population": 253475,
      "latitude": "19.20000000",
      "longitude": "73.16667000",
      "timezone": "Asia/Kolkata",
      "wikiDataId": "Q584008",
      "country_code": "IN",
      "state_code": "MH",
      "state_id": 4008,
      "country_id": 101
    },
    {
      "id": 57665,
      "name": "Амбад",
      "name_default": "Ambad",
      "native": "अम्बाद",
      "type": "city",
      "level": null,
      "parent_id": null,
      "population": 31553,
      "latitude": "19.61301000",
      "longitude": "75.78906000",
      "timezone": "Asia/Kolkata",
      "wikiDataId": "Q583887",
      "country_code": "IN",
      "state_code": "MH",
      "state_id": 4008,
      "country_id": 101
    },
    {
      "id": 57674,
      "name": "Амбаджогай",
      "name_default": "Ambajogai",
      "native": "अंबाजोगाई",
      "type": "city",
      "level": null,
      "parent_id": null,
      "population": 74114,
      "latitude": "18.73312000",
      "longitude": "76.38616000",
      "timezone": "Asia/Kolkata",
      "wikiDataId": "Q584032",
      "country_code": "IN",
      "state_code": "MH",
      "state_id": 4008,
      "country_id": 101
    },
    {
      "id": 147678,
      "name": "Амбегаон",
      "name_default": "Ambegaon",
      "native": "अम्बेगांव",
      "type": "city",
      "level": null,
      "parent_id": null,
      "population": 0,
      "latitude": "19.11666667",
      "longitude": "73.73333333",
      "timezone": "Asia/Kolkata",
      "wikiDataId": "Q4741194",
      "country_code": "IN",
      "state_code": "MH",
      "state_id": 4008,
      "country_id": 101
    },
    {
      "id": 147677,
      "name": "Амбернатх",
      "name_default": "Ambernath",
      "native": "अंबरनाथ",
      "type": "city",
      "level": null,
      "parent_id": null,
      "population": 253475,
      "latitude": "19.20900000",
      "longitude": "73.18600000",
      "timezone": "Asia/Kolkata",
      "wikiDataId": "Q584008",
      "country_code": "IN",
      "state_code": "MH",
      "state_id": 4008,
      "country_id": 101
    },
    {
      "id": 147679,
      "name": "Амгаон",
      "name_default": "Amgaon",
      "native": "आमगांव",
      "type": "city",
      "level": null,
      "parent_id": null,
      "population": 0,
      "latitude": "20.65000000",
      "longitude": "79.95000000",
      "timezone": "Asia/Kolkata",
      "wikiDataId": "Q4745985",
      "country_code": "IN",
      "state_code": "MH",
      "state_id": 4008,
      "country_id": 101
    },
    {
      "id": 57689,
      "name": "Амраваті",
      "name_default": "Amravati",
      "native": "अमरावती",
      "type": "adm2",
      "level": null,
      "parent_id": null,
      "population": 549370,
      "latitude": "20.93333000",
      "longitude": "77.75000000",
      "timezone": "Asia/Kolkata",
      "wikiDataId": "Q269899",
      "country_code": "IN",
      "state_code": "MH",
      "state_id": 4008,
      "country_id": 101
    },
    {
      "id": 147680,
      "name": "Андхері",
      "name_default": "Andheri",
      "native": "अंधेरी",
      "type": "adm1",
      "level": null,
      "parent_id": null,
      "population": 0,
      "latitude": "19.11916667",
      "longitude": "72.84694444",
      "timezone": "Asia/Kolkata",
      "wikiDataId": "Q12413015",
      "country_code": "IN",
      "state_code": "MH",
      "state_id": 4008,
      "country_id": 101
    },
    {
      "id": 147681,
      "name": "Андура",
      "name_default": "Andura",
      "native": "अंदुरा",
      "type": "city",
      "level": null,
      "parent_id": null,
      "population": 0,
      "latitude": "20.88333333",
      "longitude": "76.86666667",
      "timezone": "Asia/Kolkata",
      "wikiDataId": "Q4760315",
      "country_code": "IN",
      "state_code": "MH",
      "state_id": 4008,
      "country_id": 101
    },
    {
      "id": 57707,
      "name": "Анджангаон",
      "name_default": "Anjangaon",
      "native": "अंजनगांव",
      "type": "city",
      "level": null,
      "parent_id": null,
      "population": 56380,
      "latitude": "21.16516000",
      "longitude": "77.30910000",
      "timezone": "Asia/Kolkata",
      "wikiDataId": "Q583982",
      "country_code": "IN",
      "state_code": "MH",
      "state_id": 4008,
      "country_id": 101
    },
    {
      "id": 147682,
      "name": "Анджарле",
      "name_default": "Anjarle",
      "native": "अंजार्ले",
      "type": "city",
      "level": null,
      "parent_id": null,
      "population": 0,
      "latitude": "17.85000000",
      "longitude": "73.09000000",
      "timezone": "Asia/Kolkata",
      "wikiDataId": "Q4765785",
      "country_code": "IN",
      "state_code": "MH",
      "state_id": 4008,
      "country_id": 101
    },
    {
      "id": 57716,
      "name": "Аньшінг",
      "name_default": "Anshing",
      "native": "अंशिंग",
      "type": "city",
      "level": null,
      "parent_id": null,
      "population": 19000,
      "latitude": "20.04090000",
      "longitude": "77.31501000",
      "timezone": "Asia/Kolkata",
      "wikiDataId": "Q26791820",
      "country_code": "IN",
      "state_code": "MH",
      "state_id": 4008,
      "country_id": 101
    },
    {
      "id": 147683,
      "name": "Араг",
      "name_default": "Arag",
      "native": "अराग",
      "type": "city",
      "level": null,
      "parent_id": null,
      "population": 0,
      "latitude": "16.78000000",
      "longitude": "74.80000000",
      "timezone": "Asia/Kolkata",
      "wikiDataId": "Q4783707",
      "country_code": "IN",
      "state_code": "MH",
      "state_id": 4008,
      "country_id": 101
    },
    {
      "id": 134461,
      "name": "Арангаон",
      "name_default": "Arangaon",
      "native": "अरनगांव",
      "type": "city",
      "level": null,
      "parent_id": null,
      "population": 29591,
      "latitude": "19.02681000",
      "longitude": "74.71487000",
      "timezone": "Asia/Kolkata",
      "wikiDataId": "Q367624",
      "country_code": "IN",
      "state_code": "MH",
      "state_id": 4008,
      "country_id": 101
    },
    {
      "id": 147684,
      "name": "Ардхапур",
      "name_default": "Ardhapur",
      "native": "अर्धपुर",
      "type": "city",
      "level": null,
      "parent_id": null,
      "population": 0,
      "latitude": "19.28333333",
      "longitude": "77.38333333",
      "timezone": "Asia/Kolkata",
      "wikiDataId": "Q4788035",
      "country_code": "IN",
      "state_code": "MH",
      "state_id": 4008,
      "country_id": 101
    },
    {
      "id": 147685,
      "name": "Аргаон",
      "name_default": "Argaon",
      "native": "अरगांव",
      "type": "city",
      "level": null,
      "parent_id": null,
      "population": 0,
      "latitude": "16.77899900",
      "longitude": "73.64553000",
      "timezone": "Asia/Kolkata",
      "wikiDataId": "Q4682444",
      "country_code": "IN",
      "state_code": "MH",
      "state_id": 4008,
      "country_id": 101
    },
    {
      "id": 57741,
      "name": "Художнє село",
      "name_default": "Artist Village",
      "native": "कलाकार गाँव",
      "type": "city",
      "level": null,
      "parent_id": null,
      "population": 6000,
      "latitude": "19.03227000",
      "longitude": "73.04276000",
      "timezone": "Asia/Kolkata",
      "wikiDataId": "Q26794779",
      "country_code": "IN",
      "state_code": "MH",
      "state_id": 4008,
      "country_id": 101
    },
    {
      "id": 134463,
      "name": "Арві",
      "name_default": "Arvi",
      "native": "अरवी",
      "type": "city",
      "level": null,
      "parent_id": null,
      "population": 42822,
      "latitude": "20.99585000",
      "longitude": "78.22914000",
      "timezone": "Asia/Kolkata",
      "wikiDataId": "Q1935271",
      "country_code": "IN",
      "state_code": "MH",
      "state_id": 4008,
      "country_id": 101
    },
    {
      "id": 57751,
      "name": "Ашта",
      "name_default": "Ashta",
      "native": "अष्ट",
      "type": "city",
      "level": null,
      "parent_id": null,
      "population": 37105,
      "latitude": "16.94943000",
      "longitude": "74.40936000",
      "timezone": "Asia/Kolkata",
      "wikiDataId": "Q588688",
      "country_code": "IN",
      "state_code": "MH",
      "state_id": 4008,
      "country_id": 101
    },
    {
      "id": 57753,
      "name": "Ашті",
      "name_default": "Ashti",
      "native": "अष्टी",
      "type": "city",
      "level": null,
      "parent_id": null,
      "population": 13084,
      "latitude": "19.37671000",
      "longitude": "76.22520000",
      "timezone": "Asia/Kolkata",
      "wikiDataId": "Q582291",
      "country_code": "IN",
      "state_code": "MH",
      "state_id": 4008,
      "country_id": 101
    },
    {
      "id": 147686,
      "name": "Асода",
      "name_default": "Asoda",
      "native": "असोदा",
      "type": "city",
      "level": null,
      "parent_id": null,
      "population": 0,
      "latitude": "21.03333333",
      "longitude": "75.60000000",
      "timezone": "Asia/Kolkata",
      "wikiDataId": "Q4807547",
      "country_code": "IN",
      "state_code": "MH",
      "state_id": 4008,
      "country_id": 101
    },
    {
      "id": 147687,
      "name": "Аналіз",
      "name_default": "Assaye",
      "native": "परख",
      "type": "city",
      "level": null,
      "parent_id": null,
      "population": 0,
      "latitude": "20.24512778",
      "longitude": "75.88739722",
      "timezone": "Asia/Kolkata",
      "wikiDataId": "Q739902",
      "country_code": "IN",
      "state_code": "MH",
      "state_id": 4008,
      "country_id": 101
    },
    {
      "id": 147688,
      "name": "Астагаон",
      "name_default": "Astagaon",
      "native": "अस्तगांव",
      "type": "city",
      "level": null,
      "parent_id": null,
      "population": 0,
      "latitude": "19.66666667",
      "longitude": "74.50000000",
      "timezone": "Asia/Kolkata",
      "wikiDataId": "Q4810511",
      "country_code": "IN",
      "state_code": "MH",
      "state_id": 4008,
      "country_id": 101
    },
    {
      "id": 147689,
      "name": "Аунд Сатара",
      "name_default": "Aundh Satara",
      "native": "औंध सतारा",
      "type": "city",
      "level": null,
      "parent_id": null,
      "population": null,
      "latitude": "17.54583333",
      "longitude": "74.37500000",
      "timezone": "Asia/Kolkata",
      "wikiDataId": "Q15194005",
      "country_code": "IN",
      "state_code": "MH",
      "state_id": 4008,
      "country_id": 101
    },
    {
      "id": 57765,
      "name": "Аурангабад",
      "name_default": "Aurangabad",
      "native": "औरंगाबाद",
      "type": "adm2",
      "level": null,
      "parent_id": null,
      "population": 1175116,
      "latitude": "19.88467000",
      "longitude": "75.33986000",
      "timezone": "Asia/Kolkata",
      "wikiDataId": "Q200713",
      "country_code": "IN",
      "state_code": "MH",
      "state_id": 4008,
      "country_id": 101
    },
    {
      "id": 57770,
      "name": "Ауса",
      "name_default": "Ausa",
      "native": "औसा",
      "type": "city",
      "level": null,
      "parent_id": null,
      "population": 36118,
      "latitude": "18.24728000",
      "longitude": "76.49930000",
      "timezone": "Asia/Kolkata",
      "wikiDataId": "Q591243",
      "country_code": "IN",
      "state_code": "MH",
      "state_id": 4008,
      "country_id": 101
    },
    {
      "id": 57792,
      "name": "Бадлапур",
      "name_default": "Badlapur",
      "native": "बदलापुर",
      "type": "city",
      "level": null,
      "parent_id": null,
      "population": 174226,
      "latitude": "19.15516000",
      "longitude": "73.26553000",
      "timezone": "Asia/Kolkata",
      "wikiDataId": "Q588612",
      "country_code": "IN",
      "state_code": "MH",
      "state_id": 4008,
      "country_id": 101
    },
    {
      "id": 147690,
      "name": "Баднапур",
      "name_default": "Badnapur",
      "native": "बदनापुर",
      "type": "city",
      "level": null,
      "parent_id": null,
      "population": 0,
      "latitude": "19.86666667",
      "longitude": "75.73333333",
      "timezone": "Asia/Kolkata",
      "wikiDataId": "Q2878729",
      "country_code": "IN",
      "state_code": "MH",
      "state_id": 4008,
      "country_id": 101
    },
    {
      "id": 147691,
      "name": "Баднера",
      "name_default": "Badnera",
      "native": "बडनेरा",
      "type": "adm2",
      "level": null,
      "parent_id": null,
      "population": 0,
      "latitude": "20.85463056",
      "longitude": "77.72931111",
      "timezone": "Asia/Kolkata",
      "wikiDataId": "Q4841063",
      "country_code": "IN",
      "state_code": "MH",
      "state_id": 4008,
      "country_id": 101
    },
    {
      "id": 147692,
      "name": "Багеваді",
      "name_default": "Bagewadi",
      "native": "बागेवाड़ी",
      "type": "city",
      "level": null,
      "parent_id": null,
      "population": 0,
      "latitude": "16.29000000",
      "longitude": "74.60000000",
      "timezone": "Asia/Kolkata",
      "wikiDataId": "Q4841558",
      "country_code": "IN",
      "state_code": "MH",
      "state_id": 4008,
      "country_id": 101
    },
    {
      "id": 58121,
      "name": "Балапур",
      "name_default": "Balapur",
      "native": "बालापुर",
      "type": "city",
      "level": null,
      "parent_id": null,
      "population": 44594,
      "latitude": "20.73269620",
      "longitude": "76.83632810",
      "timezone": "Asia/Kolkata",
      "wikiDataId": "Q2315612",
      "country_code": "IN",
      "state_code": "MH",
      "state_id": 4008,
      "country_id": 101
    },
    {
      "id": 57829,
      "name": "Баллалпур",
      "name_default": "Ballalpur",
      "native": "बल्लालपुर",
      "type": "section",
      "level": null,
      "parent_id": null,
      "population": 92146,
      "latitude": "19.84696000",
      "longitude": "79.34578000",
      "timezone": "Asia/Kolkata",
      "wikiDataId": "Q584644",
      "country_code": "IN",
      "state_code": "MH",
      "state_id": 4008,
      "country_id": 101
    },
    {
      "id": 147694,
      "name": "Садиба Баллард",
      "name_default": "Ballard Estate",
      "native": "बैलार्ड एस्टेट",
      "type": "city",
      "level": null,
      "parent_id": null,
      "population": 0,
      "latitude": "18.95000000",
      "longitude": "72.84000000",
      "timezone": "Asia/Kolkata",
      "wikiDataId": "Q4851507",
      "country_code": "IN",
      "state_code": "MH",
      "state_id": 4008,
      "country_id": 101
    },
    {
      "id": 147695,
      "name": "Балларпур",
      "name_default": "Ballarpur",
      "native": "बल्लारपुर",
      "type": "section",
      "level": null,
      "parent_id": null,
      "population": 92146,
      "latitude": "19.83333333",
      "longitude": "79.35000000",
      "timezone": "Asia/Kolkata",
      "wikiDataId": "Q633427",
      "country_code": "IN",
      "state_code": "MH",
      "state_id": 4008,
      "country_id": 101
    },
    {
      "id": 147696,
      "name": "Банда, Махараштра",
      "name_default": "Banda Maharashtra",
      "native": "बांदा महाराष्ट्र",
      "type": "city",
      "level": null,
      "parent_id": null,
      "population": null,
      "latitude": "15.81273611",
      "longitude": "73.86132778",
      "timezone": "Asia/Kolkata",
      "wikiDataId": "Q4854281",
      "country_code": "IN",
      "state_code": "MH",
      "state_id": 4008,
      "country_id": 101
    },
    {
      "id": 147697,
      "name": "Бандра",
      "name_default": "Bandra",
      "native": "बांद्रा",
      "type": "adm1",
      "level": null,
      "parent_id": null,
      "population": 300000,
      "latitude": "19.05444444",
      "longitude": "72.84055556",
      "timezone": "Asia/Kolkata",
      "wikiDataId": "Q257622",
      "country_code": "IN",
      "state_code": "MH",
      "state_id": 4008,
      "country_id": 101
    },
    {
      "id": 147698,
      "name": "Банер",
      "name_default": "Baner",
      "native": "बैनर",
      "type": "city",
      "level": null,
      "parent_id": null,
      "population": 0,
      "latitude": "18.56000000",
      "longitude": "73.79027778",
      "timezone": "Asia/Kolkata",
      "wikiDataId": "Q4801087",
      "country_code": "IN",
      "state_code": "MH",
      "state_id": 4008,
      "country_id": 101
    },
    {
      "id": 147699,
      "name": "Банкот",
      "name_default": "Bankot",
      "native": "बैंकोट",
      "type": "city",
      "level": null,
      "parent_id": null,
      "population": 0,
      "latitude": "17.98333333",
      "longitude": "73.05000000",
      "timezone": "Asia/Kolkata",
      "wikiDataId": "Q4856435",
      "country_code": "IN",
      "state_code": "MH",
      "state_id": 4008,
      "country_id": 101
    },
    {
      "id": 58146,
      "name": "Бараматі",
      "name_default": "Baramati",
      "native": "बारामती",
      "type": "city",
      "level": null,
      "parent_id": null,
      "population": 54415,
      "latitude": "18.15174000",
      "longitude": "74.57767000",
      "timezone": "Asia/Kolkata",
      "wikiDataId": "Q712015",
      "country_code": "IN",
      "state_code": "MH",
      "state_id": 4008,
      "country_id": 101
    },
    {
      "id": 58144,
      "name": "Барсі",
      "name_default": "Barsi",
      "native": "बरसी",
      "type": "city",
      "level": null,
      "parent_id": null,
      "population": 118722,
      "latitude": "18.23454000",
      "longitude": "75.69275000",
      "timezone": "Asia/Kolkata",
      "wikiDataId": "Q42016",
      "country_code": "IN",
      "state_code": "MH",
      "state_id": 4008,
      "country_id": 101
    },
    {
      "id": 57897,
      "name": "Басмат",
      "name_default": "Basmat",
      "native": "बासमात",
      "type": "city",
      "level": null,
      "parent_id": null,
      "population": 68846,
      "latitude": "19.32872000",
      "longitude": "77.15746000",
      "timezone": "Asia/Kolkata",
      "wikiDataId": "Q648370",
      "country_code": "IN",
      "state_code": "MH",
      "state_id": 4008,
      "country_id": 101
    },
    {
      "id": 147701,
      "name": "Бавдхан",
      "name_default": "Bavdhan",
      "native": "बावधन",
      "type": "city",
      "level": null,
      "parent_id": null,
      "population": 0,
      "latitude": "18.53527778",
      "longitude": "73.78277778",
      "timezone": "Asia/Kolkata",
      "wikiDataId": "Q15197602",
      "country_code": "IN",
      "state_code": "MH",
      "state_id": 4008,
      "country_id": 101
    },
    {
      "id": 147702,
      "name": "Баванбір",
      "name_default": "Bawanbir",
      "native": "बावनबीर",
      "type": "city",
      "level": null,
      "parent_id": null,
      "population": 0,
      "latitude": "21.08333333",
      "longitude": "76.71666667",
      "timezone": "Asia/Kolkata",
      "wikiDataId": "Q4873756",
      "country_code": "IN",
      "state_code": "MH",
      "state_id": 4008,
      "country_id": 101
    },
    {
      "id": 57912,
      "name": "Бід",
      "name_default": "Beed",
      "native": "बीड",
      "type": "adm3",
      "level": null,
      "parent_id": null,
      "population": 146709,
      "latitude": "18.98921000",
      "longitude": "75.75634000",
      "timezone": "Asia/Kolkata",
      "wikiDataId": "Q814033",
      "country_code": "IN",
      "state_code": "MH",
      "state_id": 4008,
      "country_id": 101
    },
    {
      "id": 147703,
      "name": "Бхадгаон, Махараштра",
      "name_default": "Bhadgaon Maharashtra",
      "native": "भड़गांव महाराष्ट्र",
      "type": "city",
      "level": null,
      "parent_id": null,
      "population": null,
      "latitude": "20.16666667",
      "longitude": "75.23333333",
      "timezone": "Asia/Kolkata",
      "wikiDataId": "Q2766664",
      "country_code": "IN",
      "state_code": "MH",
      "state_id": 4008,
      "country_id": 101
    },
    {
      "id": 57961,
      "name": "Бхандара",
      "name_default": "Bhandara",
      "native": "भंडारा",
      "type": "city",
      "level": null,
      "parent_id": null,
      "population": 91845,
      "latitude": "21.18333000",
      "longitude": "80.00000000",
      "timezone": "Asia/Kolkata",
      "wikiDataId": "Q33424761",
      "country_code": "IN",
      "state_code": "MH",
      "state_id": 4008,
      "country_id": 101
    },
    {
      "id": 147704,
      "name": "Бхандардара",
      "name_default": "Bhandardara",
      "native": "भंडारदरा",
      "type": "city",
      "level": null,
      "parent_id": null,
      "population": 0,
      "latitude": "19.52916667",
      "longitude": "73.75138889",
      "timezone": "Asia/Kolkata",
      "wikiDataId": "Q281031",
      "country_code": "IN",
      "state_code": "MH",
      "state_id": 4008,
      "country_id": 101
    },
    {
      "id": 147705,
      "name": "Бхандуп",
      "name_default": "Bhandup",
      "native": "भांडुप",
      "type": "city",
      "level": null,
      "parent_id": null,
      "population": 0,
      "latitude": "19.14000000",
      "longitude": "72.93000000",
      "timezone": "Asia/Kolkata",
      "wikiDataId": "Q4900993",
      "country_code": "IN",
      "state_code": "MH",
      "state_id": 4008,
      "country_id": 101
    },
    {
      "id": 57978,
      "name": "Бхаяндар",
      "name_default": "Bhayandar",
      "native": "भयंदर",
      "type": "city",
      "level": null,
      "parent_id": null,
      "population": 809378,
      "latitude": "19.30157000",
      "longitude": "72.85107000",
      "timezone": "Asia/Kolkata",
      "wikiDataId": "Q4901615",
      "country_code": "IN",
      "state_code": "MH",
      "state_id": 4008,
      "country_id": 101
    },
    {
      "id": 57979,
      "name": "Бхігван",
      "name_default": "Bhigvan",
      "native": "भिगवण",
      "type": "city",
      "level": null,
      "parent_id": null,
      "population": 8753,
      "latitude": "18.30070000",
      "longitude": "74.76701000",
      "timezone": "Asia/Kolkata",
      "wikiDataId": "Q26791344",
      "country_code": "IN",
      "state_code": "MH",
      "state_id": 4008,
      "country_id": 101
    },
    {
      "id": 57987,
      "name": "Бхіванді",
      "name_default": "Bhiwandi",
      "native": "भिवंडी",
      "type": "city",
      "level": null,
      "parent_id": null,
      "population": 709665,
      "latitude": "19.30023000",
      "longitude": "73.05881000",
      "timezone": "Asia/Kolkata",
      "wikiDataId": "Q31856876",
      "country_code": "IN",
      "state_code": "MH",
      "state_id": 4008,
      "country_id": 101
    },
    {
      "id": 147706,
      "name": "Бхівапур",
      "name_default": "Bhiwapur",
      "native": "भिवापुर",
      "type": "city",
      "level": null,
      "parent_id": null,
      "population": 0,
      "latitude": "20.83555556",
      "longitude": "79.50111111",
      "timezone": "Asia/Kolkata",
      "wikiDataId": "Q4901861",
      "country_code": "IN",
      "state_code": "MH",
      "state_id": 4008,
      "country_id": 101
    },
    {
      "id": 147707,
      "name": "Бхокар",
      "name_default": "Bhokar",
      "native": "भोकर",
      "type": "city",
      "level": null,
      "parent_id": null,
      "population": 32899,
      "latitude": "19.21780300",
      "longitude": "77.66939200",
      "timezone": "Asia/Kolkata",
      "wikiDataId": "Q4901919",
      "country_code": "IN",
      "state_code": "MH",
      "state_id": 4008,
      "country_id": 101
    },
    {
      "id": 147708,
      "name": "Бхокардан",
      "name_default": "Bhokardan",
      "native": "भोकरदान",
      "type": "city",
      "level": null,
      "parent_id": null,
      "population": 24416,
      "latitude": "20.27000000",
      "longitude": "75.77000000",
      "timezone": "Asia/Kolkata",
      "wikiDataId": "Q796505",
      "country_code": "IN",
      "state_code": "MH",
      "state_id": 4008,
      "country_id": 101
    },
    {
      "id": 58024,
      "name": "Бхум",
      "name_default": "Bhoom",
      "native": "भूम",
      "type": "city",
      "level": null,
      "parent_id": null,
      "population": 18561,
      "latitude": "18.45908000",
      "longitude": "75.65877000",
      "timezone": "Asia/Kolkata",
      "wikiDataId": "Q796520",
      "country_code": "IN",
      "state_code": "MH",
      "state_id": 4008,
      "country_id": 101
    },
    {
      "id": 57997,
      "name": "Бхор",
      "name_default": "Bhor",
      "native": "भोर",
      "type": "city",
      "level": null,
      "parent_id": null,
      "population": 18982,
      "latitude": "18.14861000",
      "longitude": "73.84336000",
      "timezone": "Asia/Kolkata",
      "wikiDataId": "Q797462",
      "country_code": "IN",
      "state_code": "MH",
      "state_id": 4008,
      "country_id": 101
    },
    {
      "id": 58001,
      "name": "Бхудгаон",
      "name_default": "Bhudgaon",
      "native": "भूड़गांव",
      "type": "city",
      "level": null,
      "parent_id": null,
      "population": 15738,
      "latitude": "16.90742000",
      "longitude": "74.59954000",
      "timezone": "Asia/Kolkata",
      "wikiDataId": "Q26791355",
      "country_code": "IN",
      "state_code": "MH",
      "state_id": 4008,
      "country_id": 101
    },
    {
      "id": 147710,
      "name": "Бхугаон",
      "name_default": "Bhugaon",
      "native": "भूगांव",
      "type": "city",
      "level": null,
      "parent_id": null,
      "population": 0,
      "latitude": "18.50128400",
      "longitude": "73.75016100",
      "timezone": "Asia/Kolkata",
      "wikiDataId": "Q15198984",
      "country_code": "IN",
      "state_code": "MH",
      "state_id": 4008,
      "country_id": 101
    },
    {
      "id": 58005,
      "name": "Бхусавал",
      "name_default": "Bhusaval",
      "native": "भुसावल",
      "type": "city",
      "level": null,
      "parent_id": null,
      "population": null,
      "latitude": "21.04365000",
      "longitude": "75.78506000",
      "timezone": "Asia/Kolkata",
      "wikiDataId": "Q796650",
      "country_code": "IN",
      "state_code": "MH",
      "state_id": 4008,
      "country_id": 101
    },
    {
      "id": 147712,
      "name": "Біжур",
      "name_default": "Bijur",
      "native": "बिजूर",
      "type": "city",
      "level": null,
      "parent_id": null,
      "population": 20323,
      "latitude": "13.84388889",
      "longitude": "74.63972222",
      "timezone": "Asia/Kolkata",
      "wikiDataId": "Q4907289",
      "country_code": "IN",
      "state_code": "MH",
      "state_id": 4008,
      "country_id": 101
    },
    {
      "id": 147713,
      "name": "Білаші",
      "name_default": "Bilashi",
      "native": "बिलाशी",
      "type": "city",
      "level": null,
      "parent_id": null,
      "population": 0,
      "latitude": "16.98333000",
      "longitude": "74.03333000",
      "timezone": "Asia/Kolkata",
      "wikiDataId": "Q4907558",
      "country_code": "IN",
      "state_code": "MH",
      "state_id": 4008,
      "country_id": 101
    },
    {
      "id": 58047,
      "name": "Білолі",
      "name_default": "Biloli",
      "native": "बिलोली",
      "type": "city",
      "level": null,
      "parent_id": null,
      "population": 14923,
      "latitude": "18.77385000",
      "longitude": "77.72463000",
      "timezone": "Asia/Kolkata",
      "wikiDataId": "Q861330",
      "country_code": "IN",
      "state_code": "MH",
      "state_id": 4008,
      "country_id": 101
    },
    {
      "id": 58074,
      "name": "Буасар",
      "name_default": "Boisar",
      "native": "बोईसर",
      "type": "city",
      "level": null,
      "parent_id": null,
      "population": 36151,
      "latitude": "19.80362000",
      "longitude": "72.75598000",
      "timezone": "Asia/Kolkata",
      "wikiDataId": "Q858592",
      "country_code": "IN",
      "state_code": "MH",
      "state_id": 4008,
      "country_id": 101
    },
    {
      "id": 147714,
      "name": "Боргаон Манджу",
      "name_default": "Borgaon Manju",
      "native": "बोरगांव मंजू",
      "type": "city",
      "level": null,
      "parent_id": null,
      "population": 0,
      "latitude": "20.71944444",
      "longitude": "77.15277778",
      "timezone": "Asia/Kolkata",
      "wikiDataId": "Q4945014",
      "country_code": "IN",
      "state_code": "MH",
      "state_id": 4008,
      "country_id": 101
    },
    {
      "id": 147715,
      "name": "Борівалі",
      "name_default": "Borivali",
      "native": "बोरीवली",
      "type": "city",
      "level": null,
      "parent_id": null,
      "population": 609617,
      "latitude": "19.23000000",
      "longitude": "72.86000000",
      "timezone": "Asia/Kolkata",
      "wikiDataId": "Q4945504",
      "country_code": "IN",
      "state_code": "MH",
      "state_id": 4008,
      "country_id": 101
    },
    {
      "id": 147716,
      "name": "Брахмапурі",
      "name_default": "Brahmapuri",
      "native": "ब्रह्मपुरी",
      "type": "city",
      "level": null,
      "parent_id": null,
      "population": null,
      "latitude": "20.60840000",
      "longitude": "79.85590000",
      "timezone": "Asia/Kolkata",
      "wikiDataId": "Q2546796",
      "country_code": "IN",
      "state_code": "MH",
      "state_id": 4008,
      "country_id": 101
    },
    {
      "id": 147717,
      "name": "Порушення Цукерки",
      "name_default": "Breach Candy",
      "native": "ब्रीच कैंडी",
      "type": "city",
      "level": null,
      "parent_id": null,
      "population": 0,
      "latitude": "18.96700000",
      "longitude": "72.80500000",
      "timezone": "Asia/Kolkata",
      "wikiDataId": "Q4959100",
      "country_code": "IN",
      "state_code": "MH",
      "state_id": 4008,
      "country_id": 101
    },
    {
      "id": 58094,
      "name": "Булдана",
      "name_default": "Buldana",
      "native": "बुलढाणा",
      "type": "city",
      "level": null,
      "parent_id": null,
      "population": null,
      "latitude": "20.58333000",
      "longitude": "76.41667000",
      "timezone": "Asia/Kolkata",
      "wikiDataId": "Q1752328",
      "country_code": "IN",
      "state_code": "MH",
      "state_id": 4008,
      "country_id": 101
    },
    {
      "id": 147719,
      "name": "Бікулла",
      "name_default": "Byculla",
      "native": "बाइकुला",
      "type": "city",
      "level": null,
      "parent_id": null,
      "population": 0,
      "latitude": "18.98000000",
      "longitude": "72.83500000",
      "timezone": "Asia/Kolkata",
      "wikiDataId": "Q5003979",
      "country_code": "IN",
      "state_code": "MH",
      "state_id": 4008,
      "country_id": 101
    },
    {
      "id": 131589,
      "name": "Чакан",
      "name_default": "Chakan",
      "native": "चाकन",
      "type": "city",
      "level": null,
      "parent_id": null,
      "population": 41113,
      "latitude": "18.76059000",
      "longitude": "73.86351000",
      "timezone": "Asia/Kolkata",
      "wikiDataId": "Q1020740",
      "country_code": "IN",
      "state_code": "MH",
      "state_id": 4008,
      "country_id": 101
    },
    {
      "id": 147720,
      "name": "Чакур",
      "name_default": "Chakur",
      "native": "चाकुर",
      "type": "city",
      "level": null,
      "parent_id": null,
      "population": 0,
      "latitude": "18.51305556",
      "longitude": "76.87527778",
      "timezone": "Asia/Kolkata",
      "wikiDataId": "Q5068446",
      "country_code": "IN",
      "state_code": "MH",
      "state_id": 4008,
      "country_id": 101
    },
    {
      "id": 131592,
      "name": "Чалісгаон",
      "name_default": "Chalisgaon",
      "native": "चालीसगांव",
      "type": "city",
      "level": null,
      "parent_id": null,
      "population": 97551,
      "latitude": "20.45781000",
      "longitude": "75.01596000",
      "timezone": "Asia/Kolkata",
      "wikiDataId": "Q858598",
      "country_code": "IN",
      "state_code": "MH",
      "state_id": 4008,
      "country_id": 101
    },
    {
      "id": 131596,
      "name": "Чанда",
      "name_default": "Chanda",
      "native": "चंदा",
      "type": "city",
      "level": null,
      "parent_id": null,
      "population": 328351,
      "latitude": "19.95076000",
      "longitude": "79.29523000",
      "timezone": "Asia/Kolkata",
      "wikiDataId": "Q861194",
      "country_code": "IN",
      "state_code": "MH",
      "state_id": 4008,
      "country_id": 101
    },
    {
      "id": 147721,
      "name": "Чандгад",
      "name_default": "Chandgad",
      "native": "चांदगढ़",
      "type": "locality",
      "level": null,
      "parent_id": null,
      "population": 0,
      "latitude": "15.00000000",
      "longitude": "74.00000000",
      "timezone": "Asia/Kolkata",
      "wikiDataId": "Q5071026",
      "country_code": "IN",
      "state_code": "MH",
      "state_id": 4008,
      "country_id": 101
    },
    {
      "id": 131599,
      "name": "Чандор",
      "name_default": "Chandor",
      "native": "चंदोर",
      "type": "city",
      "level": null,
      "parent_id": null,
      "population": 25341,
      "latitude": "20.33060000",
      "longitude": "74.24467000",
      "timezone": "Asia/Kolkata",
      "wikiDataId": "Q720244",
      "country_code": "IN",
      "state_code": "MH",
      "state_id": 4008,
      "country_id": 101
    },
    {
      "id": 58192,
      "name": "Чандрапур",
      "name_default": "Chandrapur",
      "native": "चंद्रपुर",
      "type": "city",
      "level": null,
      "parent_id": null,
      "population": 328351,
      "latitude": "20.11793000",
      "longitude": "79.44377000",
      "timezone": "Asia/Kolkata",
      "wikiDataId": "Q861194",
      "country_code": "IN",
      "state_code": "MH",
      "state_id": 4008,
      "country_id": 101
    },
    {
      "id": 131601,
      "name": "Чандур",
      "name_default": "Chandur",
      "native": "चंदूर",
      "type": "city",
      "level": null,
      "parent_id": null,
      "population": 26755,
      "latitude": "19.73444000",
      "longitude": "79.17167000",
      "timezone": "Asia/Kolkata",
      "wikiDataId": "Q3666120",
      "country_code": "IN",
      "state_code": "MH",
      "state_id": 4008,
      "country_id": 101
    },
    {
      "id": 131603,
      "name": "Базар Чандур",
      "name_default": "Chandur Bazar",
      "native": "चंदूर बाजार",
      "type": "city",
      "level": null,
      "parent_id": null,
      "population": 18780,
      "latitude": "21.23853000",
      "longitude": "77.74713000",
      "timezone": "Asia/Kolkata",
      "wikiDataId": "Q3666120",
      "country_code": "IN",
      "state_code": "MH",
      "state_id": 4008,
      "country_id": 101
    },
    {
      "id": 147722,
      "name": "Чаусала",
      "name_default": "Chausala",
      "native": "चौसाला",
      "type": "city",
      "level": null,
      "parent_id": null,
      "population": 0,
      "latitude": "18.70869200",
      "longitude": "75.69159500",
      "timezone": "Asia/Kolkata",
      "wikiDataId": "Q5088367",
      "country_code": "IN",
      "state_code": "MH",
      "state_id": 4008,
      "country_id": 101
    },
    {
      "id": 147723,
      "name": "Чембур",
      "name_default": "Chembur",
      "native": "चेंबूर",
      "type": "adm1",
      "level": null,
      "parent_id": null,
      "population": 0,
      "latitude": "19.05871111",
      "longitude": "72.89969444",
      "timezone": "Asia/Kolkata",
      "wikiDataId": "Q251170",
      "country_code": "IN",
      "state_code": "MH",
      "state_id": 4008,
      "country_id": 101
    },
    {
      "id": 131544,
      "name": "Чічолі",
      "name_default": "Chicholi",
      "native": "चिचोली",
      "type": "city",
      "level": null,
      "parent_id": null,
      "population": 18864,
      "latitude": "21.46926000",
      "longitude": "79.70151000",
      "timezone": "Asia/Kolkata",
      "wikiDataId": "Q1104151",
      "country_code": "IN",
      "state_code": "MH",
      "state_id": 4008,
      "country_id": 101
    },
    {
      "id": 147724,
      "name": "Чічонді Патіл",
      "name_default": "Chichondi Patil",
      "native": "चिचोंडी पाटिल",
      "type": "city",
      "level": null,
      "parent_id": null,
      "population": 0,
      "latitude": "19.00000000",
      "longitude": "74.91666667",
      "timezone": "Asia/Kolkata",
      "wikiDataId": "Q5096066",
      "country_code": "IN",
      "state_code": "MH",
      "state_id": 4008,
      "country_id": 101
    },
    {
      "id": 131549,
      "name": "Чіхлі (Булдхана)",
      "name_default": "Chikhli (Buldhana)",
      "native": "चिखली (बुलढाणा)",
      "type": "city",
      "level": null,
      "parent_id": null,
      "population": 57889,
      "latitude": "20.35046000",
      "longitude": "76.25774000",
      "timezone": "Asia/Kolkata",
      "wikiDataId": "Q3674596",
      "country_code": "IN",
      "state_code": "MH",
      "state_id": 4008,
      "country_id": 101
    },
    {
      "id": 147725,
      "name": "Чіхлі (Джальна)",
      "name_default": "Chikhli (Jalna)",
      "native": "चिखली (जालना)",
      "type": "city",
      "level": null,
      "parent_id": null,
      "population": null,
      "latitude": "20.02193000",
      "longitude": "75.78544000",
      "timezone": "Asia/Kolkata",
      "wikiDataId": "Q87192562",
      "country_code": "IN",
      "state_code": "MH",
      "state_id": 4008,
      "country_id": 101
    },
    {
      "id": 147726,
      "name": "Чимур",
      "name_default": "Chimur",
      "native": "चिमूर",
      "type": "city",
      "level": null,
      "parent_id": null,
      "population": 0,
      "latitude": "20.49694444",
      "longitude": "79.37666667",
      "timezone": "Asia/Kolkata",
      "wikiDataId": "Q5099456",
      "country_code": "IN",
      "state_code": "MH",
      "state_id": 4008,
      "country_id": 101
    },
    {
      "id": 131558,
      "name": "Чінчані",
      "name_default": "Chinchani",
      "native": "चिंचनी",
      "type": "city",
      "level": null,
      "parent_id": null,
      "population": 14357,
      "latitude": "19.87458000",
      "longitude": "72.68510000",
      "timezone": "Asia/Kolkata",
      "wikiDataId": "Q1104169",
      "country_code": "IN",
      "state_code": "MH",
      "state_id": 4008,
      "country_id": 101
    },
    {
      "id": 147727,
      "name": "Чінчпоклі",
      "name_default": "Chinchpokli",
      "native": "चिंचपोकली",
      "type": "city",
      "level": null,
      "parent_id": null,
      "population": 0,
      "latitude": "18.98333333",
      "longitude": "72.83333333",
      "timezone": "Asia/Kolkata",
      "wikiDataId": "Q5100316",
      "country_code": "IN",
      "state_code": "MH",
      "state_id": 4008,
      "country_id": 101
    },
    {
      "id": 131567,
      "name": "Чіплун",
      "name_default": "Chiplun",
      "native": "चिपलुन",
      "type": "city",
      "level": null,
      "parent_id": null,
      "population": 55139,
      "latitude": "17.53339000",
      "longitude": "73.50935000",
      "timezone": "Asia/Kolkata",
      "wikiDataId": "Q1117869",
      "country_code": "IN",
      "state_code": "MH",
      "state_id": 4008,
      "country_id": 101
    },
    {
      "id": 131580,
      "name": "Чопда",
      "name_default": "Chopda",
      "native": "चोपड़ा",
      "type": "city",
      "level": null,
      "parent_id": null,
      "population": 72783,
      "latitude": "21.24578000",
      "longitude": "75.29946000",
      "timezone": "Asia/Kolkata",
      "wikiDataId": "Q1192614",
      "country_code": "IN",
      "state_code": "MH",
      "state_id": 4008,
      "country_id": 101
    },
    {
      "id": 147728,
      "name": "Колаба",
      "name_default": "Colaba",
      "native": "कोलाबा",
      "type": "city",
      "level": null,
      "parent_id": null,
      "population": 0,
      "latitude": "18.91000000",
      "longitude": "72.81000000",
      "timezone": "Asia/Kolkata",
      "wikiDataId": "Q3632559",
      "country_code": "IN",
      "state_code": "MH",
      "state_id": 4008,
      "country_id": 101
    },
    {
      "id": 131805,
      "name": "Дабхол",
      "name_default": "Dabhol",
      "native": "दाभोल",
      "type": "city",
      "level": null,
      "parent_id": null,
      "population": 9142,
      "latitude": "17.58971000",
      "longitude": "73.18001000",
      "timezone": "Asia/Kolkata",
      "wikiDataId": "Q5207479",
      "country_code": "IN",
      "state_code": "MH",
      "state_id": 4008,
      "country_id": 101
    },
    {
      "id": 147729,
      "name": "Дадді",
      "name_default": "Daddi",
      "native": "दद्दी",
      "type": "city",
      "level": null,
      "parent_id": null,
      "population": 0,
      "latitude": "16.06666667",
      "longitude": "74.43333333",
      "timezone": "Asia/Kolkata",
      "wikiDataId": "Q5207937",
      "country_code": "IN",
      "state_code": "MH",
      "state_id": 4008,
      "country_id": 101
    },
    {
      "id": 131807,
      "name": "Дахану",
      "name_default": "Dahanu",
      "native": "दहानु",
      "type": "city",
      "level": null,
      "parent_id": null,
      "population": 50287,
      "latitude": "19.96778000",
      "longitude": "72.71263000",
      "timezone": "Asia/Kolkata",
      "wikiDataId": "Q1190226",
      "country_code": "IN",
      "state_code": "MH",
      "state_id": 4008,
      "country_id": 101
    },
    {
      "id": 147730,
      "name": "Дахівел",
      "name_default": "Dahivel",
      "native": "दहिवेल",
      "type": "city",
      "level": null,
      "parent_id": null,
      "population": 0,
      "latitude": "21.06666667",
      "longitude": "74.16666667",
      "timezone": "Asia/Kolkata",
      "wikiDataId": "Q5208849",
      "country_code": "IN",
      "state_code": "MH",
      "state_id": 4008,
      "country_id": 101
    },
    {
      "id": 147731,
      "name": "Даполі",
      "name_default": "Dapoli",
      "native": "दापोली",
      "type": "city",
      "level": null,
      "parent_id": null,
      "population": 15713,
      "latitude": "17.75888889",
      "longitude": "73.18555556",
      "timezone": "Asia/Kolkata",
      "wikiDataId": "Q5221789",
      "country_code": "IN",
      "state_code": "MH",
      "state_id": 4008,
      "country_id": 101
    },
    {
      "id": 131810,
      "name": "Дарва",
      "name_default": "Darwha",
      "native": "दरव्हा",
      "type": "city",
      "level": null,
      "parent_id": null,
      "population": 25791,
      "latitude": "20.31017000",
      "longitude": "77.77257000",
      "timezone": "Asia/Kolkata",
      "wikiDataId": "Q1190716",
      "country_code": "IN",
      "state_code": "MH",
      "state_id": 4008,
      "country_id": 101
    },
    {
      "id": 131659,
      "name": "Дар'япур",
      "name_default": "Daryapur",
      "native": "दर्यापुर",
      "type": "city",
      "level": null,
      "parent_id": null,
      "population": 36463,
      "latitude": "20.92489000",
      "longitude": "77.32644000",
      "timezone": "Asia/Kolkata",
      "wikiDataId": "Q1190791",
      "country_code": "IN",
      "state_code": "MH",
      "state_id": 4008,
      "country_id": 101
    },
    {
      "id": 131663,
      "name": "Даттапур",
      "name_default": "Dattapur",
      "native": "दत्तापुर",
      "type": "city",
      "level": null,
      "parent_id": null,
      "population": 21763,
      "latitude": "20.78075000",
      "longitude": "78.14070000",
      "timezone": "Asia/Kolkata",
      "wikiDataId": "Q2206266",
      "country_code": "IN",
      "state_code": "MH",
      "state_id": 4008,
      "country_id": 101
    },
    {
      "id": 131666,
      "name": "Даулатабад",
      "name_default": "Daulatabad",
      "native": "दौलताबाद",
      "type": "city",
      "level": null,
      "parent_id": null,
      "population": 10000,
      "latitude": "19.93611000",
      "longitude": "75.22148000",
      "timezone": "Asia/Kolkata",
      "wikiDataId": "Q2249594",
      "country_code": "IN",
      "state_code": "MH",
      "state_id": 4008,
      "country_id": 101
    },
    {
      "id": 131667,
      "name": "Даунд",
      "name_default": "Daund",
      "native": "दौंड",
      "type": "city",
      "level": null,
      "parent_id": null,
      "population": 49450,
      "latitude": "18.46515000",
      "longitude": "74.58375000",
      "timezone": "Asia/Kolkata",
      "wikiDataId": "Q3703003",
      "country_code": "IN",
      "state_code": "MH",
      "state_id": 4008,
      "country_id": 101
    },
    {
      "id": 147732,
      "name": "Деканська джимхана",
      "name_default": "Deccan Gymkhana",
      "native": "डेक्कन जिमखाना",
      "type": "city",
      "level": null,
      "parent_id": null,
      "population": 0,
      "latitude": "18.51840000",
      "longitude": "73.84060000",
      "timezone": "Asia/Kolkata",
      "wikiDataId": "Q4991859",
      "country_code": "IN",
      "state_code": "MH",
      "state_id": 4008,
      "country_id": 101
    },
    {
      "id": 147733,
      "name": "Деглур",
      "name_default": "Deglur",
      "native": "डेग्लुर",
      "type": "city",
      "level": null,
      "parent_id": null,
      "population": 54493,
      "latitude": "18.54777778",
      "longitude": "77.57722222",
      "timezone": "Asia/Kolkata",
      "wikiDataId": "Q1192446",
      "country_code": "IN",
      "state_code": "MH",
      "state_id": 4008,
      "country_id": 101
    },
    {
      "id": 131678,
      "name": "Деху",
      "name_default": "Dehu",
      "native": "देहु",
      "type": "city",
      "level": null,
      "parent_id": null,
      "population": 6133,
      "latitude": "18.71851000",
      "longitude": "73.76635000",
      "timezone": "Asia/Kolkata",
      "wikiDataId": "Q1192430",
      "country_code": "IN",
      "state_code": "MH",
      "state_id": 4008,
      "country_id": 101
    },
    {
      "id": 131688,
      "name": "Деолалі",
      "name_default": "Deolali",
      "native": "देवलाली",
      "type": "city",
      "level": null,
      "parent_id": null,
      "population": 54027,
      "latitude": "19.94404000",
      "longitude": "73.83441000",
      "timezone": "Asia/Kolkata",
      "wikiDataId": "Q958334",
      "country_code": "IN",
      "state_code": "MH",
      "state_id": 4008,
      "country_id": 101
    },
    {
      "id": 147734,
      "name": "Деолапар",
      "name_default": "Deolapar",
      "native": "देवलापार",
      "type": "city",
      "level": null,
      "parent_id": null,
      "population": 0,
      "latitude": "21.58611111",
      "longitude": "79.36944444",
      "timezone": "Asia/Kolkata",
      "wikiDataId": "Q5259979",
      "country_code": "IN",
      "state_code": "MH",
      "state_id": 4008,
      "country_id": 101
    },
    {
      "id": 131686,
      "name": "Деолі",
      "name_default": "Deoli",
      "native": "देवली",
      "type": "city",
      "level": null,
      "parent_id": null,
      "population": 19288,
      "latitude": "20.64920000",
      "longitude": "78.48023000",
      "timezone": "Asia/Kolkata",
      "wikiDataId": "Q2429122",
      "country_code": "IN",
      "state_code": "MH",
      "state_id": 4008,
      "country_id": 101
    },
    {
      "id": 147735,
      "name": "Деоні",
      "name_default": "Deoni",
      "native": "देवनी",
      "type": "city",
      "level": null,
      "parent_id": null,
      "population": 0,
      "latitude": "18.26388889",
      "longitude": "77.08222222",
      "timezone": "Asia/Kolkata",
      "wikiDataId": "Q5260026",
      "country_code": "IN",
      "state_code": "MH",
      "state_id": 4008,
      "country_id": 101
    },
    {
      "id": 131709,
      "name": "Деулгаон Раджа",
      "name_default": "Deulgaon Raja",
      "native": "देउलगांव राजा",
      "type": "city",
      "level": null,
      "parent_id": null,
      "population": 30827,
      "latitude": "20.01757000",
      "longitude": "76.03755000",
      "timezone": "Asia/Kolkata",
      "wikiDataId": "Q1189972",
      "country_code": "IN",
      "state_code": "MH",
      "state_id": 4008,
      "country_id": 101
    },
    {
      "id": 147736,
      "name": "Деврух",
      "name_default": "Devrukh",
      "native": "देवरुख",
      "type": "city",
      "level": null,
      "parent_id": null,
      "population": 12689,
      "latitude": "17.06500000",
      "longitude": "73.61583333",
      "timezone": "Asia/Kolkata",
      "wikiDataId": "Q5267962",
      "country_code": "IN",
      "state_code": "MH",
      "state_id": 4008,
      "country_id": 101
    },
    {
      "id": 131722,
      "name": "Дхарангаон",
      "name_default": "Dharangaon",
      "native": "धरणगांव",
      "type": "city",
      "level": null,
      "parent_id": null,
      "population": 35375,
      "latitude": "21.01187000",
      "longitude": "75.27407000",
      "timezone": "Asia/Kolkata",
      "wikiDataId": "Q1264596",
      "country_code": "IN",
      "state_code": "MH",
      "state_id": 4008,
      "country_id": 101
    },
    {
      "id": 147737,
      "name": "Дхараві",
      "name_default": "Dharavi",
      "native": "धारावी",
      "type": "adm1",
      "level": null,
      "parent_id": null,
      "population": 0,
      "latitude": "19.05000000",
      "longitude": "72.86667000",
      "timezone": "Asia/Kolkata",
      "wikiDataId": "Q649632",
      "country_code": "IN",
      "state_code": "MH",
      "state_id": 4008,
      "country_id": 101
    },
    {
      "id": 131728,
      "name": "Дхармабад",
      "name_default": "Dharmabad",
      "native": "धर्माबाद",
      "type": "city",
      "level": null,
      "parent_id": null,
      "population": 33741,
      "latitude": "18.89116000",
      "longitude": "77.84940000",
      "timezone": "Asia/Kolkata",
      "wikiDataId": "Q1266630",
      "country_code": "IN",
      "state_code": "MH",
      "state_id": 4008,
      "country_id": 101
    },
    {
      "id": 131758,
      "name": "Дхарур",
      "name_default": "Dharur",
      "native": "धारुर",
      "type": "city",
      "level": null,
      "parent_id": null,
      "population": 20417,
      "latitude": "18.82017000",
      "longitude": "76.10937000",
      "timezone": "Asia/Kolkata",
      "wikiDataId": "Q2546835",
      "country_code": "IN",
      "state_code": "MH",
      "state_id": 4008,
      "country_id": 101
    },
    {
      "id": 147738,
      "name": "Дхавалпурі",
      "name_default": "Dhawalpuri",
      "native": "धवलपुरी",
      "type": "city",
      "level": null,
      "parent_id": null,
      "population": 0,
      "latitude": "19.16666667",
      "longitude": "74.51666667",
      "timezone": "Asia/Kolkata",
      "wikiDataId": "Q5269466",
      "country_code": "IN",
      "state_code": "MH",
      "state_id": 4008,
      "country_id": 101
    },
    {
      "id": 131746,
      "name": "Дхуле",
      "name_default": "Dhule",
      "native": "धुले",
      "type": "city",
      "level": null,
      "parent_id": null,
      "population": 375559,
      "latitude": "21.06852000",
      "longitude": "74.58837000",
      "timezone": "Asia/Kolkata",
      "wikiDataId": "Q31856850",
      "country_code": "IN",
      "state_code": "MH",
      "state_id": 4008,
      "country_id": 101
    },
    {
      "id": 131759,
      "name": "Дхулія",
      "name_default": "Dhulia",
      "native": "धूलिया",
      "type": "adm2",
      "level": null,
      "parent_id": null,
      "population": 375559,
      "latitude": "20.90130000",
      "longitude": "74.77737000",
      "timezone": "Asia/Kolkata",
      "wikiDataId": "Q773603",
      "country_code": "IN",
      "state_code": "MH",
      "state_id": 4008,
      "country_id": 101
    },
    {
      "id": 147739,
      "name": "Дігорі",
      "name_default": "Dighori",
      "native": "दिघोरी",
      "type": "city",
      "level": null,
      "parent_id": null,
      "population": 0,
      "latitude": "20.88620000",
      "longitude": "79.93420000",
      "timezone": "Asia/Kolkata",
      "wikiDataId": "Q15298095",
      "country_code": "IN",
      "state_code": "MH",
      "state_id": 4008,
      "country_id": 101
    },
    {
      "id": 131815,
      "name": "Діглур",
      "name_default": "Diglur",
      "native": "डिग्लुर",
      "type": "city",
      "level": null,
      "parent_id": null,
      "population": 54493,
      "latitude": "18.54829000",
      "longitude": "77.57695000",
      "timezone": "Asia/Kolkata",
      "wikiDataId": "Q1192446",
      "country_code": "IN",
      "state_code": "MH",
      "state_id": 4008,
      "country_id": 101
    },
    {
      "id": 131768,
      "name": "Діграс",
      "name_default": "Digras",
      "native": "डिग्रास",
      "type": "city",
      "level": null,
      "parent_id": null,
      "population": 44767,
      "latitude": "20.10350000",
      "longitude": "77.71846000",
      "timezone": "Asia/Kolkata",
      "wikiDataId": "Q1259725",
      "country_code": "IN",
      "state_code": "MH",
      "state_id": 4008,
      "country_id": 101
    },
    {
      "id": 147740,
      "name": "Діндорі, Махараштра",
      "name_default": "Dindori Maharashtra",
      "native": "डिंडोरी महाराष्ट्र",
      "type": "adm2",
      "level": null,
      "parent_id": null,
      "population": null,
      "latitude": "20.20000000",
      "longitude": "73.83305556",
      "timezone": "Asia/Kolkata",
      "wikiDataId": "Q5278010",
      "country_code": "IN",
      "state_code": "MH",
      "state_id": 4008,
      "country_id": 101
    },
    {
      "id": 147741,
      "name": "Дівеагар",
      "name_default": "Diveagar",
      "native": "दिवेआगर",
      "type": "city",
      "level": null,
      "parent_id": null,
      "population": 0,
      "latitude": "18.17333333",
      "longitude": "72.99166667",
      "timezone": "Asia/Kolkata",
      "wikiDataId": "Q5283881",
      "country_code": "IN",
      "state_code": "MH",
      "state_id": 4008,
      "country_id": 101
    },
    {
      "id": 131785,
      "name": "Домбівлі",
      "name_default": "Dombivli",
      "native": "डोंबिवली",
      "type": "city",
      "level": null,
      "parent_id": null,
      "population": 1247327,
      "latitude": "19.21667000",
      "longitude": "73.08333000",
      "timezone": "Asia/Kolkata",
      "wikiDataId": "Q3034709",
      "country_code": "IN",
      "state_code": "MH",
      "state_id": 4008,
      "country_id": 101
    },
    {
      "id": 131786,
      "name": "Дондайча",
      "name_default": "Dondaicha",
      "native": "दोंडाइचा",
      "type": "city",
      "level": null,
      "parent_id": null,
      "population": 46767,
      "latitude": "21.32360000",
      "longitude": "74.56804000",
      "timezone": "Asia/Kolkata",
      "wikiDataId": "Q26789856",
      "country_code": "IN",
      "state_code": "MH",
      "state_id": 4008,
      "country_id": 101
    },
    {
      "id": 147742,
      "name": "Донгрі",
      "name_default": "Dongri",
      "native": "डोंगरी",
      "type": "city",
      "level": null,
      "parent_id": null,
      "population": 29107,
      "latitude": "19.28333333",
      "longitude": "72.78333333",
      "timezone": "Asia/Kolkata",
      "wikiDataId": "Q5296011",
      "country_code": "IN",
      "state_code": "MH",
      "state_id": 4008,
      "country_id": 101
    },
    {
      "id": 131792,
      "name": "Дудхані",
      "name_default": "Dudhani",
      "native": "दुधानी",
      "type": "city",
      "level": null,
      "parent_id": null,
      "population": 12735,
      "latitude": "17.35792000",
      "longitude": "76.36688000",
      "timezone": "Asia/Kolkata",
      "wikiDataId": "Q1387098",
      "country_code": "IN",
      "state_code": "MH",
      "state_id": 4008,
      "country_id": 101
    },
    {
      "id": 131802,
      "name": "Дургапур",
      "name_default": "Durgapur",
      "native": "दुर्गापुर",
      "type": "city",
      "level": null,
      "parent_id": null,
      "population": 18561,
      "latitude": "20.00540000",
      "longitude": "79.30273000",
      "timezone": "Asia/Kolkata",
      "wikiDataId": "Q3716506",
      "country_code": "IN",
      "state_code": "MH",
      "state_id": 4008,
      "country_id": 101
    },
    {
      "id": 147743,
      "name": "Дургапур Чандрапур",
      "name_default": "Durgapur Chandrapur",
      "native": "दुर्गापुर चंद्रपुर",
      "type": "city",
      "level": null,
      "parent_id": null,
      "population": 18561,
      "latitude": "20.00000000",
      "longitude": "79.30000000",
      "timezone": "Asia/Kolkata",
      "wikiDataId": "Q3716506",
      "country_code": "IN",
      "state_code": "MH",
      "state_id": 4008,
      "country_id": 101
    },
    {
      "id": 131838,
      "name": "Ерандол",
      "name_default": "Erandol",
      "native": "एरंडोल",
      "type": "city",
      "level": null,
      "parent_id": null,
      "population": 31071,
      "latitude": "20.92206000",
      "longitude": "75.32641000",
      "timezone": "Asia/Kolkata",
      "wikiDataId": "Q1523435",
      "country_code": "IN",
      "state_code": "MH",
      "state_id": 4008,
      "country_id": 101
    },
    {
      "id": 131850,
      "name": "Файзпур",
      "name_default": "Faizpur",
      "native": "फैजपुर",
      "type": "city",
      "level": null,
      "parent_id": null,
      "population": 26602,
      "latitude": "21.16766000",
      "longitude": "75.86006000",
      "timezone": "Asia/Kolkata",
      "wikiDataId": "Q1523144",
      "country_code": "IN",
      "state_code": "MH",
      "state_id": 4008,
      "country_id": 101
    },
    {
      "id": 147744,
      "name": "Форт",
      "name_default": "Fort",
      "native": "किला",
      "type": "adm1",
      "level": null,
      "parent_id": null,
      "population": 0,
      "latitude": "18.93500000",
      "longitude": "72.83590000",
      "timezone": "Asia/Kolkata",
      "wikiDataId": "Q5470698",
      "country_code": "IN",
      "state_code": "MH",
      "state_id": 4008,
      "country_id": 101
    },
    {
      "id": 131886,
      "name": "Гадчіролі",
      "name_default": "Gadchiroli",
      "native": "गडचिरोली",
      "type": "city",
      "level": null,
      "parent_id": null,
      "population": 1072942,
      "latitude": "19.80000000",
      "longitude": "80.20000000",
      "timezone": "Asia/Kolkata",
      "wikiDataId": "Q1452991",
      "country_code": "IN",
      "state_code": "MH",
      "state_id": 4008,
      "country_id": 101
    },
    {
      "id": 131889,
      "name": "Гадхінглай",
      "name_default": "Gadhinglaj",
      "native": "गढ़िंगलाज",
      "type": "city",
      "level": null,
      "parent_id": null,
      "population": 27185,
      "latitude": "16.22291000",
      "longitude": "74.35010000",
      "timezone": "Asia/Kolkata",
      "wikiDataId": "Q1523294",
      "country_code": "IN",
      "state_code": "MH",
      "state_id": 4008,
      "country_id": 101
    },
    {
      "id": 131907,
      "name": "Гангахер",
      "name_default": "Gangakher",
      "native": "गंगाखेर",
      "type": "city",
      "level": null,
      "parent_id": null,
      "population": 49891,
      "latitude": "18.96962000",
      "longitude": "76.74946000",
      "timezone": "Asia/Kolkata",
      "wikiDataId": "Q186141",
      "country_code": "IN",
      "state_code": "MH",
      "state_id": 4008,
      "country_id": 101
    },
    {
      "id": 131910,
      "name": "Гангапур",
      "name_default": "Gangapur",
      "native": "गंगापुर",
      "type": "city",
      "level": null,
      "parent_id": null,
      "population": 27745,
      "latitude": "19.69718000",
      "longitude": "75.01045000",
      "timezone": "Asia/Kolkata",
      "wikiDataId": "Q2546805",
      "country_code": "IN",
      "state_code": "MH",
      "state_id": 4008,
      "country_id": 101
    },
    {
      "id": 147745,
      "name": "Ганпатіпуле",
      "name_default": "Ganpatipule",
      "native": "गणपतिपुले",
      "type": "adm3",
      "level": null,
      "parent_id": null,
      "population": 0,
      "latitude": "17.14480000",
      "longitude": "73.26660000",
      "timezone": "Asia/Kolkata",
      "wikiDataId": "Q5521478",
      "country_code": "IN",
      "state_code": "MH",
      "state_id": 4008,
      "country_id": 101
    },
    {
      "id": 131934,
      "name": "Геврай",
      "name_default": "Gevrai",
      "native": "गोरे",
      "type": "city",
      "level": null,
      "parent_id": null,
      "population": 33562,
      "latitude": "19.26372000",
      "longitude": "75.75007000",
      "timezone": "Asia/Kolkata",
      "wikiDataId": "Q1654133",
      "country_code": "IN",
      "state_code": "MH",
      "state_id": 4008,
      "country_id": 101
    },
    {
      "id": 147746,
      "name": "Гаргаон",
      "name_default": "Ghargaon",
      "native": "घरगांव",
      "type": "city",
      "level": null,
      "parent_id": null,
      "population": 0,
      "latitude": "18.74868400",
      "longitude": "74.63673400",
      "timezone": "Asia/Kolkata",
      "wikiDataId": "Q15221606",
      "country_code": "IN",
      "state_code": "MH",
      "state_id": 4008,
      "country_id": 101
    },
    {
      "id": 131951,
      "name": "Гхатанджі",
      "name_default": "Ghatanji",
      "native": "घाटंजी",
      "type": "city",
      "level": null,
      "parent_id": null,
      "population": 21293,
      "latitude": "20.14183000",
      "longitude": "78.31333000",
      "timezone": "Asia/Kolkata",
      "wikiDataId": "Q1707151",
      "country_code": "IN",
      "state_code": "MH",
      "state_id": 4008,
      "country_id": 101
    },
    {
      "id": 147747,
      "name": "Гхаткопар",
      "name_default": "Ghatkopar",
      "native": "घाटकोपर",
      "type": "adm1",
      "level": null,
      "parent_id": null,
      "population": 0,
      "latitude": "19.08000000",
      "longitude": "72.91000000",
      "timezone": "Asia/Kolkata",
      "wikiDataId": "Q3309774",
      "country_code": "IN",
      "state_code": "MH",
      "state_id": 4008,
      "country_id": 101
    },
    {
      "id": 131947,
      "name": "Гхоті Будрух",
      "name_default": "Ghoti Budrukh",
      "native": "घोटी बुद्रुख",
      "type": "city",
      "level": null,
      "parent_id": null,
      "population": 24838,
      "latitude": "19.71641000",
      "longitude": "73.62821000",
      "timezone": "Asia/Kolkata",
      "wikiDataId": "Q26789453",
      "country_code": "IN",
      "state_code": "MH",
      "state_id": 4008,
      "country_id": 101
    },
    {
      "id": 131948,
      "name": "Гугус",
      "name_default": "Ghugus",
      "native": "घुगुस",
      "type": "city",
      "level": null,
      "parent_id": null,
      "population": 32654,
      "latitude": "19.93810000",
      "longitude": "79.11192000",
      "timezone": "Asia/Kolkata",
      "wikiDataId": "Q1706933",
      "country_code": "IN",
      "state_code": "MH",
      "state_id": 4008,
      "country_id": 101
    },
    {
      "id": 147748,
      "name": "Гіргаон",
      "name_default": "Girgaon",
      "native": "गिरगांव",
      "type": "city",
      "level": null,
      "parent_id": null,
      "population": 0,
      "latitude": "18.95300000",
      "longitude": "72.81300000",
      "timezone": "Asia/Kolkata",
      "wikiDataId": "Q1931371",
      "country_code": "IN",
      "state_code": "MH",
      "state_id": 4008,
      "country_id": 101
    },
    {
      "id": 147749,
      "name": "Гондія",
      "name_default": "Gondia",
      "native": "गोंदिया",
      "type": "city",
      "level": null,
      "parent_id": null,
      "population": 6440,
      "latitude": "21.45000000",
      "longitude": "80.20000000",
      "timezone": "Asia/Kolkata",
      "wikiDataId": "Q1707857",
      "country_code": "IN",
      "state_code": "MH",
      "state_id": 4008,
      "country_id": 101
    },
    {
      "id": 147750,
      "name": "Горай",
      "name_default": "Gorai",
      "native": "गोराई",
      "type": "city",
      "level": null,
      "parent_id": null,
      "population": 29107,
      "latitude": "19.25005700",
      "longitude": "72.78202100",
      "timezone": "Asia/Kolkata",
      "wikiDataId": "Q4932603",
      "country_code": "IN",
      "state_code": "MH",
      "state_id": 4008,
      "country_id": 101
    },
    {
      "id": 131994,
      "name": "Горегаон",
      "name_default": "Goregaon",
      "native": "गोरेगांव",
      "type": "city",
      "level": null,
      "parent_id": null,
      "population": 7155,
      "latitude": "18.15483000",
      "longitude": "73.29147000",
      "timezone": "Asia/Kolkata",
      "wikiDataId": "Q3773513",
      "country_code": "IN",
      "state_code": "MH",
      "state_id": 4008,
      "country_id": 101
    },
    {
      "id": 132014,
      "name": "Гухагар",
      "name_default": "Guhagar",
      "native": "गुहागर",
      "type": "city",
      "level": null,
      "parent_id": null,
      "population": 3425,
      "latitude": "17.48415000",
      "longitude": "73.19289000",
      "timezone": "Asia/Kolkata",
      "wikiDataId": "Q1708334",
      "country_code": "IN",
      "state_code": "MH",
      "state_id": 4008,
      "country_id": 101
    },
    {
      "id": 147751,
      "name": "Хадапсар Пуне",
      "name_default": "Hadapsar Pune",
      "native": "हडपसर पुणे",
      "type": "city",
      "level": null,
      "parent_id": null,
      "population": null,
      "latitude": "18.49666667",
      "longitude": "73.94166667",
      "timezone": "Asia/Kolkata",
      "wikiDataId": "Q5637596",
      "country_code": "IN",
      "state_code": "MH",
      "state_id": 4008,
      "country_id": 101
    },
    {
      "id": 132054,
      "name": "Хадгаон",
      "name_default": "Hadgaon",
      "native": "हदगांव",
      "type": "city",
      "level": null,
      "parent_id": null,
      "population": 27433,
      "latitude": "19.49552000",
      "longitude": "77.65863000",
      "timezone": "Asia/Kolkata",
      "wikiDataId": "Q1708363",
      "country_code": "IN",
      "state_code": "MH",
      "state_id": 4008,
      "country_id": 101
    },
    {
      "id": 147752,
      "name": "Халкарні",
      "name_default": "Halkarni",
      "native": "हल्कर्णी",
      "type": "city",
      "level": null,
      "parent_id": null,
      "population": 0,
      "latitude": "16.16666667",
      "longitude": "74.46666667",
      "timezone": "Asia/Kolkata",
      "wikiDataId": "Q5642513",
      "country_code": "IN",
      "state_code": "MH",
      "state_id": 4008,
      "country_id": 101
    },
    {
      "id": 147753,
      "name": "Харангул",
      "name_default": "Harangul",
      "native": "हरंगुल",
      "type": "city",
      "level": null,
      "parent_id": null,
      "population": 0,
      "latitude": "18.90000000",
      "longitude": "76.66666667",
      "timezone": "Asia/Kolkata",
      "wikiDataId": "Q5654144",
      "country_code": "IN",
      "state_code": "MH",
      "state_id": 4008,
      "country_id": 101
    },
    {
      "id": 132078,
      "name": "Гарнай",
      "name_default": "Harnai",
      "native": "हरनाई",
      "type": "city",
      "level": null,
      "parent_id": null,
      "population": 7144,
      "latitude": "17.81340000",
      "longitude": "73.09668000",
      "timezone": "Asia/Kolkata",
      "wikiDataId": "Q1706366",
      "country_code": "IN",
      "state_code": "MH",
      "state_id": 4008,
      "country_id": 101
    },
    {
      "id": 147754,
      "name": "Хелвак",
      "name_default": "Helwak",
      "native": "हेलवाक",
      "type": "city",
      "level": null,
      "parent_id": null,
      "population": 0,
      "latitude": "17.38500000",
      "longitude": "73.73500000",
      "timezone": "Asia/Kolkata",
      "wikiDataId": "Q15223544",
      "country_code": "IN",
      "state_code": "MH",
      "state_id": 4008,
      "country_id": 101
    },
    {
      "id": 132100,
      "name": "Хінгангат",
      "name_default": "Hinganghat",
      "native": "हिंगणघाट",
      "type": "city",
      "level": null,
      "parent_id": null,
      "population": 101805,
      "latitude": "20.54875000",
      "longitude": "78.83978000",
      "timezone": "Asia/Kolkata",
      "wikiDataId": "Q762823",
      "country_code": "IN",
      "state_code": "MH",
      "state_id": 4008,
      "country_id": 101
    },
    {
      "id": 132101,
      "name": "Хінголі",
      "name_default": "Hingoli",
      "native": "हिंगोली",
      "type": "city",
      "level": null,
      "parent_id": null,
      "population": 85103,
      "latitude": "19.70000000",
      "longitude": "77.15000000",
      "timezone": "Asia/Kolkata",
      "wikiDataId": "Q1708167",
      "country_code": "IN",
      "state_code": "MH",
      "state_id": 4008,
      "country_id": 101
    },
    {
      "id": 147755,
      "name": "Хірапур",
      "name_default": "Hirapur",
      "native": "हीरापुर",
      "type": "city",
      "level": null,
      "parent_id": null,
      "population": 6069,
      "latitude": "21.53000000",
      "longitude": "79.77000000",
      "timezone": "Asia/Kolkata",
      "wikiDataId": "Q1707583",
      "country_code": "IN",
      "state_code": "MH",
      "state_id": 4008,
      "country_id": 101
    },
    {
      "id": 132149,
      "name": "Хірапур Хамеша",
      "name_default": "Hirapur Hamesha",
      "native": "हीरापुर हमेशा",
      "type": "city",
      "level": null,
      "parent_id": null,
      "population": 6069,
      "latitude": "21.55546000",
      "longitude": "79.78581000",
      "timezone": "Asia/Kolkata",
      "wikiDataId": "Q1707583",
      "country_code": "IN",
      "state_code": "MH",
      "state_id": 4008,
      "country_id": 101
    },
    {
      "id": 147756,
      "name": "Хотгі",
      "name_default": "Hotgi",
      "native": "होटगी",
      "type": "city",
      "level": null,
      "parent_id": null,
      "population": 0,
      "latitude": "17.58333333",
      "longitude": "75.98333333",
      "timezone": "Asia/Kolkata",
      "wikiDataId": "Q13122399",
      "country_code": "IN",
      "state_code": "MH",
      "state_id": 4008,
      "country_id": 101
    },
    {
      "id": 132150,
      "name": "Ічалакаранджі",
      "name_default": "Ichalkaranji",
      "native": "इचलकरंजी",
      "type": "city",
      "level": null,
      "parent_id": null,
      "population": 287570,
      "latitude": "16.69117000",
      "longitude": "74.46054000",
      "timezone": "Asia/Kolkata",
      "wikiDataId": "Q583818",
      "country_code": "IN",
      "state_code": "MH",
      "state_id": 4008,
      "country_id": 101
    },
    {
      "id": 132155,
      "name": "Ігатпурі",
      "name_default": "Igatpuri",
      "native": "इगतपुरी",
      "type": "city",
      "level": null,
      "parent_id": null,
      "population": 35461,
      "latitude": "19.69522000",
      "longitude": "73.56260000",
      "timezone": "Asia/Kolkata",
      "wikiDataId": "Q1756158",
      "country_code": "IN",
      "state_code": "MH",
      "state_id": 4008,
      "country_id": 101
    },
    {
      "id": 132168,
      "name": "Індапур",
      "name_default": "Indapur",
      "native": "इंदापुर",
      "type": "city",
      "level": null,
      "parent_id": null,
      "population": 25515,
      "latitude": "18.30000000",
      "longitude": "73.25000000",
      "timezone": "Asia/Kolkata",
      "wikiDataId": "Q1753960",
      "country_code": "IN",
      "state_code": "MH",
      "state_id": 4008,
      "country_id": 101
    },
    {
      "id": 132205,
      "name": "Джайсінгпур",
      "name_default": "Jaisingpur",
      "native": "जयसिंहपुर",
      "type": "city",
      "level": null,
      "parent_id": null,
      "population": 48510,
      "latitude": "16.77639000",
      "longitude": "74.55361000",
      "timezone": "Asia/Kolkata",
      "wikiDataId": "Q547588",
      "country_code": "IN",
      "state_code": "MH",
      "state_id": 4008,
      "country_id": 101
    },
    {
      "id": 147757,
      "name": "Джайтапур",
      "name_default": "Jaitapur",
      "native": "जैतापुर",
      "type": "city",
      "level": null,
      "parent_id": null,
      "population": 0,
      "latitude": "16.59000000",
      "longitude": "73.35000000",
      "timezone": "Asia/Kolkata",
      "wikiDataId": "Q3160598",
      "country_code": "IN",
      "state_code": "MH",
      "state_id": 4008,
      "country_id": 101
    },
    {
      "id": 147758,
      "name": "Джахангаон",
      "name_default": "Jakhangaon",
      "native": "जाखनगांव",
      "type": "city",
      "level": null,
      "parent_id": null,
      "population": 0,
      "latitude": "17.64639000",
      "longitude": "74.32111000",
      "timezone": "Asia/Kolkata",
      "wikiDataId": "Q6125136",
      "country_code": "IN",
      "state_code": "MH",
      "state_id": 4008,
      "country_id": 101
    },
    {
      "id": 132214,
      "name": "Джалгаон",
      "name_default": "Jalgaon",
      "native": "जलगांव",
      "type": "city",
      "level": null,
      "parent_id": null,
      "population": 460468,
      "latitude": "21.00292000",
      "longitude": "75.56602000",
      "timezone": "Asia/Kolkata",
      "wikiDataId": "Q30951",
      "country_code": "IN",
      "state_code": "MH",
      "state_id": 4008,
      "country_id": 101
    },
    {
      "id": 132215,
      "name": "Джалгаон Джамод",
      "name_default": "Jalgaon Jamod",
      "native": "जलगांव जामोद",
      "type": "city",
      "level": null,
      "parent_id": null,
      "population": 28276,
      "latitude": "21.05194000",
      "longitude": "76.53464000",
      "timezone": "Asia/Kolkata",
      "wikiDataId": "Q2016803",
      "country_code": "IN",
      "state_code": "MH",
      "state_id": 4008,
      "country_id": 101
    },
    {
      "id": 147759,
      "name": "Джалкот",
      "name_default": "Jalkot",
      "native": "जलकोट",
      "type": "city",
      "level": null,
      "parent_id": null,
      "population": 0,
      "latitude": "18.62916667",
      "longitude": "77.18111111",
      "timezone": "Asia/Kolkata",
      "wikiDataId": "Q6126876",
      "country_code": "IN",
      "state_code": "MH",
      "state_id": 4008,
      "country_id": 101
    },
    {
      "id": 132216,
      "name": "Джална",
      "name_default": "Jalna",
      "native": "जलना",
      "type": "city",
      "level": null,
      "parent_id": null,
      "population": 285577,
      "latitude": "19.80000000",
      "longitude": "75.90000000",
      "timezone": "Asia/Kolkata",
      "wikiDataId": "Q30771",
      "country_code": "IN",
      "state_code": "MH",
      "state_id": 4008,
      "country_id": 101
    },
    {
      "id": 147760,
      "name": "Джамхед",
      "name_default": "Jamkhed",
      "native": "जामखेड",
      "type": "city",
      "level": null,
      "parent_id": null,
      "population": 34017,
      "latitude": "18.72000000",
      "longitude": "75.32000000",
      "timezone": "Asia/Kolkata",
      "wikiDataId": "Q510832",
      "country_code": "IN",
      "state_code": "MH",
      "state_id": 4008,
      "country_id": 101
    },
    {
      "id": 147761,
      "name": "Джамод",
      "name_default": "Jamod",
      "native": "जामोद",
      "type": "city",
      "level": null,
      "parent_id": null,
      "population": 0,
      "latitude": "21.10000000",
      "longitude": "76.60000000",
      "timezone": "Asia/Kolkata",
      "wikiDataId": "Q6148130",
      "country_code": "IN",
      "state_code": "MH",
      "state_id": 4008,
      "country_id": 101
    },
    {
      "id": 147762,
      "name": "Джанефаль",
      "name_default": "Janephal",
      "native": "जनफेल",
      "type": "city",
      "level": null,
      "parent_id": null,
      "population": 2505,
      "latitude": "20.29361111",
      "longitude": "76.57583333",
      "timezone": "Asia/Kolkata",
      "wikiDataId": "Q15229313",
      "country_code": "IN",
      "state_code": "MH",
      "state_id": 4008,
      "country_id": 101
    },
    {
      "id": 147763,
      "name": "Джаолі",
      "name_default": "Jaoli",
      "native": "जौली",
      "type": "city",
      "level": null,
      "parent_id": null,
      "population": 0,
      "latitude": "17.90000000",
      "longitude": "76.40000000",
      "timezone": "Asia/Kolkata",
      "wikiDataId": "Q6156428",
      "country_code": "IN",
      "state_code": "MH",
      "state_id": 4008,
      "country_id": 101
    },
    {
      "id": 147764,
      "name": "Джат Санглі",
      "name_default": "Jat Sangli",
      "native": "जाट सांगली",
      "type": "city",
      "level": null,
      "parent_id": null,
      "population": null,
      "latitude": "17.05000000",
      "longitude": "75.21666667",
      "timezone": "Asia/Kolkata",
      "wikiDataId": "Q6164443",
      "country_code": "IN",
      "state_code": "MH",
      "state_id": 4008,
      "country_id": 101
    },
    {
      "id": 147765,
      "name": "Джатегаон",
      "name_default": "Jategaon",
      "native": "जटेगांव",
      "type": "city",
      "level": null,
      "parent_id": null,
      "population": 0,
      "latitude": "19.91666667",
      "longitude": "73.65000000",
      "timezone": "Asia/Kolkata",
      "wikiDataId": "Q6164539",
      "country_code": "IN",
      "state_code": "MH",
      "state_id": 4008,
      "country_id": 101
    },
    {
      "id": 132254,
      "name": "Джаухар",
      "name_default": "Jawhar",
      "native": "जवाहर",
      "type": "city",
      "level": null,
      "parent_id": null,
      "population": 12082,
      "latitude": "19.91213000",
      "longitude": "73.22679000",
      "timezone": "Asia/Kolkata",
      "wikiDataId": "Q2317504",
      "country_code": "IN",
      "state_code": "MH",
      "state_id": 4008,
      "country_id": 101
    },
    {
      "id": 147766,
      "name": "Джайсінгпур",
      "name_default": "Jaysingpur",
      "native": "जयसिंहपुर",
      "type": "city",
      "level": null,
      "parent_id": null,
      "population": 601214,
      "latitude": "16.78350556",
      "longitude": "74.56644167",
      "timezone": "Asia/Kolkata",
      "wikiDataId": "Q547588",
      "country_code": "IN",
      "state_code": "MH",
      "state_id": 4008,
      "country_id": 101
    },
    {
      "id": 132260,
      "name": "Джеджурі",
      "name_default": "Jejuri",
      "native": "जेजुरी",
      "type": "city",
      "level": null,
      "parent_id": null,
      "population": 14515,
      "latitude": "18.27658000",
      "longitude": "74.16008000",
      "timezone": "Asia/Kolkata",
      "wikiDataId": "Q1755879",
      "country_code": "IN",
      "state_code": "MH",
      "state_id": 4008,
      "country_id": 101
    },
    {
      "id": 132282,
      "name": "Джинтур",
      "name_default": "Jintur",
      "native": "जिंतूर",
      "type": "city",
      "level": null,
      "parent_id": null,
      "population": 44291,
      "latitude": "19.61186000",
      "longitude": "76.68740000",
      "timezone": "Asia/Kolkata",
      "wikiDataId": "Q2444446",
      "country_code": "IN",
      "state_code": "MH",
      "state_id": 4008,
      "country_id": 101
    },
    {
      "id": 147767,
      "name": "Джогешварі",
      "name_default": "Jogeshwari",
      "native": "जोगेश्वरी",
      "type": "city",
      "level": null,
      "parent_id": null,
      "population": 0,
      "latitude": "19.12000000",
      "longitude": "72.85000000",
      "timezone": "Asia/Kolkata",
      "wikiDataId": "Q5456464",
      "country_code": "IN",
      "state_code": "MH",
      "state_id": 4008,
      "country_id": 101
    },
    {
      "id": 147768,
      "name": "Джуху",
      "name_default": "Juhu",
      "native": "जुहू",
      "type": "city",
      "level": null,
      "parent_id": null,
      "population": 0,
      "latitude": "19.10702150",
      "longitude": "72.82752750",
      "timezone": "Asia/Kolkata",
      "wikiDataId": "Q674362",
      "country_code": "IN",
      "state_code": "MH",
      "state_id": 4008,
      "country_id": 101
    },
    {
      "id": 132301,
      "name": "Джуннар",
      "name_default": "Junnar",
      "native": "जुन्नर",
      "type": "city",
      "level": null,
      "parent_id": null,
      "population": 25997,
      "latitude": "19.20815000",
      "longitude": "73.87520000",
      "timezone": "Asia/Kolkata",
      "wikiDataId": "Q2445461",
      "country_code": "IN",
      "state_code": "MH",
      "state_id": 4008,
      "country_id": 101
    },
    {
      "id": 147769,
      "name": "Качурвахі",
      "name_default": "Kachurwahi",
      "native": "कचुरवाही",
      "type": "city",
      "level": null,
      "parent_id": null,
      "population": 0,
      "latitude": "21.33330000",
      "longitude": "79.38330000",
      "timezone": "Asia/Kolkata",
      "wikiDataId": "Q6344728",
      "country_code": "IN",
      "state_code": "MH",
      "state_id": 4008,
      "country_id": 101
    },
    {
      "id": 147770,
      "name": "Кадегаон",
      "name_default": "Kadegaon",
      "native": "कडेगांव",
      "type": "city",
      "level": null,
      "parent_id": null,
      "population": 0,
      "latitude": "17.30000000",
      "longitude": "74.35000000",
      "timezone": "Asia/Kolkata",
      "wikiDataId": "Q13640586",
      "country_code": "IN",
      "state_code": "MH",
      "state_id": 4008,
      "country_id": 101
    },
    {
      "id": 147771,
      "name": "Кадус",
      "name_default": "Kadus",
      "native": "कडुस",
      "type": "section",
      "level": null,
      "parent_id": null,
      "population": 0,
      "latitude": "18.88333333",
      "longitude": "73.81666667",
      "timezone": "Asia/Kolkata",
      "wikiDataId": "Q6345782",
      "country_code": "IN",
      "state_code": "MH",
      "state_id": 4008,
      "country_id": 101
    },
    {
      "id": 132677,
      "name": "Кагал",
      "name_default": "Kagal",
      "native": "कागल",
      "type": "city",
      "level": null,
      "parent_id": null,
      "population": 34106,
      "latitude": "16.57702000",
      "longitude": "74.31544000",
      "timezone": "Asia/Kolkata",
      "wikiDataId": "Q2442675",
      "country_code": "IN",
      "state_code": "MH",
      "state_id": 4008,
      "country_id": 101
    },
    {
      "id": 147772,
      "name": "Кайдж",
      "name_default": "Kaij",
      "native": "कैज",
      "type": "city",
      "level": null,
      "parent_id": null,
      "population": 30704,
      "latitude": "18.70000000",
      "longitude": "76.08333333",
      "timezone": "Asia/Kolkata",
      "wikiDataId": "Q6347714",
      "country_code": "IN",
      "state_code": "MH",
      "state_id": 4008,
      "country_id": 101
    },
    {
      "id": 132345,
      "name": "Каламба",
      "name_default": "Kalamb",
      "native": "कलंब",
      "type": "city",
      "level": null,
      "parent_id": null,
      "population": 27287,
      "latitude": "19.04437000",
      "longitude": "73.95554000",
      "timezone": "Asia/Kolkata",
      "wikiDataId": "Q3812558",
      "country_code": "IN",
      "state_code": "MH",
      "state_id": 4008,
      "country_id": 101
    },
    {
      "id": 147773,
      "name": "Каламб Османабад",
      "name_default": "Kalamb Osmanabad",
      "native": "कलंब उस्मानाबाद",
      "type": "adm3",
      "level": null,
      "parent_id": null,
      "population": null,
      "latitude": "18.57416667",
      "longitude": "76.02166667",
      "timezone": "Asia/Kolkata",
      "wikiDataId": "Q3812558",
      "country_code": "IN",
      "state_code": "MH",
      "state_id": 4008,
      "country_id": 101
    },
    {
      "id": 147774,
      "name": "Каламболі",
      "name_default": "Kalamboli",
      "native": "कलंबोली",
      "type": "city",
      "level": null,
      "parent_id": null,
      "population": 7341,
      "latitude": "19.03333000",
      "longitude": "73.10000000",
      "timezone": "Asia/Kolkata",
      "wikiDataId": "Q5457414",
      "country_code": "IN",
      "state_code": "MH",
      "state_id": 4008,
      "country_id": 101
    },
    {
      "id": 132346,
      "name": "Каламнурі",
      "name_default": "Kalamnuri",
      "native": "कलमनुरी",
      "type": "city",
      "level": null,
      "parent_id": null,
      "population": 24784,
      "latitude": "19.67386000",
      "longitude": "77.31149000",
      "timezone": "Asia/Kolkata",
      "wikiDataId": "Q2442616",
      "country_code": "IN",
      "state_code": "MH",
      "state_id": 4008,
      "country_id": 101
    },
    {
      "id": 132348,
      "name": "Калас",
      "name_default": "Kalas",
      "native": "कलास",
      "type": "city",
      "level": null,
      "parent_id": null,
      "population": 14858,
      "latitude": "18.17241000",
      "longitude": "74.79045000",
      "timezone": "Asia/Kolkata",
      "wikiDataId": "Q2625405",
      "country_code": "IN",
      "state_code": "MH",
      "state_id": 4008,
      "country_id": 101
    },
    {
      "id": 147775,
      "name": "Калі (ДК)",
      "name_default": "Kali(DK)",
      "native": "काली(डीके)",
      "type": "city",
      "level": null,
      "parent_id": null,
      "population": 0,
      "latitude": "19.93877800",
      "longitude": "77.73285700",
      "timezone": "Asia/Kolkata",
      "wikiDataId": "Q6352372",
      "country_code": "IN",
      "state_code": "MH",
      "state_id": 4008,
      "country_id": 101
    },
    {
      "id": 132355,
      "name": "Калмешвар",
      "name_default": "Kalmeshwar",
      "native": "कलमेश्वर",
      "type": "city",
      "level": null,
      "parent_id": null,
      "population": 19578,
      "latitude": "21.23219000",
      "longitude": "78.91988000",
      "timezone": "Asia/Kolkata",
      "wikiDataId": "Q26788279",
      "country_code": "IN",
      "state_code": "MH",
      "state_id": 4008,
      "country_id": 101
    },
    {
      "id": 132684,
      "name": "Калундрі",
      "name_default": "Kalundri",
      "native": "कालुंद्री",
      "type": "city",
      "level": null,
      "parent_id": null,
      "population": 8101,
      "latitude": "18.98020000",
      "longitude": "73.12708000",
      "timezone": "Asia/Kolkata",
      "wikiDataId": "Q2281643",
      "country_code": "IN",
      "state_code": "MH",
      "state_id": 4008,
      "country_id": 101
    },
    {
      "id": 132359,
      "name": "Кальян",
      "name_default": "Kalyan",
      "native": "कल्याण",
      "type": "city",
      "level": null,
      "parent_id": null,
      "population": 1262255,
      "latitude": "19.24370000",
      "longitude": "73.13554000",
      "timezone": "Asia/Kolkata",
      "wikiDataId": "Q366754",
      "country_code": "IN",
      "state_code": "MH",
      "state_id": 4008,
      "country_id": 101
    },
    {
      "id": 147776,
      "name": "Кальяні Нагар",
      "name_default": "Kalyani Nagar",
      "native": "कल्याणी नगर",
      "type": "city",
      "level": null,
      "parent_id": null,
      "population": 0,
      "latitude": "18.54810000",
      "longitude": "73.90330000",
      "timezone": "Asia/Kolkata",
      "wikiDataId": "Q6354979",
      "country_code": "IN",
      "state_code": "MH",
      "state_id": 4008,
      "country_id": 101
    },
    {
      "id": 147777,
      "name": "Камаргаон",
      "name_default": "Kamargaon",
      "native": "कमरगांव",
      "type": "city",
      "level": null,
      "parent_id": null,
      "population": 0,
      "latitude": "20.61666667",
      "longitude": "77.50000000",
      "timezone": "Asia/Kolkata",
      "wikiDataId": "Q6356028",
      "country_code": "IN",
      "state_code": "MH",
      "state_id": 4008,
      "country_id": 101
    },
    {
      "id": 147778,
      "name": "Каматгі",
      "name_default": "Kamatgi",
      "native": "कामतगी",
      "type": "city",
      "level": null,
      "parent_id": null,
      "population": 15620,
      "latitude": "16.11900000",
      "longitude": "75.84820000",
      "timezone": "Asia/Kolkata",
      "wikiDataId": "Q6356167",
      "country_code": "IN",
      "state_code": "MH",
      "state_id": 4008,
      "country_id": 101
    },
    {
      "id": 147779,
      "name": "Кампті",
      "name_default": "Kamptee",
      "native": "कैम्पटी",
      "type": "city",
      "level": null,
      "parent_id": null,
      "population": 86793,
      "latitude": "21.23330000",
      "longitude": "79.20000000",
      "timezone": "Asia/Kolkata",
      "wikiDataId": "Q2283184",
      "country_code": "IN",
      "state_code": "MH",
      "state_id": 4008,
      "country_id": 101
    },
    {
      "id": 132700,
      "name": "Кандрі",
      "name_default": "Kandri",
      "native": "कंदरी",
      "type": "city",
      "level": null,
      "parent_id": null,
      "population": 8315,
      "latitude": "21.42030000",
      "longitude": "79.27663000",
      "timezone": "Asia/Kolkata",
      "wikiDataId": "Q520995",
      "country_code": "IN",
      "state_code": "MH",
      "state_id": 4008,
      "country_id": 101
    },
    {
      "id": 132375,
      "name": "Канкаулі",
      "name_default": "Kankauli",
      "native": "कंकौली",
      "type": "city",
      "level": null,
      "parent_id": null,
      "population": 16398,
      "latitude": "16.26609000",
      "longitude": "73.71217000",
      "timezone": "Asia/Kolkata",
      "wikiDataId": "Q2549200",
      "country_code": "IN",
      "state_code": "MH",
      "state_id": 4008,
      "country_id": 101
    },