{
  "locale": "ru",
  "country": {
    "id": 172,
    "code": "PY",
    "iso3": "PRY",
    "numeric_code": "600",
    "name": "Парагвай",
    "name_default": "Paraguay",
    "native": "Paraguay",
    "capital": "Asunción",
    "phonecode": "595",
    "currency": "PYG",
    "currency_name": "Paraguayan guarani",
    "currency_symbol": "₲",
    "tld": ".py",
    "population": 6109644,
    "gdp": 45465,
    "region": "Americas",
    "region_id": 2,
    "subregion": "South America",
    "subregion_id": 8,
    "nationality": "Paraguayan",
    "timezones": [
      {
        "zoneName": "America/Asuncion",
        "gmtOffset": -10800,
        "gmtOffsetName": "UTC-03:00",
        "abbreviation": "PYST",
        "tzName": "Paraguay Summer Time"
      }
    ],
    "latitude": "-23.00000000",
    "longitude": "-58.00000000",
    "emoji": "🇵🇾",
    "emojiU": "U+1F1F5 U+1F1FE"
  },
  "state": {
    "id": 2774,
    "code": "9",
    "iso2": "9",
    "iso3166_2": "PY-9",
    "fips_code": "15",
    "name": "Парагуари",
    "name_default": "Paraguarí",
    "native": "Paraguarí",
    "type": "department",
    "level": null,
    "parent_id": null,
    "population": 22154,
    "latitude": "-25.62621740",
    "longitude": "-57.15206420",
    "timezone": "America/Asuncion",
    "wikiDataId": "Q240014",
    "country_code": "PY"
  },
  "cities": [
    {
      "id": 89717,
      "name": "Акахай",
      "name_default": "Acahay",
      "native": "Acahay",
      "type": "adm1",
      "level": null,
      "parent_id": null,
      "population": 3205,
      "latitude": "-25.91667000",
      "longitude": "-57.15000000",
      "timezone": "America/Asuncion",
      "wikiDataId": "Q926511",
      "country_code": "PY",
      "state_code": "9",
      "state_id": 2774,
      "country_id": 172
    },
    {
      "id": 89731,
      "name": "Каапукю",
      "name_default": "Caapucú",
      "native": "Caapuč",
      "type": "city",
      "level": null,
      "parent_id": null,
      "population": 2284,
      "latitude": "-26.23523000",
      "longitude": "-57.18212000",
      "timezone": "America/Asuncion",
      "wikiDataId": "Q2410335",
      "country_code": "PY",
      "state_code": "9",
      "state_id": 2774,
      "country_id": 172
    },
    {
      "id": 89739,
      "name": "Карапегуа",
      "name_default": "Carapeguá",
      "native": "Carapguá",
      "type": "city",
      "level": null,
      "parent_id": null,
      "population": 5784,
      "latitude": "-25.80000000",
      "longitude": "-57.23333000",
      "timezone": "America/Asuncion",
      "wikiDataId": "Q17564711",
      "country_code": "PY",
      "state_code": "9",
      "state_id": 2774,
      "country_id": 172
    },
    {
      "id": 89789,
      "name": "Ла Кольмена",
      "name_default": "La Colmena",
      "native": "La Colmena",
      "type": "city",
      "level": null,
      "parent_id": null,
      "population": 2551,
      "latitude": "-25.88627000",
      "longitude": "-56.84084000",
      "timezone": "America/Asuncion",
      "wikiDataId": "Q1988977",
      "country_code": "PY",
      "state_code": "9",
      "state_id": 2774,
      "country_id": 172
    },
    {
      "id": 89797,
      "name": "Мбуяпей",
      "name_default": "Mbuyapey",
      "native": "Mbuyapey",
      "type": "city",
      "level": null,
      "parent_id": null,
      "population": 2201,
      "latitude": "-26.21921000",
      "longitude": "-56.75777000",
      "timezone": "America/Asuncion",
      "wikiDataId": "Q2410379",
      "country_code": "PY",
      "state_code": "9",
      "state_id": 2774,
      "country_id": 172
    },
    {
      "id": 89806,
      "name": "Парагуари",
      "name_default": "Paraguarí",
      "native": "Paraguarí",
      "type": "adm1",
      "level": null,
      "parent_id": null,
      "population": 10079,
      "latitude": "-25.62083000",
      "longitude": "-57.14722000",
      "timezone": "America/Asuncion",
      "wikiDataId": "Q541522",
      "country_code": "PY",
      "state_code": "9",
      "state_id": 2774,
      "country_id": 172
    },
    {
      "id": 89810,
      "name": "Пираю",
      "name_default": "Pirayú",
      "native": "Pirayú",
      "type": "city",
      "level": null,
      "parent_id": null,
      "population": 4000,
      "latitude": "-25.48406000",
      "longitude": "-57.23490000",
      "timezone": "America/Asuncion",
      "wikiDataId": "Q135970",
      "country_code": "PY",
      "state_code": "9",
      "state_id": 2774,
      "country_id": 172
    },
    {
      "id": 89815,
      "name": "Куинди",
      "name_default": "Quiindy",
      "native": "Quiindy",
      "type": "city",
      "level": null,
      "parent_id": null,
      "population": 5137,
      "latitude": "-25.97606000",
      "longitude": "-57.23353000",
      "timezone": "America/Asuncion",
      "wikiDataId": "Q135970",
      "country_code": "PY",
      "state_code": "9",
      "state_id": 2774,
      "country_id": 172
    },
    {
      "id": 89838,
      "name": "Сапукаи",
      "name_default": "Sapucaí",
      "native": "Sapucaí",
      "type": "adm2",
      "level": null,
      "parent_id": null,
      "population": 1932,
      "latitude": "-25.66652000",
      "longitude": "-56.95215000",
      "timezone": "America/Asuncion",
      "wikiDataId": "Q1751103",
      "country_code": "PY",
      "state_code": "9",
      "state_id": 2774,
      "country_id": 172
    },
    {
      "id": 89847,
      "name": "Ягуарон",
      "name_default": "Yaguarón",
      "native": "Yaguarón",
      "type": "city",
      "level": null,
      "parent_id": null,
      "population": 7181,
      "latitude": "-25.56139000",
      "longitude": "-57.28343000",
      "timezone": "America/Asuncion",
      "wikiDataId": "Q2638696",
      "country_code": "PY",
      "state_code": "9",
      "state_id": 2774,
      "country_id": 172
    },
    {
      "id": 89849,
      "name": "Ybycuí",
      "name_default": "Ybycuí",
      "native": "Ybycuí",
      "type": "city",
      "level": null,
      "parent_id": null,
      "population": 4629,
      "latitude": "-26.01667000",
      "longitude": "-57.05000000",
      "timezone": "America/Asuncion",
      "wikiDataId": "Q2410864",
      "country_code": "PY",
      "state_code": "9",
      "state_id": 2774,
      "country_id": 172
    }
  ]
}
