{
  "locale": "uk",
  "country": {
    "id": 64,
    "code": "EC",
    "iso3": "ECU",
    "numeric_code": "218",
    "name": "Еквадор",
    "name_default": "Ecuador",
    "native": "Ecuador",
    "capital": "Quito",
    "phonecode": "593",
    "currency": "USD",
    "currency_name": "United States dollar",
    "currency_symbol": "$",
    "tld": ".ec",
    "population": 18103660,
    "gdp": 125677,
    "region": "Americas",
    "region_id": 2,
    "subregion": "South America",
    "subregion_id": 8,
    "nationality": "Ecuadorian",
    "timezones": [
      {
        "zoneName": "America/Guayaquil",
        "gmtOffset": -18000,
        "gmtOffsetName": "UTC-05:00",
        "abbreviation": "ECT",
        "tzName": "Ecuador Time"
      },
      {
        "zoneName": "Pacific/Galapagos",
        "gmtOffset": -21600,
        "gmtOffsetName": "UTC-06:00",
        "abbreviation": "GALT",
        "tzName": "Galápagos Time"
      }
    ],
    "latitude": "-2.00000000",
    "longitude": "-77.50000000",
    "emoji": "🇪🇨",
    "emojiU": "U+1F1EA U+1F1E8"
  },
  "state": {
    "id": 2913,
    "code": "M",
    "iso2": "M",
    "iso3166_2": "EC-M",
    "fips_code": "14",
    "name": "Манабі",
    "name_default": "Manabí",
    "native": "Manabí",
    "type": "province",
    "level": null,
    "parent_id": null,
    "population": null,
    "latitude": "-0.75880250",
    "longitude": "-80.06121310",
    "timezone": "America/Guayaquil",
    "wikiDataId": "Q504666",
    "country_code": "EC"
  },
  "cities": [
    {
      "id": 31486,
      "name": "Баїя-де-Каракес",
      "name_default": "Bahía de Caráquez",
      "native": "Bahía de Caráquez",
      "type": "adm2",
      "level": null,
      "parent_id": null,
      "population": 37056,
      "latitude": "-0.59792000",
      "longitude": "-80.42367000",
      "timezone": "America/Guayaquil",
      "wikiDataId": "Q2749246",
      "country_code": "EC",
      "state_code": "M",
      "state_id": 2913,
      "country_id": 64
    },
    {
      "id": 31491,
      "name": "Кальцета",
      "name_default": "Calceta",
      "native": "Cero",
      "type": "city",
      "level": null,
      "parent_id": null,
      "population": 20011,
      "latitude": "-0.84582000",
      "longitude": "-80.16389000",
      "timezone": "America/Guayaquil",
      "wikiDataId": "Q5018764",
      "country_code": "EC",
      "state_code": "M",
      "state_id": 2913,
      "country_id": 64
    },
    {
      "id": 31492,
      "name": "Кантон Портов'єхо",
      "name_default": "Cantón Portoviejo",
      "native": "Cantón Portoviejo",
      "type": "adm1",
      "level": null,
      "parent_id": null,
      "population": 321800,
      "latitude": "-1.05000000",
      "longitude": "-80.45000000",
      "timezone": "America/Guayaquil",
      "wikiDataId": "Q617905",
      "country_code": "EC",
      "state_code": "M",
      "state_id": 2913,
      "country_id": 64
    },
    {
      "id": 31497,
      "name": "Чоне",
      "name_default": "Chone",
      "native": "Chone",
      "type": "adm2",
      "level": null,
      "parent_id": null,
      "population": 54629,
      "latitude": "-0.69819000",
      "longitude": "-80.09361000",
      "timezone": "America/Guayaquil",
      "wikiDataId": "Q2756591",
      "country_code": "EC",
      "state_code": "M",
      "state_id": 2913,
      "country_id": 64
    },
    {
      "id": 31514,
      "name": "Хіпіхапа",
      "name_default": "Jipijapa",
      "native": "Jipijapa",
      "type": "adm2",
      "level": null,
      "parent_id": null,
      "population": 35901,
      "latitude": "-1.34872000",
      "longitude": "-80.57875000",
      "timezone": "America/Guayaquil",
      "wikiDataId": "Q11249733",
      "country_code": "EC",
      "state_code": "M",
      "state_id": 2913,
      "country_id": 64
    },
    {
      "id": 31515,
      "name": "Хунін",
      "name_default": "Junín",
      "native": "Junín",
      "type": "city",
      "level": null,
      "parent_id": null,
      "population": 9128,
      "latitude": "-0.92777000",
      "longitude": "-80.20583000",
      "timezone": "America/Guayaquil",
      "wikiDataId": "Q13189564",
      "country_code": "EC",
      "state_code": "M",
      "state_id": 2913,
      "country_id": 64
    },
    {
      "id": 31527,
      "name": "Манта",
      "name_default": "Manta",
      "native": "Manta",
      "type": "adm2",
      "level": null,
      "parent_id": null,
      "population": 258697,
      "latitude": "-0.96212000",
      "longitude": "-80.71271000",
      "timezone": "America/Guayaquil",
      "wikiDataId": "Q990738",
      "country_code": "EC",
      "state_code": "M",
      "state_id": 2913,
      "country_id": 64
    },
    {
      "id": 31530,
      "name": "Монтекрісті",
      "name_default": "Montecristi",
      "native": "Montecristi",
      "type": "city",
      "level": null,
      "parent_id": null,
      "population": 18351,
      "latitude": "-1.04576000",
      "longitude": "-80.65889000",
      "timezone": "America/Guayaquil",
      "wikiDataId": "Q1014493",
      "country_code": "EC",
      "state_code": "M",
      "state_id": 2913,
      "country_id": 64
    },
    {
      "id": 31537,
      "name": "Пахан",
      "name_default": "Paján",
      "native": "Paján",
      "type": "adm2",
      "level": null,
      "parent_id": null,
      "population": 9183,
      "latitude": "-1.55238000",
      "longitude": "-80.42958000",
      "timezone": "America/Guayaquil",
      "wikiDataId": "Q7125333",
      "country_code": "EC",
      "state_code": "M",
      "state_id": 2913,
      "country_id": 64
    },
    {
      "id": 31543,
      "name": "Педерналес",
      "name_default": "Pedernales",
      "native": "Pedernales",
      "type": "adm2",
      "level": null,
      "parent_id": null,
      "population": 5983,
      "latitude": "0.07167000",
      "longitude": "-80.05250000",
      "timezone": "America/Guayaquil",
      "wikiDataId": "Q23858165",
      "country_code": "EC",
      "state_code": "M",
      "state_id": 2913,
      "country_id": 64
    },
    {
      "id": 31550,
      "name": "Портов'єхо",
      "name_default": "Portoviejo",
      "native": "Portoviejo",
      "type": "adm1",
      "level": null,
      "parent_id": null,
      "population": 321800,
      "latitude": "-1.05458000",
      "longitude": "-80.45445000",
      "timezone": "America/Guayaquil",
      "wikiDataId": "Q990716",
      "country_code": "EC",
      "state_code": "M",
      "state_id": 2913,
      "country_id": 64
    },
    {
      "id": 31563,
      "name": "Рокафуерте",
      "name_default": "Rocafuerte",
      "native": "Rocafuerte",
      "type": "adm2",
      "level": null,
      "parent_id": null,
      "population": 10274,
      "latitude": "-0.92360000",
      "longitude": "-80.44946000",
      "timezone": "America/Guayaquil",
      "wikiDataId": "Q7846193",
      "country_code": "EC",
      "state_code": "M",
      "state_id": 2913,
      "country_id": 64
    },
    {
      "id": 31571,
      "name": "Сан-Вісенте",
      "name_default": "San Vicente",
      "native": "San Vicente",
      "type": "adm2",
      "level": null,
      "parent_id": null,
      "population": 0,
      "latitude": "-0.60435000",
      "longitude": "-80.40267000",
      "timezone": "America/Guayaquil",
      "wikiDataId": "Q2198509",
      "country_code": "EC",
      "state_code": "M",
      "state_id": 2913,
      "country_id": 64
    },
    {
      "id": 31573,
      "name": "Санта-Ана",
      "name_default": "Santa Ana",
      "native": "Santa Ana",
      "type": "adm3",
      "level": null,
      "parent_id": null,
      "population": 12833,
      "latitude": "-1.20726000",
      "longitude": "-80.37132000",
      "timezone": "America/Guayaquil",
      "wikiDataId": "Q23871398",
      "country_code": "EC",
      "state_code": "M",
      "state_id": 2913,
      "country_id": 64
    },
    {
      "id": 31579,
      "name": "Сукре",
      "name_default": "Sucre",
      "native": "Sucre",
      "type": "adm2",
      "level": null,
      "parent_id": null,
      "population": 15286,
      "latitude": "-1.27974000",
      "longitude": "-80.41885000",
      "timezone": "America/Guayaquil",
      "wikiDataId": "Q7633158",
      "country_code": "EC",
      "state_code": "M",
      "state_id": 2913,
      "country_id": 64
    },
    {
      "id": 31582,
      "name": "Тосагуа",
      "name_default": "Tosagua",
      "native": "Tosagua",
      "type": "adm2",
      "level": null,
      "parent_id": null,
      "population": 14680,
      "latitude": "-0.78679000",
      "longitude": "-80.23473000",
      "timezone": "America/Guayaquil",
      "wikiDataId": "Q5835883",
      "country_code": "EC",
      "state_code": "M",
      "state_id": 2913,
      "country_id": 64
    }
  ]
}
