{
  "locale": "ko",
  "country": {
    "id": 213,
    "code": "SE",
    "iso3": "SWE",
    "numeric_code": "752",
    "name": "스웨덴",
    "name_default": "Sweden",
    "native": "Sverige",
    "capital": "Stockholm",
    "phonecode": "46",
    "currency": "SEK",
    "currency_name": "Swedish krona",
    "currency_symbol": "ko",
    "tld": ".se",
    "population": 10596652,
    "gdp": 620297,
    "region": "Europe",
    "region_id": 4,
    "subregion": "Northern Europe",
    "subregion_id": 18,
    "nationality": "Swedish",
    "timezones": [
      {
        "zoneName": "Europe/Stockholm",
        "gmtOffset": 3600,
        "gmtOffsetName": "UTC+01:00",
        "abbreviation": "CET",
        "tzName": "Central European Time"
      }
    ],
    "latitude": "62.00000000",
    "longitude": "15.00000000",
    "emoji": "🇸🇪",
    "emojiU": "U+1F1F8 U+1F1EA"
  },
  "state": {
    "id": 1541,
    "code": "M",
    "iso2": "M",
    "iso3166_2": "SE-M",
    "fips_code": "27",
    "name": "스코네",
    "name_default": "Skåne",
    "native": "Skåne",
    "type": "county",
    "level": null,
    "parent_id": null,
    "population": 1418496,
    "latitude": "55.84794160",
    "longitude": "13.63371170",
    "timezone": "Europe/Stockholm",
    "wikiDataId": "Q103659",
    "country_code": "SE"
  },
  "cities": [
    {
      "id": 104000,
      "name": "아후스",
      "name_default": "Åhus",
      "native": "Åhus",
      "type": "city",
      "level": null,
      "parent_id": null,
      "population": 10877,
      "latitude": "55.91667000",
      "longitude": "14.28333000",
      "timezone": "Europe/Stockholm",
      "wikiDataId": "Q127419",
      "country_code": "SE",
      "state_code": "M",
      "state_id": 1541,
      "country_id": 213
    },
    {
      "id": 104002,
      "name": "아카르프",
      "name_default": "Åkarp",
      "native": "Åkarp",
      "type": "city",
      "level": null,
      "parent_id": null,
      "population": 6394,
      "latitude": "55.65396000",
      "longitude": "13.11107000",
      "timezone": "Europe/Stockholm",
      "wikiDataId": "Q2402092",
      "country_code": "SE",
      "state_code": "M",
      "state_id": 1541,
      "country_id": 213
    },
    {
      "id": 102998,
      "name": "안데르슬뢰브",
      "name_default": "Anderslöv",
      "native": "Anderslöv",
      "type": "city",
      "level": null,
      "parent_id": null,
      "population": 2023,
      "latitude": "55.43836000",
      "longitude": "13.31966000",
      "timezone": "Europe/Stockholm",
      "wikiDataId": "Q2767924",
      "country_code": "SE",
      "state_code": "M",
      "state_id": 1541,
      "country_id": 213
    },
    {
      "id": 103996,
      "name": "엥겔홀름",
      "name_default": "Ängelholm",
      "native": "Ängelholm",
      "type": "adm2",
      "level": null,
      "parent_id": null,
      "population": 23240,
      "latitude": "56.24280000",
      "longitude": "12.86219000",
      "timezone": "Europe/Stockholm",
      "wikiDataId": "Q54755",
      "country_code": "SE",
      "state_code": "M",
      "state_id": 1541,
      "country_id": 213
    },
    {
      "id": 103012,
      "name": "아를뢰브",
      "name_default": "Arlöv",
      "native": "Arlöv",
      "type": "adm2",
      "level": null,
      "parent_id": null,
      "population": 9108,
      "latitude": "55.63248000",
      "longitude": "13.07141000",
      "timezone": "Europe/Stockholm",
      "wikiDataId": "Q676026",
      "country_code": "SE",
      "state_code": "M",
      "state_id": 1541,
      "country_id": 213
    },
    {
      "id": 103021,
      "name": "아스문트토르프",
      "name_default": "Asmundtorp",
      "native": "Asmundtorp",
      "type": "city",
      "level": null,
      "parent_id": null,
      "population": 1679,
      "latitude": "55.88333000",
      "longitude": "12.93333000",
      "timezone": "Europe/Stockholm",
      "wikiDataId": "Q2599513",
      "country_code": "SE",
      "state_code": "M",
      "state_id": 1541,
      "country_id": 213
    },
    {
      "id": 104021,
      "name": "아스토프",
      "name_default": "Åstorp",
      "native": "Åstorp",
      "type": "adm2",
      "level": null,
      "parent_id": null,
      "population": 10063,
      "latitude": "56.13566000",
      "longitude": "12.94430000",
      "timezone": "Europe/Stockholm",
      "wikiDataId": "Q271299",
      "country_code": "SE",
      "state_code": "M",
      "state_id": 1541,
      "country_id": 213
    },
    {
      "id": 103028,
      "name": "바라",
      "name_default": "Bara",
      "native": "Bara",
      "type": "city",
      "level": null,
      "parent_id": null,
      "population": 4656,
      "latitude": "55.58155000",
      "longitude": "13.17862000",
      "timezone": "Europe/Stockholm",
      "wikiDataId": "Q1185188",
      "country_code": "SE",
      "state_code": "M",
      "state_id": 1541,
      "country_id": 213
    },
    {
      "id": 103104,
      "name": "바르슬뢰브",
      "name_default": "Bårslöv",
      "native": "Bårslöv",
      "type": "city",
      "level": null,
      "parent_id": null,
      "population": 2774,
      "latitude": "56.00910000",
      "longitude": "12.80580000",
      "timezone": "Europe/Stockholm",
      "wikiDataId": "Q1756003",
      "country_code": "SE",
      "state_code": "M",
      "state_id": 1541,
      "country_id": 213
    },
    {
      "id": 103105,
      "name": "바스타드",
      "name_default": "Båstad",
      "native": "Båstad",
      "type": "adm2",
      "level": null,
      "parent_id": null,
      "population": 5146,
      "latitude": "56.42689000",
      "longitude": "12.85339000",
      "timezone": "Europe/Stockholm",
      "wikiDataId": "Q1756003",
      "country_code": "SE",
      "state_code": "M",
      "state_id": 1541,
      "country_id": 213
    },
    {
      "id": 103041,
      "name": "빌레베르가",
      "name_default": "Billeberga",
      "native": "Billeberga",
      "type": "city",
      "level": null,
      "parent_id": null,
      "population": 1053,
      "latitude": "55.88333000",
      "longitude": "13.00000000",
      "timezone": "Europe/Stockholm",
      "wikiDataId": "Q1950376",
      "country_code": "SE",
      "state_code": "M",
      "state_id": 1541,
      "country_id": 213
    },
    {
      "id": 103042,
      "name": "빌레스홀름",
      "name_default": "Billesholm",
      "native": "Billesholm",
      "type": "city",
      "level": null,
      "parent_id": null,
      "population": 2910,
      "latitude": "56.05000000",
      "longitude": "13.00000000",
      "timezone": "Europe/Stockholm",
      "wikiDataId": "Q2266991",
      "country_code": "SE",
      "state_code": "M",
      "state_id": 1541,
      "country_id": 213
    },
    {
      "id": 103049,
      "name": "비에르눔",
      "name_default": "Bjärnum",
      "native": "Bjärnum",
      "type": "city",
      "level": null,
      "parent_id": null,
      "population": 2762,
      "latitude": "56.29032000",
      "longitude": "13.71128000",
      "timezone": "Europe/Stockholm",
      "wikiDataId": "Q2487489",
      "country_code": "SE",
      "state_code": "M",
      "state_id": 1541,
      "country_id": 213
    },
    {
      "id": 103050,
      "name": "비에레드",
      "name_default": "Bjärred",
      "native": "Bjärred",
      "type": "city",
      "level": null,
      "parent_id": null,
      "population": 9816,
      "latitude": "55.71667000",
      "longitude": "13.01667000",
      "timezone": "Europe/Stockholm",
      "wikiDataId": "Q879479",
      "country_code": "SE",
      "state_code": "M",
      "state_id": 1541,
      "country_id": 213
    },
    {
      "id": 103047,
      "name": "비우브",
      "name_default": "Bjuv",
      "native": "Bjuv",
      "type": "adm2",
      "level": null,
      "parent_id": null,
      "population": 11209,
      "latitude": "56.08372000",
      "longitude": "12.91914000",
      "timezone": "Europe/Stockholm",
      "wikiDataId": "Q1760444",
      "country_code": "SE",
      "state_code": "M",
      "state_id": 1541,
      "country_id": 213
    },
    {
      "id": 103058,
      "name": "블렌타프",
      "name_default": "Blentarp",
      "native": "Blentarp",
      "type": "city",
      "level": null,
      "parent_id": null,
      "population": 1535,
      "latitude": "55.58333000",
      "longitude": "13.60000000",
      "timezone": "Europe/Stockholm",
      "wikiDataId": "Q2328025",
      "country_code": "SE",
      "state_code": "M",
      "state_id": 1541,
      "country_id": 213
    },
    {
      "id": 103087,
      "name": "브로비",
      "name_default": "Broby",
      "native": "Skrovlig",
      "type": "adm2",
      "level": null,
      "parent_id": null,
      "population": 3373,
      "latitude": "56.25521000",
      "longitude": "14.07797000",
      "timezone": "Europe/Stockholm",
      "wikiDataId": "Q923113",
      "country_code": "SE",
      "state_code": "M",
      "state_id": 1541,
      "country_id": 213
    },
    {
      "id": 103089,
      "name": "브로묄라",
      "name_default": "Bromölla",
      "native": "Bromölla",
      "type": "adm2",
      "level": null,
      "parent_id": null,
      "population": 7905,
      "latitude": "56.07551000",
      "longitude": "14.46958000",
      "timezone": "Europe/Stockholm",
      "wikiDataId": "Q927096",
      "country_code": "SE",
      "state_code": "M",
      "state_id": 1541,
      "country_id": 213
    },
    {
      "id": 103097,
      "name": "방케플로스트란드",
      "name_default": "Bunkeflostrand",
      "native": "Bunkeflostrand",
      "type": "city",
      "level": null,
      "parent_id": null,
      "population": 15488,
      "latitude": "55.54478000",
      "longitude": "12.92375000",
      "timezone": "Europe/Stockholm",
      "wikiDataId": "Q2673374",
      "country_code": "SE",
      "state_code": "M",
      "state_id": 1541,
      "country_id": 213
    },
    {
      "id": 103109,
      "name": "달비",
      "name_default": "Dalby",
      "native": "Dalby",
      "type": "city",
      "level": null,
      "parent_id": null,
      "population": 6302,
      "latitude": "55.66655000",
      "longitude": "13.34976000",
      "timezone": "Europe/Stockholm",
      "wikiDataId": "Q748257",
      "country_code": "SE",
      "state_code": "M",
      "state_id": 1541,
      "country_id": 213
    },
    {
      "id": 103114,
      "name": "데게베르가",
      "name_default": "Degeberga",
      "native": "Degeberga",
      "type": "city",
      "level": null,
      "parent_id": null,
      "population": 1350,
      "latitude": "55.83333000",
      "longitude": "14.08333000",
      "timezone": "Europe/Stockholm",
      "wikiDataId": "Q1182804",
      "country_code": "SE",
      "state_code": "M",
      "state_id": 1541,
      "country_id": 213
    },
    {
      "id": 103130,
      "name": "에케비",
      "name_default": "Ekeby",
      "native": "Ekeby",
      "type": "city",
      "level": null,
      "parent_id": null,
      "population": 3292,
      "latitude": "56.00000000",
      "longitude": "12.96667000",
      "timezone": "Europe/Stockholm",
      "wikiDataId": "Q121561",
      "country_code": "SE",
      "state_code": "M",
      "state_id": 1541,
      "country_id": 213
    },
    {
      "id": 103152,
      "name": "에슬뢰브",
      "name_default": "Eslöv",
      "native": "Eslöv",
      "type": "adm2",
      "level": null,
      "parent_id": null,
      "population": 20422,
      "latitude": "55.83928000",
      "longitude": "13.30393000",
      "timezone": "Europe/Stockholm",
      "wikiDataId": "Q79237",
      "country_code": "SE",
      "state_code": "M",
      "state_id": 1541,
      "country_id": 213
    },
    {
      "id": 103195,
      "name": "펠뢰브",
      "name_default": "Färlöv",
      "native": "Färlöv",
      "type": "city",
      "level": null,
      "parent_id": null,
      "population": 1016,
      "latitude": "56.06667000",
      "longitude": "14.08333000",
      "timezone": "Europe/Stockholm",
      "wikiDataId": "Q1478889",
      "country_code": "SE",
      "state_code": "M",
      "state_id": 1541,
      "country_id": 213
    },
    {
      "id": 103171,
      "name": "피엘킹게",
      "name_default": "Fjälkinge",
      "native": "Fjälkinge",
      "type": "city",
      "level": null,
      "parent_id": null,
      "population": 1872,
      "latitude": "56.04364000",
      "longitude": "14.27562000",
      "timezone": "Europe/Stockholm",
      "wikiDataId": "Q2519014",
      "country_code": "SE",
      "state_code": "M",
      "state_id": 1541,
      "country_id": 213
    },
    {
      "id": 103196,
      "name": "포르슬뢰브",
      "name_default": "Förslöv",
      "native": "Förslöv",
      "type": "city",
      "level": null,
      "parent_id": null,
      "population": 2484,
      "latitude": "56.35000000",
      "longitude": "12.81667000",
      "timezone": "Europe/Stockholm",
      "wikiDataId": "Q2613015",
      "country_code": "SE",
      "state_code": "M",
      "state_id": 1541,
      "country_id": 213
    },
    {
      "id": 103188,
      "name": "후룰룬드",
      "name_default": "Furulund",
      "native": "Furulund",
      "type": "city",
      "level": null,
      "parent_id": null,
      "population": 3888,
      "latitude": "55.77380000",
      "longitude": "13.09022000",
      "timezone": "Europe/Stockholm",
      "wikiDataId": "Q1021155",
      "country_code": "SE",
      "state_code": "M",
      "state_id": 1541,
      "country_id": 213
    },
    {
      "id": 103203,
      "name": "간토프타",
      "name_default": "Gantofta",
      "native": "Gantofta",
      "type": "city",
      "level": null,
      "parent_id": null,
      "population": 1491,
      "latitude": "55.98729000",
      "longitude": "12.80482000",
      "timezone": "Europe/Stockholm",
      "wikiDataId": "Q2245383",
      "country_code": "SE",
      "state_code": "M",
      "state_id": 1541,
      "country_id": 213
    },
    {
      "id": 103239,
      "name": "가르스네스",
      "name_default": "Gärsnäs",
      "native": "Gärsnäs",
      "type": "city",
      "level": null,
      "parent_id": null,
      "population": 955,
      "latitude": "55.54949000",
      "longitude": "14.17923000",
      "timezone": "Europe/Stockholm",
      "wikiDataId": "Q2670190",
      "country_code": "SE",
      "state_code": "M",
      "state_id": 1541,
      "country_id": 213
    },
    {
      "id": 103206,
      "name": "제나르프",
      "name_default": "Genarp",
      "native": "Genarp",
      "type": "city",
      "level": null,
      "parent_id": null,
      "population": 3180,
      "latitude": "55.59907000",
      "longitude": "13.39820000",
      "timezone": "Europe/Stockholm",
      "wikiDataId": "Q277849",
      "country_code": "SE",
      "state_code": "M",
      "state_id": 1541,
      "country_id": 213
    },
    {
      "id": 103211,
      "name": "글리모크라",
      "name_default": "Glimåkra",
      "native": "Glimåkra",
      "type": "city",
      "level": null,
      "parent_id": null,
      "population": 1484,
      "latitude": "56.30000000",
      "longitude": "14.13333000",
      "timezone": "Europe/Stockholm",
      "wikiDataId": "Q954385",
      "country_code": "SE",
      "state_code": "M",
      "state_id": 1541,
      "country_id": 213
    },
    {
      "id": 103213,
      "name": "글룸슬뢰브",
      "name_default": "Glumslöv",
      "native": "Glumslöv",
      "type": "city",
      "level": null,
      "parent_id": null,
      "population": 2243,
      "latitude": "55.94091000",
      "longitude": "12.80929000",
      "timezone": "Europe/Stockholm",
      "wikiDataId": "Q2476667",
      "country_code": "SE",
      "state_code": "M",
      "state_id": 1541,
      "country_id": 213
    },
    {
      "id": 103315,
      "name": "헬야르프",
      "name_default": "Häljarp",
      "native": "Häljarp",
      "type": "city",
      "level": null,
      "parent_id": null,
      "population": 3134,
      "latitude": "55.85000000",
      "longitude": "12.91667000",
      "timezone": "Europe/Stockholm",
      "wikiDataId": "Q3472963",
      "country_code": "SE",
      "state_code": "M",
      "state_id": 1541,
      "country_id": 213
    },
    {
      "id": 103260,
      "name": "함마르",
      "name_default": "Hammar",
      "native": "Hammar",
      "type": "city",
      "level": null,
      "parent_id": null,
      "population": 3311,
      "latitude": "56.01667000",
      "longitude": "14.21667000",
      "timezone": "Europe/Stockholm",
      "wikiDataId": "Q1831291",
      "country_code": "SE",
      "state_code": "M",
      "state_id": 1541,
      "country_id": 213
    },
    {
      "id": 103263,
      "name": "하나스코그",
      "name_default": "Hanaskog",
      "native": "Hanasko",
      "type": "city",
      "level": null,
      "parent_id": null,
      "population": 1244,
      "latitude": "56.16061000",
      "longitude": "14.09307000",
      "timezone": "Europe/Stockholm",
      "wikiDataId": "Q1919351",
      "country_code": "SE",
      "state_code": "M",
      "state_id": 1541,
      "country_id": 213
    },
    {
      "id": 103325,
      "name": "헤슬레홀름",
      "name_default": "Hässleholm",
      "native": "Hässleholm",
      "type": "adm2",
      "level": null,
      "parent_id": null,
      "population": 19760,
      "latitude": "56.15905000",
      "longitude": "13.76638000",
      "timezone": "Europe/Stockholm",
      "wikiDataId": "Q847665",
      "country_code": "SE",
      "state_code": "M",
      "state_id": 1541,
      "country_id": 213
    },
    {
      "id": 103327,
      "name": "하스트베다",
      "name_default": "Hästveda",
      "native": "Hästveda",
      "type": "city",
      "level": null,
      "parent_id": null,
      "population": 1731,
      "latitude": "56.28468000",
      "longitude": "13.93547000",
      "timezone": "Europe/Stockholm",
      "wikiDataId": "Q2548751",
      "country_code": "SE",
      "state_code": "M",
      "state_id": 1541,
      "country_id": 213
    },
    {
      "id": 103277,
      "name": "헬싱보리",
      "name_default": "Helsingborg",
      "native": "Helsingborg",
      "type": "section",
      "level": null,
      "parent_id": null,
      "population": 116029,
      "latitude": "56.05648000",
      "longitude": "12.78718000",
      "timezone": "Europe/Stockholm",
      "wikiDataId": "Q487648",
      "country_code": "SE",
      "state_code": "M",
      "state_id": 1541,
      "country_id": 213
    },
    {
      "id": 103287,
      "name": "히타르프",
      "name_default": "Hittarp",
      "native": "Hittarp",
      "type": "city",
      "level": null,
      "parent_id": null,
      "population": 4554,
      "latitude": "56.10000000",
      "longitude": "12.63333000",
      "timezone": "Europe/Stockholm",
      "wikiDataId": "Q3353670",
      "country_code": "SE",
      "state_code": "M",
      "state_id": 1541,
      "country_id": 213
    },
    {
      "id": 103291,
      "name": "예르나르프",
      "name_default": "Hjärnarp",
      "native": "Hjärnarp",
      "type": "city",
      "level": null,
      "parent_id": null,
      "population": 1218,
      "latitude": "56.31667000",
      "longitude": "12.91667000",
      "timezone": "Europe/Stockholm",
      "wikiDataId": "Q1943169",
      "country_code": "SE",
      "state_code": "M",
      "state_id": 1541,
      "country_id": 213
    },
    {
      "id": 103292,
      "name": "하자룹",
      "name_default": "Hjärup",
      "native": "Hjärup",
      "type": "city",
      "level": null,
      "parent_id": null,
      "population": 4744,
      "latitude": "55.66880000",
      "longitude": "13.13931000",
      "timezone": "Europe/Stockholm",
      "wikiDataId": "Q2102400",
      "country_code": "SE",
      "state_code": "M",
      "state_id": 1541,
      "country_id": 213
    },
    {
      "id": 103295,
      "name": "호프테룹",
      "name_default": "Hofterup",
      "native": "Hipsup",
      "type": "city",
      "level": null,
      "parent_id": null,
      "population": 4067,
      "latitude": "55.80485000",
      "longitude": "12.97970000",
      "timezone": "Europe/Stockholm",
      "wikiDataId": "Q2676260",
      "country_code": "SE",
      "state_code": "M",
      "state_id": 1541,
      "country_id": 213
    },
    {
      "id": 103329,
      "name": "호가네스",
      "name_default": "Höganäs",
      "native": "Höganäs",
      "type": "adm2",
      "level": null,
      "parent_id": null,
      "population": 16274,
      "latitude": "56.19971000",
      "longitude": "12.55795000",
      "timezone": "Europe/Stockholm",
      "wikiDataId": "Q911875",
      "country_code": "SE",
      "state_code": "M",
      "state_id": 1541,
      "country_id": 213
    },
    {
      "id": 103334,
      "name": "호셰핑게",
      "name_default": "Hököpinge",
      "native": "Dum",
      "type": "city",
      "level": null,
      "parent_id": null,
      "population": 1164,
      "latitude": "55.49411000",
      "longitude": "13.00782000",
      "timezone": "Europe/Stockholm",
      "wikiDataId": "Q2043041",
      "country_code": "SE",
      "state_code": "M",
      "state_id": 1541,
      "country_id": 213
    },
    {
      "id": 103335,
      "name": "홀비켄",
      "name_default": "Höllviken",
      "native": "Höllviken",
      "type": "city",
      "level": null,
      "parent_id": null,
      "population": 15669,
      "latitude": "55.40982000",
      "longitude": "12.95580000",
      "timezone": "Europe/Stockholm",
      "wikiDataId": "Q1025480",
      "country_code": "SE",
      "state_code": "M",
      "state_id": 1541,
      "country_id": 213
    },
    {
      "id": 103342,
      "name": "회르",
      "name_default": "Höör",
      "native": "Höör",
      "type": "adm2",
      "level": null,
      "parent_id": null,
      "population": 12152,
      "latitude": "55.93444000",
      "longitude": "13.53850000",
      "timezone": "Europe/Stockholm",
      "wikiDataId": "Q765434",
      "country_code": "SE",
      "state_code": "M",
      "state_id": 1541,
      "country_id": 213
    },
    {
      "id": 103338,
      "name": "회르비",
      "name_default": "Hörby",
      "native": "Hörby",
      "type": "adm2",
      "level": null,
      "parent_id": null,
      "population": 7583,
      "latitude": "55.85238000",
      "longitude": "13.66094000",
      "timezone": "Europe/Stockholm",
      "wikiDataId": "Q1644288",
      "country_code": "SE",
      "state_code": "M",
      "state_id": 1541,
      "country_id": 213
    },
    {
      "id": 103312,
      "name": "힐링게",
      "name_default": "Hyllinge",
      "native": "Hasting",
      "type": "city",
      "level": null,
      "parent_id": null,
      "population": 2454,
      "latitude": "56.10000000",
      "longitude": "12.85000000",
      "timezone": "Europe/Stockholm",
      "wikiDataId": "Q2235944",
      "country_code": "SE",
      "state_code": "M",
      "state_id": 1541,
      "country_id": 213
    },
    {
      "id": 103356,
      "name": "욘스토르프",
      "name_default": "Jonstorp",
      "native": "Jonstorp",
      "type": "city",
      "level": null,
      "parent_id": null,
      "population": 2203,
      "latitude": "56.23380000",
      "longitude": "12.67184000",
      "timezone": "Europe/Stockholm",
      "wikiDataId": "Q2738847",
      "country_code": "SE",
      "state_code": "M",
      "state_id": 1541,
      "country_id": 213
    },
    {
      "id": 103440,
      "name": "카게뢰드",
      "name_default": "Kågeröd",
      "native": "Kågeröd",
      "type": "city",
      "level": null,
      "parent_id": null,
      "population": 1585,
      "latitude": "55.99976000",
      "longitude": "13.08795000",
      "timezone": "Europe/Stockholm",
      "wikiDataId": "Q2514808",
      "country_code": "SE",
      "state_code": "M",
      "state_id": 1541,
      "country_id": 213
    },
    {
      "id": 103437,
      "name": "케블링게",
      "name_default": "Kävlinge",
      "native": "Kävlinge",
      "type": "adm2",
      "level": null,
      "parent_id": null,
      "population": 10453,
      "latitude": "55.79188000",
      "longitude": "13.11021000",
      "timezone": "Europe/Stockholm",
      "wikiDataId": "Q117493",
      "country_code": "SE",
      "state_code": "M",
      "state_id": 1541,
      "country_id": 213
    },
    {
      "id": 103401,
      "name": "클라게룹",
      "name_default": "Klågerup",
      "native": "Klågerup",
      "type": "city",
      "level": null,
      "parent_id": null,
      "population": 2317,
      "latitude": "55.59416000",
      "longitude": "13.24574000",
      "timezone": "Europe/Stockholm",
      "wikiDataId": "Q2028407",
      "country_code": "SE",
      "state_code": "M",
      "state_id": 1541,
      "country_id": 213
    },
    {
      "id": 103399,
      "name": "클리판",
      "name_default": "Klippan",
      "native": "Klippan",
      "type": "adm2",
      "level": null,
      "parent_id": null,
      "population": 8411,
      "latitude": "56.13559000",
      "longitude": "13.13086000",
      "timezone": "Europe/Stockholm",
      "wikiDataId": "Q1774733",
      "country_code": "SE",
      "state_code": "M",
      "state_id": 1541,
      "country_id": 213
    },
    {
      "id": 103402,
      "name": "크니슬링게",
      "name_default": "Knislinge",
      "native": "Knislinge",
      "type": "city",
      "level": null,
      "parent_id": null,
      "population": 3346,
      "latitude": "56.18333000",
      "longitude": "14.08333000",
      "timezone": "Europe/Stockholm",
      "wikiDataId": "Q2697738",
      "country_code": "SE",
      "state_code": "M",
      "state_id": 1541,
      "country_id": 213
    },
    {
      "id": 103443,
      "name": "쾨핑게브로",
      "name_default": "Köpingebro",
      "native": "Köpingebro",
      "type": "city",
      "level": null,
      "parent_id": null,
      "population": 1356,
      "latitude": "55.45526000",
      "longitude": "13.93453000",
      "timezone": "Europe/Stockholm",
      "wikiDataId": "Q176280",
      "country_code": "SE",
      "state_code": "M",
      "state_id": 1541,
      "country_id": 213
    },
    {
      "id": 103414,
      "name": "크리스티안스타드",
      "name_default": "Kristianstad",
      "native": "Kristianstad",
      "type": "adm2",
      "level": null,
      "parent_id": null,
      "population": 41198,
      "latitude": "56.03129000",
      "longitude": "14.15242000",
      "timezone": "Europe/Stockholm",
      "wikiDataId": "Q26937",
      "country_code": "SE",
      "state_code": "M",
      "state_id": 1541,
      "country_id": 213
    },
    {
      "id": 103433,
      "name": "크비딩게",
      "name_default": "Kvidinge",
      "native": "Kvidinge",
      "type": "city",
      "level": null,
      "parent_id": null,
      "population": 1986,
      "latitude": "56.13386000",
      "longitude": "13.04678000",
      "timezone": "Europe/Stockholm",
      "wikiDataId": "Q2509589",
      "country_code": "SE",
      "state_code": "M",
      "state_id": 1541,
      "country_id": 213
    },
    {
      "id": 103451,
      "name": "란스크로나",
      "name_default": "Landskrona",
      "native": "Landskrona",
      "type": "city",
      "level": null,
      "parent_id": null,
      "population": 33859,
      "latitude": "55.88620000",
      "longitude": "12.85880000",
      "timezone": "Europe/Stockholm",
      "wikiDataId": "Q502298",
      "country_code": "SE",
      "state_code": "M",
      "state_id": 1541,
      "country_id": 213
    },
    {
      "id": 103480,
      "name": "융비헤드",
      "name_default": "Ljungbyhed",
      "native": "Ljungbyhed",
      "type": "city",
      "level": null,
      "parent_id": null,
      "population": 2167,
      "latitude": "56.07437000",
      "longitude": "13.24010000",
      "timezone": "Europe/Stockholm",
      "wikiDataId": "Q776830",
      "country_code": "SE",
      "state_code": "M",
      "state_id": 1541,
      "country_id": 213
    },
    {
      "id": 103482,
      "name": "융후센",
      "name_default": "Ljunghusen",
      "native": "Ljunghusen",
      "type": "city",
      "level": null,
      "parent_id": null,
      "population": 2555,
      "latitude": "55.39793000",
      "longitude": "12.92486000",
      "timezone": "Europe/Stockholm",
      "wikiDataId": "Q2738425",
      "country_code": "SE",
      "state_code": "M",
      "state_id": 1541,
      "country_id": 213
    },
    {
      "id": 103506,
      "name": "뢰베로드",
      "name_default": "Löberöd",
      "native": "Löberöd",
      "type": "city",
      "level": null,
      "parent_id": null,
      "population": 1268,
      "latitude": "55.77610000",
      "longitude": "13.52414000",
      "timezone": "Europe/Stockholm",
      "wikiDataId": "Q2222483",
      "country_code": "SE",
      "state_code": "M",
      "state_id": 1541,
      "country_id": 213
    },
    {
      "id": 103507,
      "name": "뢰데코핑게",
      "name_default": "Löddeköpinge",
      "native": "Löddeköpinge",
      "type": "city",
      "level": null,
      "parent_id": null,
      "population": 6714,
      "latitude": "55.76667000",
      "longitude": "13.01667000",
      "timezone": "Europe/Stockholm",
      "wikiDataId": "Q1840699",
      "country_code": "SE",
      "state_code": "M",
      "state_id": 1541,
      "country_id": 213
    },
    {
      "id": 103489,
      "name": "롬마",
      "name_default": "Lomma",
      "native": "Ficka",
      "type": "adm2",
      "level": null,
      "parent_id": null,
      "population": 13699,
      "latitude": "55.67244000",
      "longitude": "13.06849000",
      "timezone": "Europe/Stockholm",
      "wikiDataId": "Q995369",
      "country_code": "SE",
      "state_code": "M",
      "state_id": 1541,
      "country_id": 213
    },
    {
      "id": 103509,
      "name": "뢴스보다",
      "name_default": "Lönsboda",
      "native": "Lönsboda",
      "type": "city",
      "level": null,
      "parent_id": null,
      "population": 1851,
      "latitude": "56.40000000",
      "longitude": "14.31667000",
      "timezone": "Europe/Stockholm",
      "wikiDataId": "Q1016865",
      "country_code": "SE",
      "state_code": "M",
      "state_id": 1541,
      "country_id": 213
    },
    {
      "id": 103495,
      "name": "룬드",
      "name_default": "Lund",
      "native": "Lund",
      "type": "adm2",
      "level": null,
      "parent_id": null,
      "population": 87244,
      "latitude": "55.70584000",
      "longitude": "13.19321000",
      "timezone": "Europe/Stockholm",
      "wikiDataId": "Q2167",
      "country_code": "SE",
      "state_code": "M",
      "state_id": 1541,
      "country_id": 213
    },
    {
      "id": 103517,
      "name": "말뫼",
      "name_default": "Malmö",
      "native": "Malmö",
      "type": "adm1",
      "level": null,
      "parent_id": null,
      "population": 326860,
      "latitude": "55.60587000",
      "longitude": "13.00073000",
      "timezone": "Europe/Stockholm",
      "wikiDataId": "Q2211",
      "country_code": "SE",
      "state_code": "M",
      "state_id": 1541,
      "country_id": 213
    },
    {
      "id": 103527,
      "name": "마리홀름",
      "name_default": "Marieholm",
      "native": "Marieholm",
      "type": "city",
      "level": null,
      "parent_id": null,
      "population": 1604,
      "latitude": "55.86667000",
      "longitude": "13.15000000",
      "timezone": "Europe/Stockholm",
      "wikiDataId": "Q2580603",
      "country_code": "SE",
      "state_code": "M",
      "state_id": 1541,
      "country_id": 213
    },
    {
      "id": 103567,
      "name": "모라르프",
      "name_default": "Mörarp",
      "native": "Mörarp",
      "type": "city",
      "level": null,
      "parent_id": null,
      "population": 1920,
      "latitude": "56.05749000",
      "longitude": "12.88018000",
      "timezone": "Europe/Stockholm",
      "wikiDataId": "Q2309144",
      "country_code": "SE",
      "state_code": "M",
      "state_id": 1541,
      "country_id": 213
    },
    {
      "id": 103552,
      "name": "문카-융비",
      "name_default": "Munka-Ljungby",
      "native": "Munka-Ljungby",
      "type": "city",
      "level": null,
      "parent_id": null,
      "population": 3687,
      "latitude": "56.25000000",
      "longitude": "12.96667000",
      "timezone": "Europe/Stockholm",
      "wikiDataId": "Q2126314",
      "country_code": "SE",
      "state_code": "M",
      "state_id": 1541,
      "country_id": 213
    },
    {
      "id": 103604,
      "name": "네숨",
      "name_default": "Näsum",
      "native": "Näsum",
      "type": "city",
      "level": null,
      "parent_id": null,
      "population": 1274,
      "latitude": "56.17693000",
      "longitude": "14.49706000",
      "timezone": "Europe/Stockholm",
      "wikiDataId": "Q3354523",
      "country_code": "SE",
      "state_code": "M",
      "state_id": 1541,
      "country_id": 213
    },
    {
      "id": 103584,
      "name": "노라 아숨",
      "name_default": "Norra Åsum",
      "native": "Norra Åsum",
      "type": "city",
      "level": null,
      "parent_id": null,
      "population": 1264,
      "latitude": "55.98333000",
      "longitude": "14.15000000",
      "timezone": "Europe/Stockholm",
      "wikiDataId": "Q2614023",
      "country_code": "SE",
      "state_code": "M",
      "state_id": 1541,
      "country_id": 213
    },
    {
      "id": 104030,
      "name": "오다크라",
      "name_default": "Ödåkra",
      "native": "Ödåkra",
      "type": "city",
      "level": null,
      "parent_id": null,
      "population": 5768,
      "latitude": "56.10412000",
      "longitude": "12.74770000",
      "timezone": "Europe/Stockholm",
      "wikiDataId": "Q2515214",
      "country_code": "SE",
      "state_code": "M",
      "state_id": 1541,
      "country_id": 213
    },
    {
      "id": 104032,
      "name": "외네스타드",
      "name_default": "Önnestad",
      "native": "Önnestad",
      "type": "city",
      "level": null,
      "parent_id": null,
      "population": 1393,
      "latitude": "56.05747000",
      "longitude": "14.02233000",
      "timezone": "Europe/Stockholm",
      "wikiDataId": "Q2199635",
      "country_code": "SE",
      "state_code": "M",
      "state_id": 1541,
      "country_id": 213
    },
    {
      "id": 104037,
      "name": "Örkelljunga",
      "name_default": "Örkelljunga",
      "native": "Örkelljunga",
      "type": "adm2",
      "level": null,
      "parent_id": null,
      "population": 5507,
      "latitude": "56.28338000",
      "longitude": "13.27773000",
      "timezone": "Europe/Stockholm",
      "wikiDataId": "Q297922",
      "country_code": "SE",
      "state_code": "M",
      "state_id": 1541,
      "country_id": 213
    },
    {
      "id": 103621,
      "name": "오스비",
      "name_default": "Osby",
      "native": "Osby",
      "type": "adm2",
      "level": null,
      "parent_id": null,
      "population": 7754,
      "latitude": "56.38165000",
      "longitude": "13.99364000",
      "timezone": "Europe/Stockholm",
      "wikiDataId": "Q26511",
      "country_code": "SE",
      "state_code": "M",
      "state_id": 1541,
      "country_id": 213
    },
    {
      "id": 104051,
      "name": "오스트라 융비",
      "name_default": "Östra Ljungby",
      "native": "Östra Ljungby",
      "type": "city",
      "level": null,
      "parent_id": null,
      "population": 1812,
      "latitude": "56.19601000",
      "longitude": "13.09199000",
      "timezone": "Europe/Stockholm",
      "wikiDataId": "Q1901778",
      "country_code": "SE",
      "state_code": "M",
      "state_id": 1541,
      "country_id": 213
    },
    {
      "id": 103629,
      "name": "옥시",
      "name_default": "Oxie",
      "native": "Oxie",
      "type": "city",
      "level": null,
      "parent_id": null,
      "population": 14040,
      "latitude": "55.54014000",
      "longitude": "13.09605000",
      "timezone": "Europe/Stockholm",
      "wikiDataId": "Q1995123",
      "country_code": "SE",
      "state_code": "M",
      "state_id": 1541,
      "country_id": 213
    },
    {
      "id": 103639,
      "name": "파아르프",
      "name_default": "Påarp",
      "native": "Påarp",
      "type": "city",
      "level": null,
      "parent_id": null,
      "population": 2932,
      "latitude": "56.03333000",
      "longitude": "12.81667000",
      "timezone": "Europe/Stockholm",
      "wikiDataId": "Q2505105",
      "country_code": "SE",
      "state_code": "M",
      "state_id": 1541,
      "country_id": 213
    },
    {
      "id": 103635,
      "name": "페르스토프",
      "name_default": "Perstorp",
      "native": "Perstorp",
      "type": "adm2",
      "level": null,
      "parent_id": null,
      "population": 5972,
      "latitude": "56.13829000",
      "longitude": "13.39476000",
      "timezone": "Europe/Stockholm",
      "wikiDataId": "Q1736327",
      "country_code": "SE",
      "state_code": "M",
      "state_id": 1541,
      "country_id": 213
    },
    {
      "id": 103663,
      "name": "라이드벡",
      "name_default": "Rydebäck",
      "native": "Rydebäck",
      "type": "city",
      "level": null,
      "parent_id": null,
      "population": 6597,
      "latitude": "55.96667000",
      "longitude": "12.76667000",
      "timezone": "Europe/Stockholm",
      "wikiDataId": "Q3272598",
      "country_code": "SE",
      "state_code": "M",
      "state_id": 1541,
      "country_id": 213
    },
    {
      "id": 103664,
      "name": "리드스가드",
      "name_default": "Rydsgård",
      "native": "Rydgård",
      "type": "city",
      "level": null,
      "parent_id": null,
      "population": 1521,
      "latitude": "55.47285000",
      "longitude": "13.58829000",
      "timezone": "Europe/Stockholm",
      "wikiDataId": "Q3086631",
      "country_code": "SE",
      "state_code": "M",
      "state_id": 1541,
      "country_id": 213
    },
    {
      "id": 103810,
      "name": "사토프타",
      "name_default": "Sätofta",
      "native": "Solbränna",
      "type": "city",
      "level": null,
      "parent_id": null,
      "population": 1348,
      "latitude": "55.91667000",
      "longitude": "13.55000000",
      "timezone": "Europe/Stockholm",
      "wikiDataId": "Q181941",
      "country_code": "SE",
      "state_code": "M",
      "state_id": 1541,
      "country_id": 213
    },
    {
      "id": 103683,
      "name": "삭스토르프스코겐",
      "name_default": "Saxtorpsskogen",
      "native": "Saxtorpsskogen",
      "type": "city",
      "level": null,
      "parent_id": null,
      "population": 1242,
      "latitude": "55.83208000",
      "longitude": "12.94429000",
      "timezone": "Europe/Stockholm",
      "wikiDataId": "Q2424642",
      "country_code": "SE",
      "state_code": "M",
      "state_id": 1541,
      "country_id": 213
    },
    {
      "id": 103685,
      "name": "시브훌트",
      "name_default": "Sibbhult",
      "native": "Sibbhult",
      "type": "city",
      "level": null,
      "parent_id": null,
      "population": 1337,
      "latitude": "56.26667000",
      "longitude": "14.20000000",
      "timezone": "Europe/Stockholm",
      "wikiDataId": "Q2616737",
      "country_code": "SE",
      "state_code": "M",
      "state_id": 1541,
      "country_id": 213
    },
    {
      "id": 103689,
      "name": "심리스함",
      "name_default": "Simrishamn",
      "native": "Simrishamn",
      "type": "adm2",
      "level": null,
      "parent_id": null,
      "population": 6863,
      "latitude": "55.55653000",
      "longitude": "14.35037000",
      "timezone": "Europe/Stockholm",
      "wikiDataId": "Q648536",
      "country_code": "SE",
      "state_code": "M",
      "state_id": 1541,
      "country_id": 213
    },
    {
      "id": 103692,
      "name": "셰보",
      "name_default": "Sjöbo",
      "native": "Sjöbo",
      "type": "adm2",
      "level": null,
      "parent_id": null,
      "population": 8565,
      "latitude": "55.63135000",
      "longitude": "13.70622000",
      "timezone": "Europe/Stockholm",
      "wikiDataId": "Q1019556",
      "country_code": "SE",
      "state_code": "M",
      "state_id": 1541,
      "country_id": 213
    },
    {
      "id": 103695,
      "name": "Skanör med Falsterbo",
      "name_default": "Skanör med Falsterbo",
      "native": "Skanör med Falsterbo",
      "type": "city",
      "level": null,
      "parent_id": null,
      "population": 7339,
      "latitude": "55.40000000",
      "longitude": "12.85000000",
      "timezone": "Europe/Stockholm",
      "wikiDataId": "Q194512",
      "country_code": "SE",
      "state_code": "M",
      "state_id": 1541,
      "country_id": 213
    },
    {
      "id": 103721,
      "name": "스코레",
      "name_default": "Skåre",
      "native": "Göra",
      "type": "city",
      "level": null,
      "parent_id": null,
      "population": 5415,
      "latitude": "55.38333000",
      "longitude": "13.05000000",
      "timezone": "Europe/Stockholm",
      "wikiDataId": "Q10671195",
      "country_code": "SE",
      "state_code": "M",
      "state_id": 1541,
      "country_id": 213
    },
    {
      "id": 103699,
      "name": "스케그리",
      "name_default": "Skegrie",
      "native": "Skippie",
      "type": "city",
      "level": null,
      "parent_id": null,
      "population": 1156,
      "latitude": "55.40633000",
      "longitude": "13.07693000",
      "timezone": "Europe/Stockholm",
      "wikiDataId": "Q2780759",
      "country_code": "SE",
      "state_code": "M",
      "state_id": 1541,
      "country_id": 213
    },
    {
      "id": 103707,
      "name": "스키바프",
      "name_default": "Skivarp",
      "native": "Skivarp",
      "type": "city",
      "level": null,
      "parent_id": null,
      "population": 1397,
      "latitude": "55.41667000",
      "longitude": "13.56667000",
      "timezone": "Europe/Stockholm",
      "wikiDataId": "Q2124908",
      "country_code": "SE",
      "state_code": "M",
      "state_id": 1541,
      "country_id": 213
    },
    {
      "id": 103714,
      "name": "스쿠럽",
      "name_default": "Skurup",
      "native": "Skurup",
      "type": "adm2",
      "level": null,
      "parent_id": null,
      "population": 9233,
      "latitude": "55.47839000",
      "longitude": "13.50186000",
      "timezone": "Europe/Stockholm",
      "wikiDataId": "Q39059",
      "country_code": "SE",
      "state_code": "M",
      "state_id": 1541,
      "country_id": 213
    },
    {
      "id": 103731,
      "name": "스미게함",
      "name_default": "Smygehamn",
      "native": "Smygehamn",
      "type": "city",
      "level": null,
      "parent_id": null,
      "population": 1292,
      "latitude": "55.34337000",
      "longitude": "13.36989000",
      "timezone": "Europe/Stockholm",
      "wikiDataId": "Q2295657",
      "country_code": "SE",
      "state_code": "M",
      "state_id": 1541,
      "country_id": 213
    },
    {
      "id": 103826,
      "name": "소드라 샌드비",
      "name_default": "Södra Sandby",
      "native": "Södra Sandby",
      "type": "city",
      "level": null,
      "parent_id": null,
      "population": 7846,
      "latitude": "55.71677000",
      "longitude": "13.34659000",
      "timezone": "Europe/Stockholm",
      "wikiDataId": "Q569800",
      "country_code": "SE",
      "state_code": "M",
      "state_id": 1541,
      "country_id": 213
    },
    {
      "id": 103834,
      "name": "쇠스달라",
      "name_default": "Sösdala",
      "native": "Sösdala",
      "type": "city",
      "level": null,
      "parent_id": null,
      "population": 1835,
      "latitude": "56.03992000",
      "longitude": "13.67811000",
      "timezone": "Europe/Stockholm",
      "wikiDataId": "Q1018462",
      "country_code": "SE",
      "state_code": "M",
      "state_id": 1541,
      "country_id": 213
    },
    {
      "id": 103744,
      "name": "스타판스토프",
      "name_default": "Staffanstorp",
      "native": "Staffanstorp",
      "type": "adm2",
      "level": null,
      "parent_id": null,
      "population": 17838,
      "latitude": "55.64277000",
      "longitude": "13.20638000",
      "timezone": "Europe/Stockholm",
      "wikiDataId": "Q1003201",
      "country_code": "SE",
      "state_code": "M",
      "state_id": 1541,
      "country_id": 213
    },
    {
      "id": 103781,
      "name": "스탕비",
      "name_default": "Stångby",
      "native": "Stångby",
      "type": "city",
      "level": null,
      "parent_id": null,
      "population": 1943,
      "latitude": "55.75030000",
      "longitude": "13.19797000",
      "timezone": "Europe/Stockholm",
      "wikiDataId": "Q1398087",
      "country_code": "SE",
      "state_code": "M",
      "state_id": 1541,
      "country_id": 213
    },
    {
      "id": 103748,
      "name": "스테하그",
      "name_default": "Stehag",
      "native": "Stehag",
      "type": "city",
      "level": null,
      "parent_id": null,
      "population": 1454,
      "latitude": "55.90188000",
      "longitude": "13.39577000",
      "timezone": "Europe/Stockholm",
      "wikiDataId": "Q1977096",
      "country_code": "SE",
      "state_code": "M",
      "state_id": 1541,
      "country_id": 213
    },
    {
      "id": 103777,
      "name": "스트뢰벨스토르프",
      "name_default": "Strövelstorp",
      "native": "Strövelstorp",
      "type": "city",
      "level": null,
      "parent_id": null,
      "population": 1449,
      "latitude": "56.16979000",
      "longitude": "12.83925000",
      "timezone": "Europe/Stockholm",
      "wikiDataId": "Q3353662",
      "country_code": "SE",
      "state_code": "M",
      "state_id": 1541,
      "country_id": 213
    },
    {
      "id": 103794,
      "name": "스발뢰브",
      "name_default": "Svalöv",
      "native": "Svalöv",
      "type": "adm2",
      "level": null,
      "parent_id": null,
      "population": 4250,
      "latitude": "55.91340000",
      "longitude": "13.10762000",
      "timezone": "Europe/Stockholm",
      "wikiDataId": "Q202408",
      "country_code": "SE",
      "state_code": "M",
      "state_id": 1541,
      "country_id": 213
    },
    {
      "id": 103797,
      "name": "스베달라",
      "name_default": "Svedala",
      "native": "Svedala",
      "type": "adm2",
      "level": null,
      "parent_id": null,
      "population": 13433,
      "latitude": "55.50788000",
      "longitude": "13.23515000",
      "timezone": "Europe/Stockholm",
      "wikiDataId": "Q369863",
      "country_code": "SE",
      "state_code": "M",
      "state_id": 1541,
      "country_id": 213
    },
    {
      "id": 103839,
      "name": "테크코마토르프",
      "name_default": "Teckomatorp",
      "native": "Teckomatorp",
      "type": "city",
      "level": null,
      "parent_id": null,
      "population": 1991,
      "latitude": "55.86667000",
      "longitude": "13.08333000",
      "timezone": "Europe/Stockholm",
      "wikiDataId": "Q1016384",
      "country_code": "SE",
      "state_code": "M",
      "state_id": 1541,
      "country_id": 213
    },
    {
      "id": 103856,
      "name": "톨라르프",
      "name_default": "Tollarp",
      "native": "Tollarp",
      "type": "city",
      "level": null,
      "parent_id": null,
      "population": 3385,
      "latitude": "55.93333000",
      "longitude": "13.98333000",
      "timezone": "Europe/Stockholm",
      "wikiDataId": "Q719069",
      "country_code": "SE",
      "state_code": "M",
      "state_id": 1541,
      "country_id": 213
    },
    {
      "id": 103857,
      "name": "톨라르프1",
      "name_default": "Tollarp1",
      "native": "Tollarp1",
      "type": "city",
      "level": null,
      "parent_id": null,
      "population": 3170,
      "latitude": "56.16667000",
      "longitude": "14.28333000",
      "timezone": "Europe/Stockholm",
      "wikiDataId": "Q719069",
      "country_code": "SE",
      "state_code": "M",
      "state_id": 1541,
      "country_id": 213
    },
    {
      "id": 103858,
      "name": "토멜릴라",
      "name_default": "Tomelilla",
      "native": "Tomelilla",
      "type": "adm2",
      "level": null,
      "parent_id": null,
      "population": 7262,
      "latitude": "55.54293000",
      "longitude": "13.95460000",
      "timezone": "Europe/Stockholm",
      "wikiDataId": "Q983681",
      "country_code": "SE",
      "state_code": "M",
      "state_id": 1541,
      "country_id": 213
    },
    {
      "id": 103860,
      "name": "토레코프",
      "name_default": "Torekov",
      "native": "Torekov",
      "type": "city",
      "level": null,
      "parent_id": null,
      "population": 1044,
      "latitude": "56.42500000",
      "longitude": "12.63333000",
      "timezone": "Europe/Stockholm",
      "wikiDataId": "Q1013563",
      "country_code": "SE",
      "state_code": "M",
      "state_id": 1541,
      "country_id": 213
    },
    {
      "id": 103861,
      "name": "토르메스토르프",
      "name_default": "Tormestorp",
      "native": "Tormestorp",
      "type": "city",
      "level": null,
      "parent_id": null,
      "population": 1097,
      "latitude": "56.11350000",
      "longitude": "13.74516000",
      "timezone": "Europe/Stockholm",
      "wikiDataId": "Q2095032",
      "country_code": "SE",
      "state_code": "M",
      "state_id": 1541,
      "country_id": 213
    },
    {
      "id": 103874,
      "name": "트렐레보리",
      "name_default": "Trelleborg",
      "native": "Trelleborg",
      "type": "adm2",
      "level": null,
      "parent_id": null,
      "population": 31366,
      "latitude": "55.37514000",
      "longitude": "13.15691000",
      "timezone": "Europe/Stockholm",
      "wikiDataId": "Q26943",
      "country_code": "SE",
      "state_code": "M",
      "state_id": 1541,
      "country_id": 213
    },
    {
      "id": 103884,
      "name": "티겔쇼",
      "name_default": "Tygelsjö",
      "native": "Tygelsjö",
      "type": "city",
      "level": null,
      "parent_id": null,
      "population": 4126,
      "latitude": "55.51667000",
      "longitude": "13.00000000",
      "timezone": "Europe/Stockholm",
      "wikiDataId": "Q2744244",
      "country_code": "SE",
      "state_code": "M",
      "state_id": 1541,
      "country_id": 213
    },
    {
      "id": 103886,
      "name": "티링게",
      "name_default": "Tyringe",
      "native": "Tyringe",
      "type": "city",
      "level": null,
      "parent_id": null,
      "population": 4752,
      "latitude": "56.16037000",
      "longitude": "13.59811000",
      "timezone": "Europe/Stockholm",
      "wikiDataId": "Q2301322",
      "country_code": "SE",
      "state_code": "M",
      "state_id": 1541,
      "country_id": 213
    },
    {
      "id": 103915,
      "name": "발제",
      "name_default": "Valje",
      "native": "Rullar",
      "type": "city",
      "level": null,
      "parent_id": null,
      "population": 1073,
      "latitude": "56.06279000",
      "longitude": "14.54388000",
      "timezone": "Europe/Stockholm",
      "wikiDataId": "Q2183139",
      "country_code": "SE",
      "state_code": "M",
      "state_id": 1541,
      "country_id": 213
    },
    {
      "id": 103931,
      "name": "베베로드",
      "name_default": "Veberöd",
      "native": "Veberöd",
      "type": "city",
      "level": null,
      "parent_id": null,
      "population": 5647,
      "latitude": "55.63333000",
      "longitude": "13.48333000",
      "timezone": "Europe/Stockholm",
      "wikiDataId": "Q2007115",
      "country_code": "SE",
      "state_code": "M",
      "state_id": 1541,
      "country_id": 213
    },
    {
      "id": 103934,
      "name": "베이비스트란드",
      "name_default": "Vejbystrand",
      "native": "Vejbystrand",
      "type": "city",
      "level": null,
      "parent_id": null,
      "population": 2764,
      "latitude": "56.31778000",
      "longitude": "12.76722000",
      "timezone": "Europe/Stockholm",
      "wikiDataId": "Q2619062",
      "country_code": "SE",
      "state_code": "M",
      "state_id": 1541,
      "country_id": 213
    },
    {
      "id": 103935,
      "name": "벨링게",
      "name_default": "Vellinge",
      "native": "Vellinge",
      "type": "adm2",
      "level": null,
      "parent_id": null,
      "population": 7274,
      "latitude": "55.47124000",
      "longitude": "13.01971000",
      "timezone": "Europe/Stockholm",
      "wikiDataId": "Q1013305",
      "country_code": "SE",
      "state_code": "M",
      "state_id": 1541,
      "country_id": 213
    },
    {
      "id": 103943,
      "name": "비켄",
      "name_default": "Viken",
      "native": "Dike",
      "type": "city",
      "level": null,
      "parent_id": null,
      "population": 5610,
      "latitude": "56.15063000",
      "longitude": "12.57429000",
      "timezone": "Europe/Stockholm",
      "wikiDataId": "Q18334640",
      "country_code": "SE",
      "state_code": "M",
      "state_id": 1541,
      "country_id": 213
    },
    {
      "id": 103954,
      "name": "빈슬뢰브",
      "name_default": "Vinslöv",
      "native": "Vinslöv",
      "type": "city",
      "level": null,
      "parent_id": null,
      "population": 4113,
      "latitude": "56.10000000",
      "longitude": "13.91667000",
      "timezone": "Europe/Stockholm",
      "wikiDataId": "Q2905916",
      "country_code": "SE",
      "state_code": "M",
      "state_id": 1541,
      "country_id": 213
    },
    {
      "id": 103960,
      "name": "비츠조",
      "name_default": "Vittsjö",
      "native": "Vittsjö",
      "type": "city",
      "level": null,
      "parent_id": null,
      "population": 1792,
      "latitude": "56.34366000",
      "longitude": "13.66081000",
      "timezone": "Europe/Stockholm",
      "wikiDataId": "Q2296795",
      "country_code": "SE",
      "state_code": "M",
      "state_id": 1541,
      "country_id": 213
    },
    {
      "id": 103983,
      "name": "이스타드",
      "name_default": "Ystad",
      "native": "Ystad",
      "type": "adm2",
      "level": null,
      "parent_id": null,
      "population": 21259,
      "latitude": "55.42966000",
      "longitude": "13.82041000",
      "timezone": "Europe/Stockholm",
      "wikiDataId": "Q28287",
      "country_code": "SE",
      "state_code": "M",
      "state_id": 1541,
      "country_id": 213
    }
  ]
}
