{
  "locale": "pl",
  "country": {
    "id": 75,
    "code": "FR",
    "iso3": "FRA",
    "numeric_code": "250",
    "name": "Francja",
    "name_default": "France",
    "native": "France",
    "capital": "Paris",
    "phonecode": "33",
    "currency": "EUR",
    "currency_name": "Euro",
    "currency_symbol": "€",
    "tld": ".fr",
    "population": 68688000,
    "gdp": 3211292,
    "region": "Europe",
    "region_id": 4,
    "subregion": "Western Europe",
    "subregion_id": 17,
    "nationality": "French",
    "timezones": [
      {
        "zoneName": "Europe/Paris",
        "gmtOffset": 3600,
        "gmtOffsetName": "UTC+01:00",
        "abbreviation": "CET",
        "tzName": "Central European Time"
      }
    ],
    "latitude": "46.00000000",
    "longitude": "2.00000000",
    "emoji": "🇫🇷",
    "emojiU": "U+1F1EB U+1F1F7"
  },
  "state": {
    "id": 5023,
    "code": "55",
    "iso2": "55",
    "iso3166_2": "FR-55",
    "fips_code": null,
    "name": "Moza",
    "name_default": "Meuse",
    "native": "Miuse",
    "type": "metropolitan department",
    "level": "2",
    "parent_id": "4820",
    "population": null,
    "latitude": "49.01296850",
    "longitude": "5.42866910",
    "timezone": "Europe/Paris",
    "wikiDataId": "Q12631",
    "country_code": "FR"
  },
  "cities": [
    {
      "id": 156516,
      "name": "Abainville",
      "name_default": "Abainville",
      "native": "Abainville",
      "type": "city",
      "level": null,
      "parent_id": null,
      "population": 282,
      "latitude": "48.53100980",
      "longitude": "5.48230790",
      "timezone": "Europe/Paris",
      "wikiDataId": "Q59411",
      "country_code": "FR",
      "state_code": "55",
      "state_id": 5023,
      "country_id": 75
    },
    {
      "id": 156517,
      "name": "Aincreville",
      "name_default": "Aincreville",
      "native": "Aincreville",
      "type": "city",
      "level": null,
      "parent_id": null,
      "population": 81,
      "latitude": "49.36873540",
      "longitude": "5.09406930",
      "timezone": "Europe/Paris",
      "wikiDataId": "Q230161",
      "country_code": "FR",
      "state_code": "55",
      "state_id": 5023,
      "country_id": 75
    },
    {
      "id": 156518,
      "name": "Amanty",
      "name_default": "Amanty",
      "native": "Amanty",
      "type": "city",
      "level": null,
      "parent_id": null,
      "population": 35,
      "latitude": "48.51595410",
      "longitude": "5.56034560",
      "timezone": "Europe/Paris",
      "wikiDataId": "Q1021099",
      "country_code": "FR",
      "state_code": "55",
      "state_id": 5023,
      "country_id": 75
    },
    {
      "id": 156519,
      "name": "Ambly-sur-Meuse",
      "name_default": "Ambly-sur-Meuse",
      "native": "Ambly-sur-Meuse",
      "type": "city",
      "level": null,
      "parent_id": null,
      "population": 241,
      "latitude": "49.02195200",
      "longitude": "5.43145940",
      "timezone": "Europe/Paris",
      "wikiDataId": "Q1021082",
      "country_code": "FR",
      "state_code": "55",
      "state_id": 5023,
      "country_id": 75
    },
    {
      "id": 156520,
      "name": "Amel-sur-l'Étang",
      "name_default": "Amel-sur-l'Étang",
      "native": "Amel-sur-l'Étang",
      "type": "city",
      "level": null,
      "parent_id": null,
      "population": 150,
      "latitude": "49.25692170",
      "longitude": "5.60368590",
      "timezone": "Europe/Paris",
      "wikiDataId": "Q59688",
      "country_code": "FR",
      "state_code": "55",
      "state_id": 5023,
      "country_id": 75
    },
    {
      "id": 156521,
      "name": "Ancemont",
      "name_default": "Ancemont",
      "native": "Ancemont",
      "type": "city",
      "level": null,
      "parent_id": null,
      "population": 525,
      "latitude": "49.06315250",
      "longitude": "5.33983060",
      "timezone": "Europe/Paris",
      "wikiDataId": "Q472924",
      "country_code": "FR",
      "state_code": "55",
      "state_id": 5023,
      "country_id": 75
    },
    {
      "id": 156523,
      "name": "Andernay",
      "name_default": "Andernay",
      "native": "Andernay",
      "type": "city",
      "level": null,
      "parent_id": null,
      "population": 243,
      "latitude": "48.78265100",
      "longitude": "4.93179330",
      "timezone": "Europe/Paris",
      "wikiDataId": "Q230063",
      "country_code": "FR",
      "state_code": "55",
      "state_id": 5023,
      "country_id": 75
    },
    {
      "id": 156524,
      "name": "Apremont-la-Forêt",
      "name_default": "Apremont-la-Forêt",
      "native": "Apremont-la-Forêt",
      "type": "city",
      "level": null,
      "parent_id": null,
      "population": 425,
      "latitude": "48.84666850",
      "longitude": "5.53810130",
      "timezone": "Europe/Paris",
      "wikiDataId": "Q286407",
      "country_code": "FR",
      "state_code": "55",
      "state_id": 5023,
      "country_id": 75
    },
    {
      "id": 156525,
      "name": "Arrancy-sur-Crusnes",
      "name_default": "Arrancy-sur-Crusnes",
      "native": "Arrancy-sur-Crusnes",
      "type": "city",
      "level": null,
      "parent_id": null,
      "population": 458,
      "latitude": "49.41265820",
      "longitude": "5.60859030",
      "timezone": "Europe/Paris",
      "wikiDataId": "Q59686",
      "country_code": "FR",
      "state_code": "55",
      "state_id": 5023,
      "country_id": 75
    },
    {
      "id": 156526,
      "name": "Aubréville",
      "name_default": "Aubréville",
      "native": "Aubréville",
      "type": "city",
      "level": null,
      "parent_id": null,
      "population": 367,
      "latitude": "49.15977260",
      "longitude": "5.01532490",
      "timezone": "Europe/Paris",
      "wikiDataId": "Q1021049",
      "country_code": "FR",
      "state_code": "55",
      "state_id": 5023,
      "country_id": 75
    },
    {
      "id": 156527,
      "name": "Aulnois-en-Perthois",
      "name_default": "Aulnois-en-Perthois",
      "native": "Aulnois-en-Perthois",
      "type": "city",
      "level": null,
      "parent_id": null,
      "population": 470,
      "latitude": "48.63622250",
      "longitude": "5.10201810",
      "timezone": "Europe/Paris",
      "wikiDataId": "Q1021111",
      "country_code": "FR",
      "state_code": "55",
      "state_id": 5023,
      "country_id": 75
    },
    {
      "id": 156528,
      "name": "Autrécourt-sur-Aire",
      "name_default": "Autrécourt-sur-Aire",
      "native": "Autrécourt-sur-Aire",
      "type": "city",
      "level": null,
      "parent_id": null,
      "population": 112,
      "latitude": "49.02722290",
      "longitude": "5.10256540",
      "timezone": "Europe/Paris",
      "wikiDataId": "Q1021122",
      "country_code": "FR",
      "state_code": "55",
      "state_id": 5023,
      "country_id": 75
    },
    {
      "id": 156529,
      "name": "Autréville-Saint-Lambert",
      "name_default": "Autréville-Saint-Lambert",
      "native": "Autréville-Saint-Lambert",
      "type": "city",
      "level": null,
      "parent_id": null,
      "population": 35,
      "latitude": "49.56444980",
      "longitude": "5.11449740",
      "timezone": "Europe/Paris",
      "wikiDataId": "Q730620",
      "country_code": "FR",
      "state_code": "55",
      "state_id": 5023,
      "country_id": 75
    },
    {
      "id": 156530,
      "name": "Avillers-Sainte-Croix",
      "name_default": "Avillers-Sainte-Croix",
      "native": "Avillers-Sainte-Croix",
      "type": "city",
      "level": null,
      "parent_id": null,
      "population": 80,
      "latitude": "49.03371100",
      "longitude": "5.68130890",
      "timezone": "Europe/Paris",
      "wikiDataId": "Q1048594",
      "country_code": "FR",
      "state_code": "55",
      "state_id": 5023,
      "country_id": 75
    },
    {
      "id": 156531,
      "name": "Avioth",
      "name_default": "Avioth",
      "native": "Avioth",
      "type": "city",
      "level": null,
      "parent_id": null,
      "population": 2188,
      "latitude": "49.56734390",
      "longitude": "5.36901670",
      "timezone": "Europe/Paris",
      "wikiDataId": "Q227634",
      "country_code": "FR",
      "state_code": "55",
      "state_id": 5023,
      "country_id": 75
    },
    {
      "id": 156532,
      "name": "Awokado",
      "name_default": "Avocourt",
      "native": "Avocourt",
      "type": "city",
      "level": null,
      "parent_id": null,
      "population": 121,
      "latitude": "49.20457090",
      "longitude": "5.09943710",
      "timezone": "Europe/Paris",
      "wikiDataId": "Q473127",
      "country_code": "FR",
      "state_code": "55",
      "state_id": 5023,
      "country_id": 75
    },
    {
      "id": 156533,
      "name": "Azannes-et-Soumazannes",
      "name_default": "Azannes-et-Soumazannes",
      "native": "Azannes-et-Soumazannes",
      "type": "city",
      "level": null,
      "parent_id": null,
      "population": 160,
      "latitude": "49.28802350",
      "longitude": "5.42713150",
      "timezone": "Europe/Paris",
      "wikiDataId": "Q227629",
      "country_code": "FR",
      "state_code": "55",
      "state_id": 5023,
      "country_id": 75
    },
    {
      "id": 156534,
      "name": "Baâlon",
      "name_default": "Baâlon",
      "native": "Baâlon",
      "type": "city",
      "level": null,
      "parent_id": null,
      "population": 268,
      "latitude": "49.48503050",
      "longitude": "5.22105230",
      "timezone": "Europe/Paris",
      "wikiDataId": "Q473100",
      "country_code": "FR",
      "state_code": "55",
      "state_id": 5023,
      "country_id": 75
    },
    {
      "id": 156535,
      "name": "Badonvilliers-Gérauvilliers",
      "name_default": "Badonvilliers-Gérauvilliers",
      "native": "Badonvilliers-Gérauvilliers",
      "type": "city",
      "level": null,
      "parent_id": null,
      "population": 127,
      "latitude": "48.54338000",
      "longitude": "5.53683120",
      "timezone": "Europe/Paris",
      "wikiDataId": "Q1021104",
      "country_code": "FR",
      "state_code": "55",
      "state_id": 5023,
      "country_id": 75
    },
    {
      "id": 156536,
      "name": "Bannoncourt",
      "name_default": "Bannoncourt",
      "native": "Bannoncourt",
      "type": "city",
      "level": null,
      "parent_id": null,
      "population": 161,
      "latitude": "48.95506220",
      "longitude": "5.43923310",
      "timezone": "Europe/Paris",
      "wikiDataId": "Q430643",
      "country_code": "FR",
      "state_code": "55",
      "state_id": 5023,
      "country_id": 75
    },
    {
      "id": 156537,
      "name": "Bantheville",
      "name_default": "Bantheville",
      "native": "Bantheville",
      "type": "city",
      "level": null,
      "parent_id": null,
      "population": 103,
      "latitude": "49.35219980",
      "longitude": "5.03047660",
      "timezone": "Europe/Paris",
      "wikiDataId": "Q1087589",
      "country_code": "FR",
      "state_code": "55",
      "state_id": 5023,
      "country_id": 75
    },
    {
      "id": 156539,
      "name": "Baudonvilliers",
      "name_default": "Baudonvilliers",
      "native": "Baudonvilliers",
      "type": "city",
      "level": null,
      "parent_id": null,
      "population": 377,
      "latitude": "48.68944380",
      "longitude": "4.98494400",
      "timezone": "Europe/Paris",
      "wikiDataId": "Q1021077",
      "country_code": "FR",
      "state_code": "55",
      "state_id": 5023,
      "country_id": 75
    },
    {
      "id": 156540,
      "name": "Baudrémont",
      "name_default": "Baudrémont",
      "native": "Baudrémont",
      "type": "adm3",
      "level": null,
      "parent_id": null,
      "population": 41,
      "latitude": "48.83632990",
      "longitude": "5.37398420",
      "timezone": "Europe/Paris",
      "wikiDataId": "Q678733",
      "country_code": "FR",
      "state_code": "55",
      "state_id": 5023,
      "country_id": 75
    },
    {
      "id": 156541,
      "name": "Baulny",
      "name_default": "Baulny",
      "native": "Baulny",
      "type": "city",
      "level": null,
      "parent_id": null,
      "population": 20,
      "latitude": "49.26608760",
      "longitude": "5.00457180",
      "timezone": "Europe/Paris",
      "wikiDataId": "Q228779",
      "country_code": "FR",
      "state_code": "55",
      "state_id": 5023,
      "country_id": 75
    },
    {
      "id": 156542,
      "name": "Bazeilles-sur-Othain",
      "name_default": "Bazeilles-sur-Othain",
      "native": "Bazeilles-sur-Othain",
      "type": "city",
      "level": null,
      "parent_id": null,
      "population": 109,
      "latitude": "49.50065480",
      "longitude": "5.40665560",
      "timezone": "Europe/Paris",
      "wikiDataId": "Q665481",
      "country_code": "FR",
      "state_code": "55",
      "state_id": 5023,
      "country_id": 75
    },
    {
      "id": 156543,
      "name": "Bazincourt-sur-Saulx",
      "name_default": "Bazincourt-sur-Saulx",
      "native": "Bazincourt-sur-Saulx",
      "type": "city",
      "level": null,
      "parent_id": null,
      "population": 142,
      "latitude": "48.68737020",
      "longitude": "5.09979600",
      "timezone": "Europe/Paris",
      "wikiDataId": "Q229051",
      "country_code": "FR",
      "state_code": "55",
      "state_id": 5023,
      "country_id": 75
    },
    {
      "id": 156544,
      "name": "Beauclair",
      "name_default": "Beauclair",
      "native": "Beauclair",
      "type": "city",
      "level": null,
      "parent_id": null,
      "population": 90,
      "latitude": "49.44816660",
      "longitude": "5.10405100",
      "timezone": "Europe/Paris",
      "wikiDataId": "Q208307",
      "country_code": "FR",
      "state_code": "55",
      "state_id": 5023,
      "country_id": 75
    },
    {
      "id": 156545,
      "name": "Beaufort-en-Argonne",
      "name_default": "Beaufort-en-Argonne",
      "native": "Beaufort-en-Argonne",
      "type": "city",
      "level": null,
      "parent_id": null,
      "population": 127,
      "latitude": "49.48004650",
      "longitude": "5.08994040",
      "timezone": "Europe/Paris",
      "wikiDataId": "Q633394",
      "country_code": "FR",
      "state_code": "55",
      "state_id": 5023,
      "country_id": 75
    },
    {
      "id": 156546,
      "name": "Beaulieu-en-Argonne",
      "name_default": "Beaulieu-en-Argonne",
      "native": "Beaulieu-en-Argonne",
      "type": "city",
      "level": null,
      "parent_id": null,
      "population": 39,
      "latitude": "49.04495330",
      "longitude": "4.95134220",
      "timezone": "Europe/Paris",
      "wikiDataId": "Q1047760",
      "country_code": "FR",
      "state_code": "55",
      "state_id": 5023,
      "country_id": 75
    },
    {
      "id": 156547,
      "name": "Beaumont-en-Verdunois",
      "name_default": "Beaumont-en-Verdunois",
      "native": "Beaumont-en-Verdunois",
      "type": "city",
      "level": null,
      "parent_id": null,
      "population": 0,
      "latitude": "49.26503880",
      "longitude": "5.38276650",
      "timezone": "Europe/Paris",
      "wikiDataId": "Q474363",
      "country_code": "FR",
      "state_code": "55",
      "state_id": 5023,
      "country_id": 75
    },
    {
      "id": 156548,
      "name": "Beausite",
      "name_default": "Beausite",
      "native": "Beausite",
      "type": "city",
      "level": null,
      "parent_id": null,
      "population": 256,
      "latitude": "48.96575030",
      "longitude": "5.17705850",
      "timezone": "Europe/Paris",
      "wikiDataId": "Q602864",
      "country_code": "FR",
      "state_code": "55",
      "state_id": 5023,
      "country_id": 75
    },
    {
      "id": 156549,
      "name": "Behonne",
      "name_default": "Behonne",
      "native": "Behonne",
      "type": "adm2",
      "level": null,
      "parent_id": null,
      "population": 603,
      "latitude": "48.79775790",
      "longitude": "5.14955660",
      "timezone": "Europe/Paris",
      "wikiDataId": "Q222177",
      "country_code": "FR",
      "state_code": "55",
      "state_id": 5023,
      "country_id": 75
    },
    {
      "id": 156550,
      "name": "Belleray",
      "name_default": "Belleray",
      "native": "Belleray",
      "type": "city",
      "level": null,
      "parent_id": null,
      "population": 486,
      "latitude": "49.12816470",
      "longitude": "5.33195000",
      "timezone": "Europe/Paris",
      "wikiDataId": "Q426483",
      "country_code": "FR",
      "state_code": "55",
      "state_id": 5023,
      "country_id": 75
    },
    {
      "id": 156552,
      "name": "Belrain",
      "name_default": "Belrain",
      "native": "Belrain",
      "type": "city",
      "level": null,
      "parent_id": null,
      "population": 38,
      "latitude": "48.86166180",
      "longitude": "5.28584050",
      "timezone": "Europe/Paris",
      "wikiDataId": "Q212598",
      "country_code": "FR",
      "state_code": "55",
      "state_id": 5023,
      "country_id": 75
    },
    {
      "id": 156553,
      "name": "Belrupt-en-Verdunois",
      "name_default": "Belrupt-en-Verdunois",
      "native": "Belrupt-en-Verdunois",
      "type": "city",
      "level": null,
      "parent_id": null,
      "population": 541,
      "latitude": "49.14968100",
      "longitude": "5.40670410",
      "timezone": "Europe/Paris",
      "wikiDataId": "Q723959",
      "country_code": "FR",
      "state_code": "55",
      "state_id": 5023,
      "country_id": 75
    },
    {
      "id": 156554,
      "name": "Beney-en-Woëvre",
      "name_default": "Beney-en-Woëvre",
      "native": "Beney-en-Woëvre",
      "type": "city",
      "level": null,
      "parent_id": null,
      "population": 136,
      "latitude": "48.96326650",
      "longitude": "5.76147070",
      "timezone": "Europe/Paris",
      "wikiDataId": "Q221095",
      "country_code": "FR",
      "state_code": "55",
      "state_id": 5023,
      "country_id": 75
    },
    {
      "id": 156555,
      "name": "Béthelainville",
      "name_default": "Béthelainville",
      "native": "Béthelainville",
      "type": "city",
      "level": null,
      "parent_id": null,
      "population": 156,
      "latitude": "49.16937570",
      "longitude": "5.18317160",
      "timezone": "Europe/Paris",
      "wikiDataId": "Q1049406",
      "country_code": "FR",
      "state_code": "55",
      "state_id": 5023,
      "country_id": 75
    },
    {
      "id": 156556,
      "name": "Béthincourt",
      "name_default": "Béthincourt",
      "native": "Béthincourt",
      "type": "city",
      "level": null,
      "parent_id": null,
      "population": 47,
      "latitude": "49.24773570",
      "longitude": "5.17879730",
      "timezone": "Europe/Paris",
      "wikiDataId": "Q1047383",
      "country_code": "FR",
      "state_code": "55",
      "state_id": 5023,
      "country_id": 75
    },
    {
      "id": 156557,
      "name": "Beurey-sur-Saulx",
      "name_default": "Beurey-sur-Saulx",
      "native": "Beurey-sur-Saulx",
      "type": "city",
      "level": null,
      "parent_id": null,
      "population": 418,
      "latitude": "48.75928430",
      "longitude": "4.98768960",
      "timezone": "Europe/Paris",
      "wikiDataId": "Q222161",
      "country_code": "FR",
      "state_code": "55",
      "state_id": 5023,
      "country_id": 75
    },
    {
      "id": 156558,
      "name": "Bezonvaux",
      "name_default": "Bezonvaux",
      "native": "Bezonvaux",
      "type": "city",
      "level": null,
      "parent_id": null,
      "population": 0,
      "latitude": "49.22943350",
      "longitude": "5.43391160",
      "timezone": "Europe/Paris",
      "wikiDataId": "Q458720",
      "country_code": "FR",
      "state_code": "55",
      "state_id": 5023,
      "country_id": 75
    },
    {
      "id": 156559,
      "name": "Biencourt-sur-Orge",
      "name_default": "Biencourt-sur-Orge",
      "native": "Biencourt-sur-Orge",
      "type": "city",
      "level": null,
      "parent_id": null,
      "population": 112,
      "latitude": "48.56973070",
      "longitude": "5.30373790",
      "timezone": "Europe/Paris",
      "wikiDataId": "Q723971",
      "country_code": "FR",
      "state_code": "55",
      "state_id": 5023,
      "country_id": 75
    },
    {
      "id": 156560,
      "name": "Billy-sous-Mangiennes",
      "name_default": "Billy-sous-Mangiennes",
      "native": "Billy-sous-Mangiennes",
      "type": "city",
      "level": null,
      "parent_id": null,
      "population": 358,
      "latitude": "49.32213940",
      "longitude": "5.52382890",
      "timezone": "Europe/Paris",
      "wikiDataId": "Q59536",
      "country_code": "FR",
      "state_code": "55",
      "state_id": 5023,
      "country_id": 75
    },
    {
      "id": 156561,
      "name": "Bislée",
      "name_default": "Bislée",
      "native": "Bislée",
      "type": "city",
      "level": null,
      "parent_id": null,
      "population": 62,
      "latitude": "48.87218620",
      "longitude": "5.48834500",
      "timezone": "Europe/Paris",
      "wikiDataId": "Q228140",
      "country_code": "FR",
      "state_code": "55",
      "state_id": 5023,
      "country_id": 75
    },
    {
      "id": 156562,
      "name": "Blanzée",
      "name_default": "Blanzée",
      "native": "Blanzée",
      "type": "city",
      "level": null,
      "parent_id": null,
      "population": 13,
      "latitude": "49.16092680",
      "longitude": "5.51290460",
      "timezone": "Europe/Paris",
      "wikiDataId": "Q1046708",
      "country_code": "FR",
      "state_code": "55",
      "state_id": 5023,
      "country_id": 75
    },
    {
      "id": 156563,
      "name": "Boinville-en-Woëvre",
      "name_default": "Boinville-en-Woëvre",
      "native": "Boinville-en-Woëvre",
      "type": "city",
      "level": null,
      "parent_id": null,
      "population": 77,
      "latitude": "49.18807600",
      "longitude": "5.65839910",
      "timezone": "Europe/Paris",
      "wikiDataId": "Q550100",
      "country_code": "FR",
      "state_code": "55",
      "state_id": 5023,
      "country_id": 75
    },
    {
      "id": 156564,
      "name": "Boncourt-sur-Meuse",
      "name_default": "Boncourt-sur-Meuse",
      "native": "Boncourt-sur-Meuse",
      "type": "city",
      "level": null,
      "parent_id": null,
      "population": 319,
      "latitude": "48.81156610",
      "longitude": "5.54251880",
      "timezone": "Europe/Paris",
      "wikiDataId": "Q723955",
      "country_code": "FR",
      "state_code": "55",
      "state_id": 5023,
      "country_id": 75
    },
    {
      "id": 156565,
      "name": "Czapeczka",
      "name_default": "Bonnet",
      "native": "Bonnet",
      "type": "city",
      "level": null,
      "parent_id": null,
      "population": 181,
      "latitude": "48.52428290",
      "longitude": "5.38061550",
      "timezone": "Europe/Paris",
      "wikiDataId": "Q59730",
      "country_code": "FR",
      "state_code": "55",
      "state_id": 5023,
      "country_id": 75
    },
    {
      "id": 156566,
      "name": "Bonzée",
      "name_default": "Bonzée",
      "native": "Bonzée",
      "type": "city",
      "level": null,
      "parent_id": null,
      "population": 367,
      "latitude": "49.08936250",
      "longitude": "5.52794380",
      "timezone": "Europe/Paris",
      "wikiDataId": "Q227991",
      "country_code": "FR",
      "state_code": "55",
      "state_id": 5023,
      "country_id": 75
    },
    {
      "id": 156567,
      "name": "Bouconville-sur-Madt",
      "name_default": "Bouconville-sur-Madt",
      "native": "Bouconville-sur-Madt",
      "type": "city",
      "level": null,
      "parent_id": null,
      "population": 100,
      "latitude": "48.84400040",
      "longitude": "5.68321140",
      "timezone": "Europe/Paris",
      "wikiDataId": "Q1049390",
      "country_code": "FR",
      "state_code": "55",
      "state_id": 5023,
      "country_id": 75
    },
    {
      "id": 156569,
      "name": "Bouquemont",
      "name_default": "Bouquemont",
      "native": "Bouquemont",
      "type": "adm3",
      "level": null,
      "parent_id": null,
      "population": 118,
      "latitude": "48.98252930",
      "longitude": "5.38611640",
      "timezone": "Europe/Paris",
      "wikiDataId": "Q951868",
      "country_code": "FR",
      "state_code": "55",
      "state_id": 5023,
      "country_id": 75
    },
    {
      "id": 156570,
      "name": "Boureuilles",
      "name_default": "Boureuilles",
      "native": "Boureuilles",
      "type": "city",
      "level": null,
      "parent_id": null,
      "population": 117,
      "latitude": "49.19876160",
      "longitude": "4.93943150",
      "timezone": "Europe/Paris",
      "wikiDataId": "Q584112",
      "country_code": "FR",
      "state_code": "55",
      "state_id": 5023,
      "country_id": 75
    },
    {
      "id": 156571,
      "name": "Bovée-sur-Barboure",
      "name_default": "Bovée-sur-Barboure",
      "native": "Bovée-sur-Barboure",
      "type": "city",
      "level": null,
      "parent_id": null,
      "population": 130,
      "latitude": "48.63655590",
      "longitude": "5.47106230",
      "timezone": "Europe/Paris",
      "wikiDataId": "Q1098455",
      "country_code": "FR",
      "state_code": "55",
      "state_id": 5023,
      "country_id": 75
    },
    {
      "id": 156572,
      "name": "Boviolles",
      "name_default": "Boviolles",
      "native": "Boviolles",
      "type": "city",
      "level": null,
      "parent_id": null,
      "population": 97,
      "latitude": "48.64329430",
      "longitude": "5.39484800",
      "timezone": "Europe/Paris",
      "wikiDataId": "Q1096745",
      "country_code": "FR",
      "state_code": "55",
      "state_id": 5023,
      "country_id": 75
    },
    {
      "id": 156573,
      "name": "Brabancja-Argonna",
      "name_default": "Brabant-en-Argonne",
      "native": "Brabant-en-Argonne",
      "type": "city",
      "level": null,
      "parent_id": null,
      "population": 100,
      "latitude": "49.11984150",
      "longitude": "5.10926080",
      "timezone": "Europe/Paris",
      "wikiDataId": "Q723796",
      "country_code": "FR",
      "state_code": "55",
      "state_id": 5023,
      "country_id": 75
    },
    {
      "id": 156574,
      "name": "Brabancja Królewska",
      "name_default": "Brabant-le-Roi",
      "native": "Brabant-le-Roi",
      "type": "city",
      "level": null,
      "parent_id": null,
      "population": 222,
      "latitude": "48.85758340",
      "longitude": "4.93707330",
      "timezone": "Europe/Paris",
      "wikiDataId": "Q221157",
      "country_code": "FR",
      "state_code": "55",
      "state_id": 5023,
      "country_id": 75
    },
    {
      "id": 156575,
      "name": "Brabancja-nad-Mozą",
      "name_default": "Brabant-sur-Meuse",
      "native": "Brabant-sur-Meuse",
      "type": "city",
      "level": null,
      "parent_id": null,
      "population": 117,
      "latitude": "49.28018550",
      "longitude": "5.30167730",
      "timezone": "Europe/Paris",
      "wikiDataId": "Q934274",
      "country_code": "FR",
      "state_code": "55",
      "state_id": 5023,
      "country_id": 75
    },
    {
      "id": 156576,
      "name": "Brandeville",
      "name_default": "Brandeville",
      "native": "Brandeville",
      "type": "city",
      "level": null,
      "parent_id": null,
      "population": 172,
      "latitude": "49.39148270",
      "longitude": "5.26739040",
      "timezone": "Europe/Paris",
      "wikiDataId": "Q211850",
      "country_code": "FR",
      "state_code": "55",
      "state_id": 5023,
      "country_id": 75
    },
    {
      "id": 156577,
      "name": "Braquis",
      "name_default": "Braquis",
      "native": "Braquis",
      "type": "city",
      "level": null,
      "parent_id": null,
      "population": 104,
      "latitude": "49.15631520",
      "longitude": "5.60512950",
      "timezone": "Europe/Paris",
      "wikiDataId": "Q1047415",
      "country_code": "FR",
      "state_code": "55",
      "state_id": 5023,
      "country_id": 75
    },
    {
      "id": 156578,
      "name": "Bras-sur-Meuse",
      "name_default": "Bras-sur-Meuse",
      "native": "Bras-sur-Meuse",
      "type": "city",
      "level": null,
      "parent_id": null,
      "population": 669,
      "latitude": "49.20744030",
      "longitude": "5.36994010",
      "timezone": "Europe/Paris",
      "wikiDataId": "Q1049872",
      "country_code": "FR",
      "state_code": "55",
      "state_id": 5023,
      "country_id": 75
    },
    {
      "id": 156579,
      "name": "Brauvilliers",
      "name_default": "Brauvilliers",
      "native": "Brauvilliers",
      "type": "city",
      "level": null,
      "parent_id": null,
      "population": 164,
      "latitude": "48.57677050",
      "longitude": "5.13436530",
      "timezone": "Europe/Paris",
      "wikiDataId": "Q724209",
      "country_code": "FR",
      "state_code": "55",
      "state_id": 5023,
      "country_id": 75
    },
    {
      "id": 156580,
      "name": "Bréhéville",
      "name_default": "Bréhéville",
      "native": "Bréhéville",
      "type": "city",
      "level": null,
      "parent_id": null,
      "population": 186,
      "latitude": "49.38276840",
      "longitude": "5.28926900",
      "timezone": "Europe/Paris",
      "wikiDataId": "Q685551",
      "country_code": "FR",
      "state_code": "55",
      "state_id": 5023,
      "country_id": 75
    },
    {
      "id": 156581,
      "name": "Breux",
      "name_default": "Breux",
      "native": "Breux",
      "type": "city",
      "level": null,
      "parent_id": null,
      "population": 261,
      "latitude": "49.59296770",
      "longitude": "5.35490690",
      "timezone": "Europe/Paris",
      "wikiDataId": "Q1161985",
      "country_code": "FR",
      "state_code": "55",
      "state_id": 5023,
      "country_id": 75
    },
    {
      "id": 156582,
      "name": "Brieulles-sur-Meuse",
      "name_default": "Brieulles-sur-Meuse",
      "native": "Brieulles-sur-Meuse",
      "type": "city",
      "level": null,
      "parent_id": null,
      "population": 311,
      "latitude": "49.32830230",
      "longitude": "5.13096880",
      "timezone": "Europe/Paris",
      "wikiDataId": "Q1385109",
      "country_code": "FR",
      "state_code": "55",
      "state_id": 5023,
      "country_id": 75
    },
    {
      "id": 156583,
      "name": "Brillon-en-Barrois",
      "name_default": "Brillon-en-Barrois",
      "native": "Brillon-en-Barrois",
      "type": "city",
      "level": null,
      "parent_id": null,
      "population": 713,
      "latitude": "48.71708160",
      "longitude": "5.06660850",
      "timezone": "Europe/Paris",
      "wikiDataId": "Q724236",
      "country_code": "FR",
      "state_code": "55",
      "state_id": 5023,
      "country_id": 75
    },
    {
      "id": 156584,
      "name": "Brixey-aux-Chanoines",
      "name_default": "Brixey-aux-Chanoines",
      "native": "Brixey-aux-Chanoines",
      "type": "city",
      "level": null,
      "parent_id": null,
      "population": 78,
      "latitude": "48.47541490",
      "longitude": "5.69548150",
      "timezone": "Europe/Paris",
      "wikiDataId": "Q217471",
      "country_code": "FR",
      "state_code": "55",
      "state_id": 5023,
      "country_id": 75
    },
    {
      "id": 156585,
      "name": "Brizeaux",
      "name_default": "Brizeaux",
      "native": "Brizeaux",
      "type": "city",
      "level": null,
      "parent_id": null,
      "population": 62,
      "latitude": "49.00537420",
      "longitude": "5.03490360",
      "timezone": "Europe/Paris",
      "wikiDataId": "Q1049392",
      "country_code": "FR",
      "state_code": "55",
      "state_id": 5023,
      "country_id": 75
    },
    {
      "id": 156586,
      "name": "Brocourt-en-Argonne",
      "name_default": "Brocourt-en-Argonne",
      "native": "Brocourt-en-Argonne",
      "type": "adm2",
      "level": null,
      "parent_id": null,
      "population": 46,
      "latitude": "49.11169840",
      "longitude": "5.15081550",
      "timezone": "Europe/Paris",
      "wikiDataId": "Q724462",
      "country_code": "FR",
      "state_code": "55",
      "state_id": 5023,
      "country_id": 75
    },
    {
      "id": 156587,
      "name": "Brouennes",
      "name_default": "Brouennes",
      "native": "Brouennes",
      "type": "city",
      "level": null,
      "parent_id": null,
      "population": 161,
      "latitude": "49.52228260",
      "longitude": "5.23014080",
      "timezone": "Europe/Paris",
      "wikiDataId": "Q228366",
      "country_code": "FR",
      "state_code": "55",
      "state_id": 5023,
      "country_id": 75
    },
    {
      "id": 156588,
      "name": "Broussey-en-Blois",
      "name_default": "Broussey-en-Blois",
      "native": "Broussey-en-Blois",
      "type": "city",
      "level": null,
      "parent_id": null,
      "population": 57,
      "latitude": "48.63423170",
      "longitude": "5.51211270",
      "timezone": "Europe/Paris",
      "wikiDataId": "Q685882",
      "country_code": "FR",
      "state_code": "55",
      "state_id": 5023,
      "country_id": 75
    },
    {
      "id": 156589,
      "name": "Broussey-Raulecourt",
      "name_default": "Broussey-Raulecourt",
      "native": "Broussey-Raulecourt",
      "type": "city",
      "level": null,
      "parent_id": null,
      "population": 285,
      "latitude": "48.81420930",
      "longitude": "5.67384860",
      "timezone": "Europe/Paris",
      "wikiDataId": "Q1049888",
      "country_code": "FR",
      "state_code": "55",
      "state_id": 5023,
      "country_id": 75
    },
    {
      "id": 156590,
      "name": "Bure",
      "name_default": "Bure",
      "native": "Bure",
      "type": "city",
      "level": null,
      "parent_id": null,
      "population": 88,
      "latitude": "48.50617190",
      "longitude": "5.30068860",
      "timezone": "Europe/Paris",
      "wikiDataId": "Q836196",
      "country_code": "FR",
      "state_code": "55",
      "state_id": 5023,
      "country_id": 75
    },
    {
      "id": 156591,
      "name": "Burey-en-Vaux",
      "name_default": "Burey-en-Vaux",
      "native": "Burey-en-Vaux",
      "type": "city",
      "level": null,
      "parent_id": null,
      "population": 157,
      "latitude": "48.55584050",
      "longitude": "5.60489550",
      "timezone": "Europe/Paris",
      "wikiDataId": "Q209969",
      "country_code": "FR",
      "state_code": "55",
      "state_id": 5023,
      "country_id": 75
    },
    {
      "id": 156592,
      "name": "Burey-la-Côte",
      "name_default": "Burey-la-Côte",
      "native": "Burey-la-Côte",
      "type": "city",
      "level": null,
      "parent_id": null,
      "population": 86,
      "latitude": "48.50108450",
      "longitude": "5.66313430",
      "timezone": "Europe/Paris",
      "wikiDataId": "Q1047295",
      "country_code": "FR",
      "state_code": "55",
      "state_id": 5023,
      "country_id": 75
    },
    {
      "id": 156593,
      "name": "Buxières-sous-les-Côtes",
      "name_default": "Buxières-sous-les-Côtes",
      "native": "Buxières-sous-les-Côtes",
      "type": "city",
      "level": null,
      "parent_id": null,
      "population": 266,
      "latitude": "48.90551910",
      "longitude": "5.64024070",
      "timezone": "Europe/Paris",
      "wikiDataId": "Q1048039",
      "country_code": "FR",
      "state_code": "55",
      "state_id": 5023,
      "country_id": 75
    },
    {
      "id": 156594,
      "name": "Buzy-Darmont",
      "name_default": "Buzy-Darmont",
      "native": "Buzy-Darmont",
      "type": "city",
      "level": null,
      "parent_id": null,
      "population": 524,
      "latitude": "49.17104480",
      "longitude": "5.67398990",
      "timezone": "Europe/Paris",
      "wikiDataId": "Q1048050",
      "country_code": "FR",
      "state_code": "55",
      "state_id": 5023,
      "country_id": 75
    },
    {
      "id": 156595,
      "name": "Cesse",
      "name_default": "Cesse",
      "native": "Cesse",
      "type": "city",
      "level": null,
      "parent_id": null,
      "population": 113,
      "latitude": "49.50861990",
      "longitude": "5.11759360",
      "timezone": "Europe/Paris",
      "wikiDataId": "Q1098428",
      "country_code": "FR",
      "state_code": "55",
      "state_id": 5023,
      "country_id": 75
    },
    {
      "id": 156596,
      "name": "Chaillon",
      "name_default": "Chaillon",
      "native": "Chaillon",
      "type": "city",
      "level": null,
      "parent_id": null,
      "population": 110,
      "latitude": "48.94960800",
      "longitude": "5.61048030",
      "timezone": "Europe/Paris",
      "wikiDataId": "Q227571",
      "country_code": "FR",
      "state_code": "55",
      "state_id": 5023,
      "country_id": 75
    },
    {
      "id": 156597,
      "name": "Chalaines",
      "name_default": "Chalaines",
      "native": "Chalaines",
      "type": "city",
      "level": null,
      "parent_id": null,
      "population": 304,
      "latitude": "48.59631660",
      "longitude": "5.67679300",
      "timezone": "Europe/Paris",
      "wikiDataId": "Q227567",
      "country_code": "FR",
      "state_code": "55",
      "state_id": 5023,
      "country_id": 75
    },
    {
      "id": 156598,
      "name": "Champneuville",
      "name_default": "Champneuville",
      "native": "Champneuville",
      "type": "city",
      "level": null,
      "parent_id": null,
      "population": 119,
      "latitude": "49.23773020",
      "longitude": "5.29069960",
      "timezone": "Europe/Paris",
      "wikiDataId": "Q1048412",
      "country_code": "FR",
      "state_code": "55",
      "state_id": 5023,
      "country_id": 75
    },
    {
      "id": 156599,
      "name": "Szampan",
      "name_default": "Champougny",
      "native": "Champougny",
      "type": "adm3",
      "level": null,
      "parent_id": null,
      "population": 86,
      "latitude": "48.54366520",
      "longitude": "5.68076440",
      "timezone": "Europe/Paris",
      "wikiDataId": "Q211056",
      "country_code": "FR",
      "state_code": "55",
      "state_id": 5023,
      "country_id": 75
    },
    {
      "id": 156600,
      "name": "Pieprznik pospolity",
      "name_default": "Chanteraine",
      "native": "Chanteraine",
      "type": "city",
      "level": null,
      "parent_id": null,
      "population": 186,
      "latitude": "48.67540010",
      "longitude": "5.34771790",
      "timezone": "Europe/Paris",
      "wikiDataId": "Q1095905",
      "country_code": "FR",
      "state_code": "55",
      "state_id": 5023,
      "country_id": 75
    },
    {
      "id": 156601,
      "name": "Chardogne",
      "name_default": "Chardogne",
      "native": "Chardogne",
      "type": "city",
      "level": null,
      "parent_id": null,
      "population": 302,
      "latitude": "48.82633270",
      "longitude": "5.08644240",
      "timezone": "Europe/Paris",
      "wikiDataId": "Q1047438",
      "country_code": "FR",
      "state_code": "55",
      "state_id": 5023,
      "country_id": 75
    },
    {
      "id": 156602,
      "name": "Charny-sur-Meuse",
      "name_default": "Charny-sur-Meuse",
      "native": "Charny-sur-Meuse",
      "type": "city",
      "level": null,
      "parent_id": null,
      "population": 521,
      "latitude": "49.20240380",
      "longitude": "5.32159870",
      "timezone": "Europe/Paris",
      "wikiDataId": "Q1060021",
      "country_code": "FR",
      "state_code": "55",
      "state_id": 5023,
      "country_id": 75
    },
    {
      "id": 156603,
      "name": "Wędkarstwo",
      "name_default": "Charpentry",
      "native": "Charpentry",
      "type": "city",
      "level": null,
      "parent_id": null,
      "population": 23,
      "latitude": "49.25820080",
      "longitude": "5.02068500",
      "timezone": "Europe/Paris",
      "wikiDataId": "Q724251",
      "country_code": "FR",
      "state_code": "55",
      "state_id": 5023,
      "country_id": 75
    },
    {
      "id": 156604,
      "name": "Chassey-Beaupré",
      "name_default": "Chassey-Beaupré",
      "native": "Chassey-Beaupré",
      "type": "city",
      "level": null,
      "parent_id": null,
      "population": 87,
      "latitude": "48.44462180",
      "longitude": "5.39618320",
      "timezone": "Europe/Paris",
      "wikiDataId": "Q1049489",
      "country_code": "FR",
      "state_code": "55",
      "state_id": 5023,
      "country_id": 75
    },
    {
      "id": 156605,
      "name": "Châtillon-sous-les-Côtes",
      "name_default": "Châtillon-sous-les-Côtes",
      "native": "Châtillon-sous-les-Côtes",
      "type": "city",
      "level": null,
      "parent_id": null,
      "population": 174,
      "latitude": "49.13929530",
      "longitude": "5.47165910",
      "timezone": "Europe/Paris",
      "wikiDataId": "Q222954",
      "country_code": "FR",
      "state_code": "55",
      "state_id": 5023,
      "country_id": 75
    },
    {
      "id": 156606,
      "name": "Chattancourt",
      "name_default": "Chattancourt",
      "native": "Chattancourt",
      "type": "city",
      "level": null,
      "parent_id": null,
      "population": 176,
      "latitude": "49.21543200",
      "longitude": "5.22409810",
      "timezone": "Europe/Paris",
      "wikiDataId": "Q724213",
      "country_code": "FR",
      "state_code": "55",
      "state_id": 5023,
      "country_id": 75
    },
    {
      "id": 156607,
      "name": "Chaumont-devant-Damvillers",
      "name_default": "Chaumont-devant-Damvillers",
      "native": "Chaumont-devant-Damvillers",
      "type": "city",
      "level": null,
      "parent_id": null,
      "population": 46,
      "latitude": "49.31078030",
      "longitude": "5.41337090",
      "timezone": "Europe/Paris",
      "wikiDataId": "Q724031",
      "country_code": "FR",
      "state_code": "55",
      "state_id": 5023,
      "country_id": 75
    },
    {
      "id": 156608,
      "name": "Chaumont-sur-Aire",
      "name_default": "Chaumont-sur-Aire",
      "native": "Chaumont-sur-Aire",
      "type": "city",
      "level": null,
      "parent_id": null,
      "population": 120,
      "latitude": "48.92317480",
      "longitude": "5.22943310",
      "timezone": "Europe/Paris",
      "wikiDataId": "Q1049453",
      "country_code": "FR",
      "state_code": "55",
      "state_id": 5023,
      "country_id": 75
    },
    {
      "id": 156609,
      "name": "Chauvency-le-Château",
      "name_default": "Chauvency-le-Château",
      "native": "Chauvency-le-Château",
      "type": "city",
      "level": null,
      "parent_id": null,
      "population": 225,
      "latitude": "49.52816520",
      "longitude": "5.26469820",
      "timezone": "Europe/Paris",
      "wikiDataId": "Q217399",
      "country_code": "FR",
      "state_code": "55",
      "state_id": 5023,
      "country_id": 75
    },
    {
      "id": 156610,
      "name": "Chauvency-Saint-Hubert",
      "name_default": "Chauvency-Saint-Hubert",
      "native": "Chauvency-Saint-Hubert",
      "type": "city",
      "level": null,
      "parent_id": null,
      "population": 216,
      "latitude": "49.53857260",
      "longitude": "5.27781260",
      "timezone": "Europe/Paris",
      "wikiDataId": "Q1098505",
      "country_code": "FR",
      "state_code": "55",
      "state_id": 5023,
      "country_id": 75
    },
    {
      "id": 156611,
      "name": "Chauvoncourt",
      "name_default": "Chauvoncourt",
      "native": "Chauvoncourt",
      "type": "city",
      "level": null,
      "parent_id": null,
      "population": 432,
      "latitude": "48.89397020",
      "longitude": "5.45227170",
      "timezone": "Europe/Paris",
      "wikiDataId": "Q724023",
      "country_code": "FR",
      "state_code": "55",
      "state_id": 5023,
      "country_id": 75
    },
    {
      "id": 156612,
      "name": "Cheppy",
      "name_default": "Cheppy",
      "native": "Cheppy",
      "type": "city",
      "level": null,
      "parent_id": null,
      "population": 155,
      "latitude": "49.22691970",
      "longitude": "5.03692550",
      "timezone": "Europe/Paris",
      "wikiDataId": "Q194089",
      "country_code": "FR",
      "state_code": "55",
      "state_id": 5023,
      "country_id": 75
    },
    {
      "id": 156613,
      "name": "Chonville-Malaumont",
      "name_default": "Chonville-Malaumont",
      "native": "Chonville-Malaumont",
      "type": "city",
      "level": null,
      "parent_id": null,
      "population": 167,
      "latitude": "48.75918510",
      "longitude": "5.44537090",
      "timezone": "Europe/Paris",
      "wikiDataId": "Q723966",
      "country_code": "FR",
      "state_code": "55",
      "state_id": 5023,
      "country_id": 75
    },
    {
      "id": 156614,
      "name": "Cierges-sous-Montfaucon",
      "name_default": "Cierges-sous-Montfaucon",
      "native": "Cierges-sous-Montfaucon",
      "type": "city",
      "level": null,
      "parent_id": null,
      "population": 45,
      "latitude": "49.30086390",
      "longitude": "5.04903330",
      "timezone": "Europe/Paris",
      "wikiDataId": "Q649455",
      "country_code": "FR",
      "state_code": "55",
      "state_id": 5023,
      "country_id": 75
    },
    {
      "id": 156616,
      "name": "Cléry-le-Grand",
      "name_default": "Cléry-le-Grand",
      "native": "Cléry-le-Grand",
      "type": "city",
      "level": null,
      "parent_id": null,
      "population": 89,
      "latitude": "49.36199880",
      "longitude": "5.12141630",
      "timezone": "Europe/Paris",
      "wikiDataId": "Q1157518",
      "country_code": "FR",
      "state_code": "55",
      "state_id": 5023,
      "country_id": 75
    },
    {
      "id": 156617,
      "name": "Cléry-le-Petit",
      "name_default": "Cléry-le-Petit",
      "native": "Cléry-le-Petit",
      "type": "city",
      "level": null,
      "parent_id": null,
      "population": 189,
      "latitude": "49.36466670",
      "longitude": "5.14508480",
      "timezone": "Europe/Paris",
      "wikiDataId": "Q209246",
      "country_code": "FR",
      "state_code": "55",
      "state_id": 5023,
      "country_id": 75
    },
    {
      "id": 156618,
      "name": "Combles-en-Barrois",
      "name_default": "Combles-en-Barrois",
      "native": "Combles-en-Barrois",
      "type": "city",
      "level": null,
      "parent_id": null,
      "population": 773,
      "latitude": "48.74269090",
      "longitude": "5.09174410",
      "timezone": "Europe/Paris",
      "wikiDataId": "Q1096974",
      "country_code": "FR",
      "state_code": "55",
      "state_id": 5023,
      "country_id": 75
    },
    {
      "id": 156619,
      "name": "Combres-sous-les-Côtes",
      "name_default": "Combres-sous-les-Côtes",
      "native": "Combres-sous-les-Côtes",
      "type": "city",
      "level": null,
      "parent_id": null,
      "population": 108,
      "latitude": "49.06337160",
      "longitude": "5.59950120",
      "timezone": "Europe/Paris",
      "wikiDataId": "Q1160924",
      "country_code": "FR",
      "state_code": "55",
      "state_id": 5023,
      "country_id": 75
    },
    {
      "id": 156621,
      "name": "Konsenvoye",
      "name_default": "Consenvoye",
      "native": "Consenvoye",
      "type": "city",
      "level": null,
      "parent_id": null,
      "population": 290,
      "latitude": "49.29606920",
      "longitude": "5.27234190",
      "timezone": "Europe/Paris",
      "wikiDataId": "Q209962",
      "country_code": "FR",
      "state_code": "55",
      "state_id": 5023,
      "country_id": 75
    },
    {
      "id": 156622,
      "name": "Contrisson",
      "name_default": "Contrisson",
      "native": "Contrisson",
      "type": "city",
      "level": null,
      "parent_id": null,
      "population": 773,
      "latitude": "48.80288550",
      "longitude": "4.91588870",
      "timezone": "Europe/Paris",
      "wikiDataId": "Q724007",
      "country_code": "FR",
      "state_code": "55",
      "state_id": 5023,
      "country_id": 75
    },
    {
      "id": 156623,
      "name": "Courcelles-en-Barrois",
      "name_default": "Courcelles-en-Barrois",
      "native": "Courcelles-en-Barrois",
      "type": "city",
      "level": null,
      "parent_id": null,
      "population": 51,
      "latitude": "48.82518430",
      "longitude": "5.38643030",
      "timezone": "Europe/Paris",
      "wikiDataId": "Q723997",
      "country_code": "FR",
      "state_code": "55",
      "state_id": 5023,
      "country_id": 75
    },
    {
      "id": 156624,
      "name": "Courcelles-sur-Aire",
      "name_default": "Courcelles-sur-Aire",
      "native": "Courcelles-sur-Aire",
      "type": "city",
      "level": null,
      "parent_id": null,
      "population": 42,
      "latitude": "48.94070550",
      "longitude": "5.19180790",
      "timezone": "Europe/Paris",
      "wikiDataId": "Q1096176",
      "country_code": "FR",
      "state_code": "55",
      "state_id": 5023,
      "country_id": 75
    },
    {
      "id": 156625,
      "name": "Courouvre",
      "name_default": "Courouvre",
      "native": "Courouvre",
      "type": "city",
      "level": null,
      "parent_id": null,
      "population": 41,
      "latitude": "48.94540440",
      "longitude": "5.33629130",
      "timezone": "Europe/Paris",
      "wikiDataId": "Q210705",
      "country_code": "FR",
      "state_code": "55",
      "state_id": 5023,
      "country_id": 75
    },
    {
      "id": 156626,
      "name": "Cousances-les-Forges",
      "name_default": "Cousances-les-Forges",
      "native": "Cousances-les-Forges",
      "type": "city",
      "level": null,
      "parent_id": null,
      "population": 1644,
      "latitude": "48.61826840",
      "longitude": "5.04726340",
      "timezone": "Europe/Paris",
      "wikiDataId": "Q220738",
      "country_code": "FR",
      "state_code": "55",
      "state_id": 5023,
      "country_id": 75
    },
    {
      "id": 156627,
      "name": "Cousances-lès-Triconville",
      "name_default": "Cousances-lès-Triconville",
      "native": "Cousances-lès-Triconville",
      "type": "city",
      "level": null,
      "parent_id": null,
      "population": 146,
      "latitude": "48.77029360",
      "longitude": "5.36191510",
      "timezone": "Europe/Paris",
      "wikiDataId": "Q194282",
      "country_code": "FR",
      "state_code": "55",
      "state_id": 5023,
      "country_id": 75
    },
    {
      "id": 156628,
      "name": "Couvertpuis",
      "name_default": "Couvertpuis",
      "native": "Couvertpuis",
      "type": "city",
      "level": null,
      "parent_id": null,
      "population": 82,
      "latitude": "48.58014930",
      "longitude": "5.28529890",
      "timezone": "Europe/Paris",
      "wikiDataId": "Q724040",
      "country_code": "FR",
      "state_code": "55",
      "state_id": 5023,
      "country_id": 75
    },
    {
      "id": 156629,
      "name": "Couvonges",
      "name_default": "Couvonges",
      "native": "Couvonges",
      "type": "city",
      "level": null,
      "parent_id": null,
      "population": 153,
      "latitude": "48.77718840",
      "longitude": "5.01707740",
      "timezone": "Europe/Paris",
      "wikiDataId": "Q668820",
      "country_code": "FR",
      "state_code": "55",
      "state_id": 5023,
      "country_id": 75
    },
    {
      "id": 156630,
      "name": "Cuisy",
      "name_default": "Cuisy",
      "native": "Cuisy",
      "type": "city",
      "level": null,
      "parent_id": null,
      "population": 471,
      "latitude": "49.26836240",
      "longitude": "5.16782620",
      "timezone": "Europe/Paris",
      "wikiDataId": "Q1095723",
      "country_code": "FR",
      "state_code": "55",
      "state_id": 5023,
      "country_id": 75
    },
    {
      "id": 156631,
      "name": "Culey",
      "name_default": "Culey",
      "native": "Culey",
      "type": "city",
      "level": null,
      "parent_id": null,
      "population": 474,
      "latitude": "48.76706400",
      "longitude": "5.23013760",
      "timezone": "Europe/Paris",
      "wikiDataId": "Q16305797",
      "country_code": "FR",
      "state_code": "55",
      "state_id": 5023,
      "country_id": 75
    },
    {
      "id": 156632,
      "name": "Cumières-le-Mort-Homme",
      "name_default": "Cumières-le-Mort-Homme",
      "native": "Cumières-le-Mort-Homme",
      "type": "city",
      "level": null,
      "parent_id": null,
      "population": 0,
      "latitude": "49.23403960",
      "longitude": "5.22347290",
      "timezone": "Europe/Paris",
      "wikiDataId": "Q633275",
      "country_code": "FR",
      "state_code": "55",
      "state_id": 5023,
      "country_id": 75
    },
    {
      "id": 156633,
      "name": "Cunel",
      "name_default": "Cunel",
      "native": "Cunel",
      "type": "city",
      "level": null,
      "parent_id": null,
      "population": 22,
      "latitude": "49.33130970",
      "longitude": "5.09780700",
      "timezone": "Europe/Paris",
      "wikiDataId": "Q1161644",
      "country_code": "FR",
      "state_code": "55",
      "state_id": 5023,
      "country_id": 75
    },
    {
      "id": 156634,
      "name": "Dagonville",
      "name_default": "Dagonville",
      "native": "Dagonville",
      "type": "city",
      "level": null,
      "parent_id": null,
      "population": 86,
      "latitude": "48.79035680",
      "longitude": "5.34194090",
      "timezone": "Europe/Paris",
      "wikiDataId": "Q229216",
      "country_code": "FR",
      "state_code": "55",
      "state_id": 5023,
      "country_id": 75
    },
    {
      "id": 156635,
      "name": "Dainville-Bertheléville",
      "name_default": "Dainville-Bertheléville",
      "native": "Dainville-Bertheléville",
      "type": "city",
      "level": null,
      "parent_id": null,
      "population": 121,
      "latitude": "48.45076010",
      "longitude": "5.47221330",
      "timezone": "Europe/Paris",
      "wikiDataId": "Q1414380",
      "country_code": "FR",
      "state_code": "55",
      "state_id": 5023,
      "country_id": 75
    },
    {
      "id": 156636,
      "name": "Damloup",
      "name_default": "Damloup",
      "native": "Damloup",
      "type": "city",
      "level": null,
      "parent_id": null,
      "population": 126,
      "latitude": "49.19852150",
      "longitude": "5.45380840",
      "timezone": "Europe/Paris",
      "wikiDataId": "Q1098060",
      "country_code": "FR",
      "state_code": "55",
      "state_id": 5023,
      "country_id": 75
    },
    {
      "id": 156637,
      "name": "Dammarie-sur-Saulx",
      "name_default": "Dammarie-sur-Saulx",
      "native": "Dammarie-sur-Saulx",
      "type": "city",
      "level": null,
      "parent_id": null,
      "population": 369,
      "latitude": "48.59881920",
      "longitude": "5.15605990",
      "timezone": "Europe/Paris",
      "wikiDataId": "Q723963",
      "country_code": "FR",
      "state_code": "55",
      "state_id": 5023,
      "country_id": 75
    },
    {
      "id": 156638,
      "name": "Mieszkańcy Damville",
      "name_default": "Damvillers",
      "native": "Damvillers",
      "type": "city",
      "level": null,
      "parent_id": null,
      "population": 615,
      "latitude": "49.34312080",
      "longitude": "5.37353910",
      "timezone": "Europe/Paris",
      "wikiDataId": "Q195737",
      "country_code": "FR",
      "state_code": "55",
      "state_id": 5023,
      "country_id": 75
    },
    {
      "id": 156639,
      "name": "Dannevoux",
      "name_default": "Dannevoux",
      "native": "Dannevoux",
      "type": "city",
      "level": null,
      "parent_id": null,
      "population": 192,
      "latitude": "49.30878460",
      "longitude": "5.18085810",
      "timezone": "Europe/Paris",
      "wikiDataId": "Q724224",
      "country_code": "FR",
      "state_code": "55",
      "state_id": 5023,
      "country_id": 75
    },
    {
      "id": 156640,
      "name": "Delouze-Rosières",
      "name_default": "Delouze-Rosières",
      "native": "Delouze-Rosières",
      "type": "city",
      "level": null,
      "parent_id": null,
      "population": 118,
      "latitude": "48.56803930",
      "longitude": "5.49407230",
      "timezone": "Europe/Paris",
      "wikiDataId": "Q598141",
      "country_code": "FR",
      "state_code": "55",
      "state_id": 5023,
      "country_id": 75
    },
    {
      "id": 156641,
      "name": "Delut",
      "name_default": "Delut",
      "native": "Delut",
      "type": "city",
      "level": null,
      "parent_id": null,
      "population": 126,
      "latitude": "49.41059840",
      "longitude": "5.37942990",
      "timezone": "Europe/Paris",
      "wikiDataId": "Q1096956",
      "country_code": "FR",
      "state_code": "55",
      "state_id": 5023,
      "country_id": 75
    },
    {
      "id": 156642,
      "name": "Demange-Baudignécourt",
      "name_default": "Demange-Baudignécourt",
      "native": "Demange-Baudignécourt",
      "type": "city",
      "level": null,
      "parent_id": null,
      "population": 509,
      "latitude": "48.58652540",
      "longitude": "5.42366080",
      "timezone": "Europe/Paris",
      "wikiDataId": "Q60042759",
      "country_code": "FR",
      "state_code": "55",
      "state_id": 5023,
      "country_id": 75
    },
    {
      "id": 156643,
      "name": "Dieppe-sous-Douaumont",
      "name_default": "Dieppe-sous-Douaumont",
      "native": "Dieppe-sous-Douaumont",
      "type": "city",
      "level": null,
      "parent_id": null,
      "population": 193,
      "latitude": "49.22170900",
      "longitude": "5.47881840",
      "timezone": "Europe/Paris",
      "wikiDataId": "Q1096684",
      "country_code": "FR",
      "state_code": "55",
      "state_id": 5023,
      "country_id": 75
    },
    {
      "id": 156645,
      "name": "Dombasle-en-Argonne",
      "name_default": "Dombasle-en-Argonne",
      "native": "Dombasle-en-Argonne",
      "type": "city",
      "level": null,
      "parent_id": null,
      "population": 374,
      "latitude": "49.14537170",
      "longitude": "5.17647300",
      "timezone": "Europe/Paris",
      "wikiDataId": "Q227585",
      "country_code": "FR",
      "state_code": "55",
      "state_id": 5023,
      "country_id": 75
    },
    {
      "id": 156646,
      "name": "Dombras",
      "name_default": "Dombras",
      "native": "Dombras",
      "type": "city",
      "level": null,
      "parent_id": null,
      "population": 139,
      "latitude": "49.37883560",
      "longitude": "5.41036750",
      "timezone": "Europe/Paris",
      "wikiDataId": "Q1096185",
      "country_code": "FR",
      "state_code": "55",
      "state_id": 5023,
      "country_id": 75
    },
    {
      "id": 156647,
      "name": "Dommartin-la-Montagne",
      "name_default": "Dommartin-la-Montagne",
      "native": "Dommartin-la-Montagne",
      "type": "adm3",
      "level": null,
      "parent_id": null,
      "population": 51,
      "latitude": "49.02573240",
      "longitude": "5.57926490",
      "timezone": "Europe/Paris",
      "wikiDataId": "Q221898",
      "country_code": "FR",
      "state_code": "55",
      "state_id": 5023,
      "country_id": 75
    },
    {
      "id": 156648,
      "name": "Dommary-Baroncourt",
      "name_default": "Dommary-Baroncourt",
      "native": "Dommary-Baroncourt",
      "type": "city",
      "level": null,
      "parent_id": null,
      "population": 745,
      "latitude": "49.28028740",
      "longitude": "5.67728050",
      "timezone": "Europe/Paris",
      "wikiDataId": "Q59230",
      "country_code": "FR",
      "state_code": "55",
      "state_id": 5023,
      "country_id": 75
    },
    {
      "id": 156649,
      "name": "Dompcewryna",
      "name_default": "Dompcevrin",
      "native": "Dompcevrin",
      "type": "city",
      "level": null,
      "parent_id": null,
      "population": 369,
      "latitude": "48.93055070",
      "longitude": "5.42454910",
      "timezone": "Europe/Paris",
      "wikiDataId": "Q576543",
      "country_code": "FR",
      "state_code": "55",
      "state_id": 5023,
      "country_id": 75
    },
    {
      "id": 156650,
      "name": "Dompierre-aux-Bois",
      "name_default": "Dompierre-aux-Bois",
      "native": "Dompierre-aux-Bois",
      "type": "city",
      "level": null,
      "parent_id": null,
      "population": 37,
      "latitude": "48.99911790",
      "longitude": "5.57509550",
      "timezone": "Europe/Paris",
      "wikiDataId": "Q1096997",
      "country_code": "FR",
      "state_code": "55",
      "state_id": 5023,
      "country_id": 75
    },
    {
      "id": 156651,
      "name": "Domremy-la-Canne",
      "name_default": "Domremy-la-Canne",
      "native": "Domremy-la-Canne",
      "type": "city",
      "level": null,
      "parent_id": null,
      "population": 28,
      "latitude": "49.29728350",
      "longitude": "5.68417590",
      "timezone": "Europe/Paris",
      "wikiDataId": "Q59726",
      "country_code": "FR",
      "state_code": "55",
      "state_id": 5023,
      "country_id": 75
    },
    {
      "id": 156652,
      "name": "Doncourt-aux-Templiers",
      "name_default": "Doncourt-aux-Templiers",
      "native": "Doncourt-aux-Templiers",
      "type": "city",
      "level": null,
      "parent_id": null,
      "population": 67,
      "latitude": "49.06006010",
      "longitude": "5.69990800",
      "timezone": "Europe/Paris",
      "wikiDataId": "Q724292",
      "country_code": "FR",
      "state_code": "55",
      "state_id": 5023,
      "country_id": 75
    },
    {
      "id": 156653,
      "name": "Douaumont-Vaux",
      "name_default": "Douaumont-Vaux",
      "native": "Douaumont-Vaux",
      "type": "city",
      "level": null,
      "parent_id": null,
      "population": 81,
      "latitude": "49.21405440",
      "longitude": "5.41049540",
      "timezone": "Europe/Paris",
      "wikiDataId": "Q60038354",
      "country_code": "FR",
      "state_code": "55",
      "state_id": 5023,
      "country_id": 75
    },
    {
      "id": 156654,
      "name": "Doulcon",
      "name_default": "Doulcon",
      "native": "Doulcon",
      "type": "city",
      "level": null,
      "parent_id": null,
      "population": 422,
      "latitude": "49.38563860",
      "longitude": "5.13535030",
      "timezone": "Europe/Paris",
      "wikiDataId": "Q772680",
      "country_code": "FR",
      "state_code": "55",
      "state_id": 5023,
      "country_id": 75
    },
    {
      "id": 41587,
      "name": "Dugny-sur-Meuse",
      "name_default": "Dugny-sur-Meuse",
      "native": "Dugny-sur-Meuse",
      "type": "city",
      "level": null,
      "parent_id": null,
      "population": 1262,
      "latitude": "49.09857610",
      "longitude": "5.32499720",
      "timezone": "Europe/Paris",
      "wikiDataId": "Q1617753",
      "country_code": "FR",
      "state_code": "55",
      "state_id": 5023,
      "country_id": 75
    },
    {
      "id": 156656,
      "name": "Dun-sur-Meuse",
      "name_default": "Dun-sur-Meuse",
      "native": "Dun-sur-Meuse",
      "type": "city",
      "level": null,
      "parent_id": null,
      "population": 590,
      "latitude": "49.38387500",
      "longitude": "5.17572900",
      "timezone": "Europe/Paris",
      "wikiDataId": "Q913049",
      "country_code": "FR",
      "state_code": "55",
      "state_id": 5023,
      "country_id": 75
    },
    {
      "id": 156657,
      "name": "Duzey",
      "name_default": "Duzey",
      "native": "Duzey",
      "type": "city",
      "level": null,
      "parent_id": null,
      "population": 46,
      "latitude": "49.35967880",
      "longitude": "5.59701880",
      "timezone": "Europe/Paris",
      "wikiDataId": "Q59364",
      "country_code": "FR",
      "state_code": "55",
      "state_id": 5023,
      "country_id": 75
    },
    {
      "id": 156658,
      "name": "Écouviez",
      "name_default": "Écouviez",
      "native": "Écouviez",
      "type": "city",
      "level": null,
      "parent_id": null,
      "population": 534,
      "latitude": "49.53369880",
      "longitude": "5.43264160",
      "timezone": "Europe/Paris",
      "wikiDataId": "Q1615889",
      "country_code": "FR",
      "state_code": "55",
      "state_id": 5023,
      "country_id": 75
    },
    {
      "id": 156659,
      "name": "Écurey-en-Verdunois",
      "name_default": "Écurey-en-Verdunois",
      "native": "Écurey-en-Verdunois",
      "type": "city",
      "level": null,
      "parent_id": null,
      "population": 113,
      "latitude": "49.35516280",
      "longitude": "5.30155390",
      "timezone": "Europe/Paris",
      "wikiDataId": "Q1157938",
      "country_code": "FR",
      "state_code": "55",
      "state_id": 5023,
      "country_id": 75
    },
    {
      "id": 156660,
      "name": "Eix",
      "name_default": "Eix",
      "native": "Eix",
      "type": "city",
      "level": null,
      "parent_id": null,
      "population": 262,
      "latitude": "49.18118600",
      "longitude": "5.43284740",
      "timezone": "Europe/Paris",
      "wikiDataId": "Q724313",
      "country_code": "FR",
      "state_code": "55",
      "state_id": 5023,
      "country_id": 75
    },
    {
      "id": 156661,
      "name": "Épiez-sur-Meuse",
      "name_default": "Épiez-sur-Meuse",
      "native": "Épiez-sur-Meuse",
      "type": "city",
      "level": null,
      "parent_id": null,
      "population": 38,
      "latitude": "48.54271260",
      "longitude": "5.60663510",
      "timezone": "Europe/Paris",
      "wikiDataId": "Q1157844",
      "country_code": "FR",
      "state_code": "55",
      "state_id": 5023,
      "country_id": 75
    },
    {
      "id": 156662,
      "name": "Épinonville",
      "name_default": "Épinonville",
      "native": "Épinonville",
      "type": "city",
      "level": null,
      "parent_id": null,
      "population": 69,
      "latitude": "49.27244850",
      "longitude": "5.04228590",
      "timezone": "Europe/Paris",
      "wikiDataId": "Q1410549",
      "country_code": "FR",
      "state_code": "55",
      "state_id": 5023,
      "country_id": 75
    },
    {
      "id": 156663,
      "name": "Érize-la-Brûlée",
      "name_default": "Érize-la-Brûlée",
      "native": "Érize-la-Brûlée",
      "type": "city",
      "level": null,
      "parent_id": null,
      "population": 174,
      "latitude": "48.84655530",
      "longitude": "5.23343380",
      "timezone": "Europe/Paris",
      "wikiDataId": "Q1157934",
      "country_code": "FR",
      "state_code": "55",
      "state_id": 5023,
      "country_id": 75
    },
    {
      "id": 156664,
      "name": "Érize-la-Petite",
      "name_default": "Érize-la-Petite",
      "native": "Érize-la-Petite",
      "type": "city",
      "level": null,
      "parent_id": null,
      "population": 43,
      "latitude": "48.91314970",
      "longitude": "5.20041290",
      "timezone": "Europe/Paris",
      "wikiDataId": "Q230124",
      "country_code": "FR",
      "state_code": "55",
      "state_id": 5023,
      "country_id": 75
    },
    {
      "id": 156665,
      "name": "Érize-Saint-Dizier",
      "name_default": "Érize-Saint-Dizier",
      "native": "Érize-Saint-Dizier",
      "type": "city",
      "level": null,
      "parent_id": null,
      "population": 193,
      "latitude": "48.81039430",
      "longitude": "5.26027330",
      "timezone": "Europe/Paris",
      "wikiDataId": "Q677241",
      "country_code": "FR",
      "state_code": "55",
      "state_id": 5023,
      "country_id": 75
    },
    {
      "id": 156666,
      "name": "Erneville-aux-Bois",
      "name_default": "Erneville-aux-Bois",
      "native": "Erneville-aux-Bois",
      "type": "city",
      "level": null,
      "parent_id": null,
      "population": 5247,
      "latitude": "48.74248130",
      "longitude": "5.32570030",
      "timezone": "Europe/Paris",
      "wikiDataId": "Q981783",
      "country_code": "FR",
      "state_code": "55",
      "state_id": 5023,
      "country_id": 75
    },
    {
      "id": 156667,
      "name": "Esnes-en-Argonne",
      "name_default": "Esnes-en-Argonne",
      "native": "Esnes-en-Argonne",
      "type": "city",
      "level": null,
      "parent_id": null,
      "population": 135,
      "latitude": "49.20980860",
      "longitude": "5.16265640",
      "timezone": "Europe/Paris",
      "wikiDataId": "Q939685",
      "country_code": "FR",
      "state_code": "55",
      "state_id": 5023,
      "country_id": 75
    },
    {
      "id": 156669,
      "name": "Eton",
      "name_default": "Éton",
      "native": "Éton",
      "type": "city",
      "level": null,
      "parent_id": null,
      "population": 201,
      "latitude": "49.26444120",
      "longitude": "5.64690050",
      "timezone": "Europe/Paris",
      "wikiDataId": "Q1453322",
      "country_code": "FR",
      "state_code": "55",
      "state_id": 5023,
      "country_id": 75
    },
    {
      "id": 156670,
      "name": "Étraye",
      "name_default": "Étraye",
      "native": "Étraye",
      "type": "city",
      "level": null,
      "parent_id": null,
      "population": 37,
      "latitude": "49.32635870",
      "longitude": "5.33667130",
      "timezone": "Europe/Paris",
      "wikiDataId": "Q214398",
      "country_code": "FR",
      "state_code": "55",
      "state_id": 5023,
      "country_id": 75
    },
    {
      "id": 156672,
      "name": "Èvres",
      "name_default": "Èvres",
      "native": "Èvres",
      "type": "city",
      "level": null,
      "parent_id": null,
      "population": 89,
      "latitude": "48.98242380",
      "longitude": "5.08814040",
      "timezone": "Europe/Paris",
      "wikiDataId": "Q1096947",
      "country_code": "FR",
      "state_code": "55",
      "state_id": 5023,
      "country_id": 75
    },
    {
      "id": 156674,
      "name": "Flassigny",
      "name_default": "Flassigny",
      "native": "Flassigny",
      "type": "city",
      "level": null,
      "parent_id": null,
      "population": 45,
      "latitude": "49.47493530",
      "longitude": "5.42203110",
      "timezone": "Europe/Paris",
      "wikiDataId": "Q723810",
      "country_code": "FR",
      "state_code": "55",
      "state_id": 5023,
      "country_id": 75
    },
    {
      "id": 156675,
      "name": "Fleury-devant-Douaumont",
      "name_default": "Fleury-devant-Douaumont",
      "native": "Fleury-devant-Douaumont",
      "type": "city",
      "level": null,
      "parent_id": null,
      "population": 0,
      "latitude": "49.19480710",
      "longitude": "5.40129030",
      "timezone": "Europe/Paris",
      "wikiDataId": "Q59254",
      "country_code": "FR",
      "state_code": "55",
      "state_id": 5023,
      "country_id": 75
    },
    {
      "id": 156676,
      "name": "Foameix-Ornel",
      "name_default": "Foameix-Ornel",
      "native": "Foameix-Ornel",
      "type": "city",
      "level": null,
      "parent_id": null,
      "population": 228,
      "latitude": "49.23577310",
      "longitude": "5.56870100",
      "timezone": "Europe/Paris",
      "wikiDataId": "Q724326",
      "country_code": "FR",
      "state_code": "55",
      "state_id": 5023,
      "country_id": 75
    },
    {
      "id": 156677,
      "name": "Fontaines-Saint-Clair",
      "name_default": "Fontaines-Saint-Clair",
      "native": "Fontaines-Saint-Clair",
      "type": "city",
      "level": null,
      "parent_id": null,
      "population": 36,
      "latitude": "49.36622470",
      "longitude": "5.22594770",
      "timezone": "Europe/Paris",
      "wikiDataId": "Q724381",
      "country_code": "FR",
      "state_code": "55",
      "state_id": 5023,
      "country_id": 75
    },
    {
      "id": 156678,
      "name": "Forges-sur-Meuse",
      "name_default": "Forges-sur-Meuse",
      "native": "Forges-sur-Meuse",
      "type": "city",
      "level": null,
      "parent_id": null,
      "population": 122,
      "latitude": "49.26011730",
      "longitude": "5.23676210",
      "timezone": "Europe/Paris",
      "wikiDataId": "Q602475",
      "country_code": "FR",
      "state_code": "55",
      "state_id": 5023,
      "country_id": 75
    },
    {
      "id": 156679,
      "name": "Foucaucourt-sur-Thabas",
      "name_default": "Foucaucourt-sur-Thabas",
      "native": "Foucaucourt-sur-Thabas",
      "type": "city",
      "level": null,
      "parent_id": null,
      "population": 61,
      "latitude": "49.00684770",
      "longitude": "5.05826020",
      "timezone": "Europe/Paris",
      "wikiDataId": "Q223717",
      "country_code": "FR",
      "state_code": "55",
      "state_id": 5023,
      "country_id": 75
    },
    {
      "id": 156680,
      "name": "Fouchères-aux-Bois",
      "name_default": "Fouchères-aux-Bois",
      "native": "Fouchères-aux-Bois",
      "type": "city",
      "level": null,
      "parent_id": null,
      "population": 133,
      "latitude": "48.63089260",
      "longitude": "5.22906400",
      "timezone": "Europe/Paris",
      "wikiDataId": "Q1096982",
      "country_code": "FR",
      "state_code": "55",
      "state_id": 5023,
      "country_id": 75
    },
    {
      "id": 156681,
      "name": "Frémeréville-sous-les-Côtes",
      "name_default": "Frémeréville-sous-les-Côtes",
      "native": "Frémeréville-sous-les-Côtes",
      "type": "city",
      "level": null,
      "parent_id": null,
      "population": 127,
      "latitude": "48.80427430",
      "longitude": "5.63531920",
      "timezone": "Europe/Paris",
      "wikiDataId": "Q1159712",
      "country_code": "FR",
      "state_code": "55",
      "state_id": 5023,
      "country_id": 75
    },
    {
      "id": 156682,
      "name": "Fresnes-au-Mont",
      "name_default": "Fresnes-au-Mont",
      "native": "Fresnes-au-Mont",
      "type": "city",
      "level": null,
      "parent_id": null,
      "population": 164,
      "latitude": "48.89838960",
      "longitude": "5.40186990",
      "timezone": "Europe/Paris",
      "wikiDataId": "Q207878",
      "country_code": "FR",
      "state_code": "55",
      "state_id": 5023,
      "country_id": 75
    },
    {
      "id": 156683,
      "name": "Fresnes-en-Woëvre",
      "name_default": "Fresnes-en-Woëvre",
      "native": "Fresnes-en-Woëvre",
      "type": "city",
      "level": null,
      "parent_id": null,
      "population": 668,
      "latitude": "49.10141030",
      "longitude": "5.61431420",
      "timezone": "Europe/Paris",
      "wikiDataId": "Q223691",
      "country_code": "FR",
      "state_code": "55",
      "state_id": 5023,
      "country_id": 75
    },
    {
      "id": 156684,
      "name": "Froidos",
      "name_default": "Froidos",
      "native": "Froidos",
      "type": "city",
      "level": null,
      "parent_id": null,
      "population": 91,
      "latitude": "49.06095920",
      "longitude": "5.07956950",
      "timezone": "Europe/Paris",
      "wikiDataId": "Q724470",
      "country_code": "FR",
      "state_code": "55",
      "state_id": 5023,
      "country_id": 75
    },
    {
      "id": 156685,
      "name": "Fromeréville-les-Vallons",
      "name_default": "Fromeréville-les-Vallons",
      "native": "Fromeréville-les-Vallons",
      "type": "city",
      "level": null,
      "parent_id": null,
      "population": 212,
      "latitude": "49.16579740",
      "longitude": "5.25175220",
      "timezone": "Europe/Paris",
      "wikiDataId": "Q1385052",
      "country_code": "FR",
      "state_code": "55",
      "state_id": 5023,
      "country_id": 75
    },
    {
      "id": 156686,
      "name": "Fromezey",
      "name_default": "Fromezey",
      "native": "Fromezey",
      "type": "city",
      "level": null,
      "parent_id": null,
      "population": 65,
      "latitude": "49.20921930",
      "longitude": "5.56209080",
      "timezone": "Europe/Paris",
      "wikiDataId": "Q59403",
      "country_code": "FR",
      "state_code": "55",
      "state_id": 5023,
      "country_id": 75
    },
    {
      "id": 156687,
      "name": "Futeau",
      "name_default": "Futeau",
      "native": "Futeau",
      "type": "city",
      "level": null,
      "parent_id": null,
      "population": 139,
      "latitude": "49.07606670",
      "longitude": "4.98997100",
      "timezone": "Europe/Paris",
      "wikiDataId": "Q614526",
      "country_code": "FR",
      "state_code": "55",
      "state_id": 5023,
      "country_id": 75
    },
    {
      "id": 156688,
      "name": "Génicourt-sur-Meuse",
      "name_default": "Génicourt-sur-Meuse",
      "native": "Génicourt-sur-Meuse",
      "type": "city",
      "level": null,
      "parent_id": null,
      "population": 1449,
      "latitude": "49.04435540",
      "longitude": "5.42202400",
      "timezone": "Europe/Paris",
      "wikiDataId": "Q1098222",
      "country_code": "FR",
      "state_code": "55",
      "state_id": 5023,
      "country_id": 75
    },
    {
      "id": 156689,
      "name": "Gercourt-et-Drillancourt",
      "name_default": "Gercourt-et-Drillancourt",
      "native": "Gercourt-et-Drillancourt",
      "type": "city",
      "level": null,
      "parent_id": null,
      "population": 123,
      "latitude": "49.28175700",
      "longitude": "5.19607620",
      "timezone": "Europe/Paris",
      "wikiDataId": "Q217293",
      "country_code": "FR",
      "state_code": "55",
      "state_id": 5023,
      "country_id": 75
    },
    {
      "id": 156690,
      "name": "Géry",
      "name_default": "Géry",
      "native": "Géry",
      "type": "city",
      "level": null,
      "parent_id": null,
      "population": 54,
      "latitude": "48.78662760",
      "longitude": "5.28271640",
      "timezone": "Europe/Paris",
      "wikiDataId": "Q1096966",
      "country_code": "FR",
      "state_code": "55",
      "state_id": 5023,
      "country_id": 75
    },
    {
      "id": 156691,
      "name": "Gesnes-en-Argonne",
      "name_default": "Gesnes-en-Argonne",
      "native": "Gesnes-en-Argonne",
      "type": "city",
      "level": null,
      "parent_id": null,
      "population": 52,
      "latitude": "49.30610080",
      "longitude": "5.01526970",
      "timezone": "Europe/Paris",
      "wikiDataId": "Q223485",
      "country_code": "FR",
      "state_code": "55",
      "state_id": 5023,
      "country_id": 75
    },
    {
      "id": 156692,
      "name": "Geville",
      "name_default": "Geville",
      "native": "Geville",
      "type": "city",
      "level": null,
      "parent_id": null,
      "population": 627,
      "latitude": "48.78319060",
      "longitude": "5.62937410",
      "timezone": "Europe/Paris",
      "wikiDataId": "Q1414005",
      "country_code": "FR",
      "state_code": "55",
      "state_id": 5023,
      "country_id": 75
    },
    {
      "id": 156693,
      "name": "Gimécourt",
      "name_default": "Gimécourt",
      "native": "Gimécourt",
      "type": "city",
      "level": null,
      "parent_id": null,
      "population": 38,
      "latitude": "48.84750360",
      "longitude": "5.33693110",
      "timezone": "Europe/Paris",
      "wikiDataId": "Q1095784",
      "country_code": "FR",
      "state_code": "55",
      "state_id": 5023,
      "country_id": 75
    },
    {
      "id": 156694,
      "name": "Gincrey",
      "name_default": "Gincrey",
      "native": "Gincrey",
      "type": "city",
      "level": null,
      "parent_id": null,
      "population": 61,
      "latitude": "49.26158630",
      "longitude": "5.52290520",
      "timezone": "Europe/Paris",
      "wikiDataId": "Q652991",
      "country_code": "FR",
      "state_code": "55",
      "state_id": 5023,
      "country_id": 75
    },
    {
      "id": 156695,
      "name": "Girauvoisin",
      "name_default": "Girauvoisin",
      "native": "Girauvoisin",
      "type": "city",
      "level": null,
      "parent_id": null,
      "population": 77,
      "latitude": "48.80566180",
      "longitude": "5.61518780",
      "timezone": "Europe/Paris",
      "wikiDataId": "Q775628",
      "country_code": "FR",
      "state_code": "55",
      "state_id": 5023,
      "country_id": 75
    },
    {
      "id": 156696,
      "name": "Givrauval",
      "name_default": "Givrauval",
      "native": "Givrauval",
      "type": "city",
      "level": null,
      "parent_id": null,
      "population": 287,
      "latitude": "48.65654630",
      "longitude": "5.27917760",
      "timezone": "Europe/Paris",
      "wikiDataId": "Q230117",
      "country_code": "FR",
      "state_code": "55",
      "state_id": 5023,
      "country_id": 75
    },
    {
      "id": 156698,
      "name": "Gouraincourt",
      "name_default": "Gouraincourt",
      "native": "Gouraincourt",
      "type": "city",
      "level": null,
      "parent_id": null,
      "population": 70,
      "latitude": "49.29887280",
      "longitude": "5.64604260",
      "timezone": "Europe/Paris",
      "wikiDataId": "Q59231",
      "country_code": "FR",
      "state_code": "55",
      "state_id": 5023,
      "country_id": 75
    },
    {
      "id": 156699,
      "name": "Goussaincourt",
      "name_default": "Goussaincourt",
      "native": "Goussaincourt",
      "type": "city",
      "level": null,
      "parent_id": null,
      "population": 118,
      "latitude": "48.48259330",
      "longitude": "5.65118080",
      "timezone": "Europe/Paris",
      "wikiDataId": "Q775580",
      "country_code": "FR",
      "state_code": "55",
      "state_id": 5023,
      "country_id": 75
    },
    {
      "id": 156700,
      "name": "Gremilly",
      "name_default": "Gremilly",
      "native": "Gremilly",
      "type": "city",
      "level": null,
      "parent_id": null,
      "population": 44,
      "latitude": "49.28286700",
      "longitude": "5.47156470",
      "timezone": "Europe/Paris",
      "wikiDataId": "Q216719",
      "country_code": "FR",
      "state_code": "55",
      "state_id": 5023,
      "country_id": 75
    },
    {
      "id": 156701,
      "name": "Grimaucourt-en-Woëvre",
      "name_default": "Grimaucourt-en-Woëvre",
      "native": "Grimaucourt-en-Woëvre",
      "type": "city",
      "level": null,
      "parent_id": null,
      "population": 97,
      "latitude": "49.16400020",
      "longitude": "5.54610850",
      "timezone": "Europe/Paris",
      "wikiDataId": "Q216686",
      "country_code": "FR",
      "state_code": "55",
      "state_id": 5023,
      "country_id": 75
    },
    {
      "id": 156702,
      "name": "Grimaucourt-près-Sampigny",
      "name_default": "Grimaucourt-près-Sampigny",
      "native": "Grimaucourt-près-Sampigny",
      "type": "city",
      "level": null,
      "parent_id": null,
      "population": 93,
      "latitude": "48.78025070",
      "longitude": "5.42828180",
      "timezone": "Europe/Paris",
      "wikiDataId": "Q221271",
      "country_code": "FR",
      "state_code": "55",
      "state_id": 5023,
      "country_id": 75
    },
    {
      "id": 156703,
      "name": "Guerpont",
      "name_default": "Guerpont",
      "native": "Guerpont",
      "type": "city",
      "level": null,
      "parent_id": null,
      "population": 236,
      "latitude": "48.71948670",
      "longitude": "5.23646480",
      "timezone": "Europe/Paris",
      "wikiDataId": "Q1159594",
      "country_code": "FR",
      "state_code": "55",
      "state_id": 5023,
      "country_id": 75
    },
    {
      "id": 156704,
      "name": "Gussainville",
      "name_default": "Gussainville",
      "native": "Gussainville",
      "type": "city",
      "level": null,
      "parent_id": null,
      "population": 34,
      "latitude": "49.16678060",
      "longitude": "5.64030070",
      "timezone": "Europe/Paris",
      "wikiDataId": "Q213653",
      "country_code": "FR",
      "state_code": "55",
      "state_id": 5023,
      "country_id": 75
    },
    {
      "id": 156705,
      "name": "Haironville",
      "name_default": "Haironville",
      "native": "Haironville",
      "type": "city",
      "level": null,
      "parent_id": null,
      "population": 567,
      "latitude": "48.68611870",
      "longitude": "5.07057680",
      "timezone": "Europe/Paris",
      "wikiDataId": "Q211875",
      "country_code": "FR",
      "state_code": "55",
      "state_id": 5023,
      "country_id": 75
    },
    {
      "id": 156706,
      "name": "Halles-sous-les-Côtes",
      "name_default": "Halles-sous-les-Côtes",
      "native": "Halles-sous-les-Côtes",
      "type": "city",
      "level": null,
      "parent_id": null,
      "population": 138,
      "latitude": "49.44653080",
      "longitude": "5.10668190",
      "timezone": "Europe/Paris",
      "wikiDataId": "Q1095592",
      "country_code": "FR",
      "state_code": "55",
      "state_id": 5023,
      "country_id": 75
    },
    {
      "id": 156707,
      "name": "Han-lès-Juvigny",
      "name_default": "Han-lès-Juvigny",
      "native": "Han-lès-Juvigny",
      "type": "city",
      "level": null,
      "parent_id": null,
      "population": 125,
      "latitude": "49.48162460",
      "longitude": "5.30914860",
      "timezone": "Europe/Paris",
      "wikiDataId": "Q1161089",
      "country_code": "FR",
      "state_code": "55",
      "state_id": 5023,
      "country_id": 75
    },
    {
      "id": 156708,
      "name": "Han-sur-Meuse",
      "name_default": "Han-sur-Meuse",
      "native": "Han-sur-Meuse",
      "type": "city",
      "level": null,
      "parent_id": null,
      "population": 269,
      "latitude": "48.85392610",
      "longitude": "5.51471810",
      "timezone": "Europe/Paris",
      "wikiDataId": "Q197003",
      "country_code": "FR",
      "state_code": "55",
      "state_id": 5023,
      "country_id": 75
    },
    {
      "id": 156709,
      "name": "Hannonville-sous-les-Côtes",
      "name_default": "Hannonville-sous-les-Côtes",
      "native": "Hannonville-sous-les-Côtes",
      "type": "city",
      "level": null,
      "parent_id": null,
      "population": 546,
      "latitude": "49.03228060",
      "longitude": "5.61124840",
      "timezone": "Europe/Paris",
      "wikiDataId": "Q1161127",
      "country_code": "FR",
      "state_code": "55",
      "state_id": 5023,
      "country_id": 75
    },
    {
      "id": 156710,
      "name": "Harville",
      "name_default": "Harville",
      "native": "Harville",
      "type": "city",
      "level": null,
      "parent_id": null,
      "population": 112,
      "latitude": "49.09448080",
      "longitude": "5.70667950",
      "timezone": "Europe/Paris",
      "wikiDataId": "Q195184",
      "country_code": "FR",
      "state_code": "55",
      "state_id": 5023,
      "country_id": 75
    },
    {
      "id": 156711,
      "name": "Haudainville",
      "name_default": "Haudainville",
      "native": "Haudainville",
      "type": "adm3",
      "level": null,
      "parent_id": null,
      "population": 933,
      "latitude": "49.12455040",
      "longitude": "5.38986590",
      "timezone": "Europe/Paris",
      "wikiDataId": "Q212539",
      "country_code": "FR",
      "state_code": "55",
      "state_id": 5023,
      "country_id": 75
    },
    {
      "id": 156712,
      "name": "Haudiomont",
      "name_default": "Haudiomont",
      "native": "Haudiomont",
      "type": "city",
      "level": null,
      "parent_id": null,
      "population": 232,
      "latitude": "49.11303330",
      "longitude": "5.49673180",
      "timezone": "Europe/Paris",
      "wikiDataId": "Q668270",
      "country_code": "FR",
      "state_code": "55",
      "state_id": 5023,
      "country_id": 75
    },
    {
      "id": 156713,
      "name": "Haumont-près-Samogneux",
      "name_default": "Haumont-près-Samogneux",
      "native": "Haumont-près-Samogneux",
      "type": "city",
      "level": null,
      "parent_id": null,
      "population": 0,
      "latitude": "49.27880470",
      "longitude": "5.33166540",
      "timezone": "Europe/Paris",
      "wikiDataId": "Q681869",
      "country_code": "FR",
      "state_code": "55",
      "state_id": 5023,
      "country_id": 75
    },
    {
      "id": 156714,
      "name": "Heippes",
      "name_default": "Heippes",
      "native": "Heippes",
      "type": "city",
      "level": null,
      "parent_id": null,
      "population": 83,
      "latitude": "48.99926790",
      "longitude": "5.25614560",
      "timezone": "Europe/Paris",
      "wikiDataId": "Q775259",
      "country_code": "FR",
      "state_code": "55",
      "state_id": 5023,
      "country_id": 75
    },
    {
      "id": 156715,
      "name": "Hennemont",
      "name_default": "Hennemont",
      "native": "Hennemont",
      "type": "city",
      "level": null,
      "parent_id": null,
      "population": 111,
      "latitude": "49.14302440",
      "longitude": "5.63103730",
      "timezone": "Europe/Paris",
      "wikiDataId": "Q775320",
      "country_code": "FR",
      "state_code": "55",
      "state_id": 5023,
      "country_id": 75
    },
    {
      "id": 156716,
      "name": "Herbeuville",
      "name_default": "Herbeuville",
      "native": "Herbeuville",
      "type": "city",
      "level": null,
      "parent_id": null,
      "population": 181,
      "latitude": "49.04767900",
      "longitude": "5.61981550",
      "timezone": "Europe/Paris",
      "wikiDataId": "Q223583",
      "country_code": "FR",
      "state_code": "55",
      "state_id": 5023,
      "country_id": 75
    },
    {
      "id": 156717,
      "name": "Herméville-en-Woëvre",
      "name_default": "Herméville-en-Woëvre",
      "native": "Herméville-en-Woëvre",
      "type": "city",
      "level": null,
      "parent_id": null,
      "population": 221,
      "latitude": "49.17674840",
      "longitude": "5.56306380",
      "timezone": "Europe/Paris",
      "wikiDataId": "Q963826",
      "country_code": "FR",
      "state_code": "55",
      "state_id": 5023,
      "country_id": 75
    },
    {
      "id": 156718,
      "name": "Heudicourt-sous-les-Côtes",
      "name_default": "Heudicourt-sous-les-Côtes",
      "native": "Heudicourt-sous-les-Côtes",
      "type": "city",
      "level": null,
      "parent_id": null,
      "population": 169,
      "latitude": "48.93683270",
      "longitude": "5.65332710",
      "timezone": "Europe/Paris",
      "wikiDataId": "Q216744",
      "country_code": "FR",
      "state_code": "55",
      "state_id": 5023,
      "country_id": 75
    },
    {
      "id": 156719,
      "name": "Hévilliers",
      "name_default": "Hévilliers",
      "native": "Hévilliers",
      "type": "city",
      "level": null,
      "parent_id": null,
      "population": 156,
      "latitude": "48.60235530",
      "longitude": "5.28392300",
      "timezone": "Europe/Paris",
      "wikiDataId": "Q216680",
      "country_code": "FR",
      "state_code": "55",
      "state_id": 5023,
      "country_id": 75
    },
    {
      "id": 156720,
      "name": "Horville-en-Ornois",
      "name_default": "Horville-en-Ornois",
      "native": "Horville-en-Ornois",
      "type": "city",
      "level": null,
      "parent_id": null,
      "population": 46,
      "latitude": "48.48566250",
      "longitude": "5.44821910",
      "timezone": "Europe/Paris",
      "wikiDataId": "Q1159357",
      "country_code": "FR",
      "state_code": "55",
      "state_id": 5023,
      "country_id": 75
    },
    {
      "id": 156721,
      "name": "Houdelaincourt",
      "name_default": "Houdelaincourt",
      "native": "Houdelaincourt",
      "type": "city",
      "level": null,
      "parent_id": null,
      "population": 277,
      "latitude": "48.54996910",
      "longitude": "5.41082810",
      "timezone": "Europe/Paris",
      "wikiDataId": "Q1385022",
      "country_code": "FR",
      "state_code": "55",
      "state_id": 5023,
      "country_id": 75
    },
    {
      "id": 156722,
      "name": "Inor",
      "name_default": "Inor",
      "native": "Inor",
      "type": "city",
      "level": null,
      "parent_id": null,
      "population": 178,
      "latitude": "49.55268560",
      "longitude": "5.14423740",
      "timezone": "Europe/Paris",
      "wikiDataId": "Q753401",
      "country_code": "FR",
      "state_code": "55",
      "state_id": 5023,
      "country_id": 75
    },
    {
      "id": 156723,
      "name": "Ippécourt",
      "name_default": "Ippécourt",
      "native": "Ippécourt",
      "type": "city",
      "level": null,
      "parent_id": null,
      "population": 94,
      "latitude": "49.03898800",
      "longitude": "5.19091120",
      "timezone": "Europe/Paris",
      "wikiDataId": "Q1159561",
      "country_code": "FR",
      "state_code": "55",
      "state_id": 5023,
      "country_id": 75
    },
    {
      "id": 156724,
      "name": "Iré-le-Sec",
      "name_default": "Iré-le-Sec",
      "native": "Iré-le-Sec",
      "type": "city",
      "level": null,
      "parent_id": null,
      "population": 151,
      "latitude": "49.47432720",
      "longitude": "5.37490210",
      "timezone": "Europe/Paris",
      "wikiDataId": "Q230019",
      "country_code": "FR",
      "state_code": "55",
      "state_id": 5023,
      "country_id": 75
    },
    {
      "id": 156725,
      "name": "Jametz",
      "name_default": "Jametz",
      "native": "Jametz",
      "type": "city",
      "level": null,
      "parent_id": null,
      "population": 250,
      "latitude": "49.42495130",
      "longitude": "5.35090450",
      "timezone": "Europe/Paris",
      "wikiDataId": "Q1415752",
      "country_code": "FR",
      "state_code": "55",
      "state_id": 5023,
      "country_id": 75
    },
    {
      "id": 156726,
      "name": "Jonville-en-Woëvre",
      "name_default": "Jonville-en-Woëvre",
      "native": "Jonville-en-Woëvre",
      "type": "city",
      "level": null,
      "parent_id": null,
      "population": 144,
      "latitude": "49.06458360",
      "longitude": "5.73544610",
      "timezone": "Europe/Paris",
      "wikiDataId": "Q223730",
      "country_code": "FR",
      "state_code": "55",
      "state_id": 5023,
      "country_id": 75
    },
    {
      "id": 156727,
      "name": "Jouy-en-Argonne",
      "name_default": "Jouy-en-Argonne",
      "native": "Jouy-en-Argonne",
      "type": "city",
      "level": null,
      "parent_id": null,
      "population": 55,
      "latitude": "49.13768450",
      "longitude": "5.20114130",
      "timezone": "Europe/Paris",
      "wikiDataId": "Q1611588",
      "country_code": "FR",
      "state_code": "55",
      "state_id": 5023,
      "country_id": 75
    },
    {
      "id": 156728,
      "name": "Julvécourt",
      "name_default": "Julvécourt",
      "native": "Julvécourt",
      "type": "city",
      "level": null,
      "parent_id": null,
      "population": 59,
      "latitude": "49.05963720",
      "longitude": "5.16737320",
      "timezone": "Europe/Paris",
      "wikiDataId": "Q1410386",
      "country_code": "FR",
      "state_code": "55",
      "state_id": 5023,
      "country_id": 75
    },
    {
      "id": 156729,
      "name": "Juvigny-en-Perthois",
      "name_default": "Juvigny-en-Perthois",
      "native": "Juvigny-en-Perthois",
      "type": "city",
      "level": null,
      "parent_id": null,
      "population": 134,
      "latitude": "48.59771700",
      "longitude": "5.14595740",
      "timezone": "Europe/Paris",
      "wikiDataId": "Q216772",
      "country_code": "FR",
      "state_code": "55",
      "state_id": 5023,
      "country_id": 75
    },
    {
      "id": 156730,
      "name": "Juvigny-sur-Loison",
      "name_default": "Juvigny-sur-Loison",
      "native": "Juvigny-sur-Loison",
      "type": "city",
      "level": null,
      "parent_id": null,
      "population": 248,
      "latitude": "49.46169380",
      "longitude": "5.29455350",
      "timezone": "Europe/Paris",
      "wikiDataId": "Q830281",
      "country_code": "FR",
      "state_code": "55",
      "state_id": 5023,
      "country_id": 75
    },
    {
      "id": 156731,
      "name": "Kœur-la-Grande",
      "name_default": "Kœur-la-Grande",
      "native": "Kœur-la-Grande",
      "type": "city",
      "level": null,
      "parent_id": null,
      "population": 164,
      "latitude": "48.86481860",
      "longitude": "5.42116640",
      "timezone": "Europe/Paris",
      "wikiDataId": "Q1098282",
      "country_code": "FR",
      "state_code": "55",
      "state_id": 5023,
      "country_id": 75
    },
    {
      "id": 156732,
      "name": "Kœur-la-Petite",
      "name_default": "Kœur-la-Petite",
      "native": "Kœur-la-Petite",
      "type": "city",
      "level": null,
      "parent_id": null,
      "population": 254,
      "latitude": "48.85336650",
      "longitude": "5.41985460",
      "timezone": "Europe/Paris",
      "wikiDataId": "Q735388",
      "country_code": "FR",
      "state_code": "55",
      "state_id": 5023,
      "country_id": 75
    },
    {
      "id": 156733,
      "name": "L'Isle-en-Rigault",
      "name_default": "L'Isle-en-Rigault",
      "native": "L'Isle-en-Rigault",
      "type": "city",
      "level": null,
      "parent_id": null,
      "population": 465,
      "latitude": "48.71034120",
      "longitude": "4.98890440",
      "timezone": "Europe/Paris",
      "wikiDataId": "Q733321",
      "country_code": "FR",
      "state_code": "55",
      "state_id": 5023,
      "country_id": 75
    },
    {
      "id": 156734,
      "name": "Labeuville",
      "name_default": "Labeuville",
      "native": "Labeuville",
      "type": "city",
      "level": null,
      "parent_id": null,
      "population": 140,
      "latitude": "49.08808290",
      "longitude": "5.73148930",
      "timezone": "Europe/Paris",
      "wikiDataId": "Q215541",
      "country_code": "FR",
      "state_code": "55",
      "state_id": 5023,
      "country_id": 75
    },
    {
      "id": 156735,
      "name": "Lachalade",
      "name_default": "Lachalade",
      "native": "Lachalade",
      "type": "city",
      "level": null,
      "parent_id": null,
      "population": 54,
      "latitude": "49.17805000",
      "longitude": "4.94442650",
      "timezone": "Europe/Paris",
      "wikiDataId": "Q223733",
      "country_code": "FR",
      "state_code": "55",
      "state_id": 5023,
      "country_id": 75
    },
    {
      "id": 156736,
      "name": "Lachaussée",
      "name_default": "Lachaussée",
      "native": "Lachaussée",
      "type": "city",
      "level": null,
      "parent_id": null,
      "population": 280,
      "latitude": "49.03218530",
      "longitude": "5.75716150",
      "timezone": "Europe/Paris",
      "wikiDataId": "Q687535",
      "country_code": "FR",
      "state_code": "55",
      "state_id": 5023,
      "country_id": 75
    },
    {
      "id": 156737,
      "name": "Lacroix-sur-Meuse",
      "name_default": "Lacroix-sur-Meuse",
      "native": "Lacroix-sur-Meuse",
      "type": "city",
      "level": null,
      "parent_id": null,
      "population": 649,
      "latitude": "48.98457220",
      "longitude": "5.48871750",
      "timezone": "Europe/Paris",
      "wikiDataId": "Q1159503",
      "country_code": "FR",
      "state_code": "55",
      "state_id": 5023,
      "country_id": 75
    },
    {
      "id": 156738,
      "name": "Lahaymeix",
      "name_default": "Lahaymeix",
      "native": "Lahaymeix",
      "type": "adm3",
      "level": null,
      "parent_id": null,
      "population": 76,
      "latitude": "48.93384780",
      "longitude": "5.37734030",
      "timezone": "Europe/Paris",
      "wikiDataId": "Q867855",
      "country_code": "FR",
      "state_code": "55",
      "state_id": 5023,
      "country_id": 75
    },
    {
      "id": 156739,
      "name": "Lahayville",
      "name_default": "Lahayville",
      "native": "Lahayville",
      "type": "city",
      "level": null,
      "parent_id": null,
      "population": 29,
      "latitude": "48.89466810",
      "longitude": "5.74852350",
      "timezone": "Europe/Paris",
      "wikiDataId": "Q223834",
      "country_code": "FR",
      "state_code": "55",
      "state_id": 5023,
      "country_id": 75
    },