{
  "locale": "ru",
  "country": {
    "id": 200,
    "code": "SK",
    "iso3": "SVK",
    "numeric_code": "703",
    "name": "Словакия",
    "name_default": "Slovakia",
    "native": "Slovensko",
    "capital": "Bratislava",
    "phonecode": "421",
    "currency": "EUR",
    "currency_name": "Euro",
    "currency_symbol": "€",
    "tld": ".sk",
    "population": 5413813,
    "gdp": 147031,
    "region": "Europe",
    "region_id": 4,
    "subregion": "Eastern Europe",
    "subregion_id": 15,
    "nationality": "Slovak",
    "timezones": [
      {
        "zoneName": "Europe/Bratislava",
        "gmtOffset": 3600,
        "gmtOffsetName": "UTC+01:00",
        "abbreviation": "CET",
        "tzName": "Central European Time"
      }
    ],
    "latitude": "48.66666666",
    "longitude": "19.50000000",
    "emoji": "🇸🇰",
    "emojiU": "U+1F1F8 U+1F1F0"
  },
  "state": {
    "id": 4354,
    "code": "PV",
    "iso2": "PV",
    "iso3166_2": "SK-PV",
    "fips_code": "05",
    "name": "Прешов",
    "name_default": "Prešov",
    "native": "Prešov",
    "type": "region",
    "level": null,
    "parent_id": null,
    "population": null,
    "latitude": "49.11176850",
    "longitude": "21.18759780",
    "timezone": "Europe/Bratislava",
    "wikiDataId": "Q189001",
    "country_code": "SK"
  },
  "cities": [
    {
      "id": 104372,
      "name": "Бардейов",
      "name_default": "Bardejov",
      "native": "Bardejov",
      "type": "adm2",
      "level": null,
      "parent_id": null,
      "population": 29788,
      "latitude": "49.29175000",
      "longitude": "21.27271000",
      "timezone": "Europe/Bratislava",
      "wikiDataId": "Q208110",
      "country_code": "SK",
      "state_code": "PV",
      "state_id": 4354,
      "country_id": 200
    },
    {
      "id": 104380,
      "name": "Хлмек",
      "name_default": "Chlmec",
      "native": "Chlmec",
      "type": "city",
      "level": null,
      "parent_id": null,
      "population": 8031,
      "latitude": "48.88628000",
      "longitude": "21.93930000",
      "timezone": "Europe/Bratislava",
      "wikiDataId": "Q1035167",
      "country_code": "SK",
      "state_code": "PV",
      "state_id": 4354,
      "country_id": 200
    },
    {
      "id": 104393,
      "name": "Гиралтовце",
      "name_default": "Giraltovce",
      "native": "Giraltovce",
      "type": "city",
      "level": null,
      "parent_id": null,
      "population": 3958,
      "latitude": "49.11398000",
      "longitude": "21.51731000",
      "timezone": "Europe/Bratislava",
      "wikiDataId": "Q550357",
      "country_code": "SK",
      "state_code": "PV",
      "state_id": 4354,
      "country_id": 200
    },
    {
      "id": 104399,
      "name": "Гуменне",
      "name_default": "Humenné",
      "native": "Humenné",
      "type": "adm2",
      "level": null,
      "parent_id": null,
      "population": 29567,
      "latitude": "48.93707000",
      "longitude": "21.91625000",
      "timezone": "Europe/Bratislava",
      "wikiDataId": "Q502264",
      "country_code": "SK",
      "state_code": "PV",
      "state_id": 4354,
      "country_id": 200
    },
    {
      "id": 104405,
      "name": "Кежмарок",
      "name_default": "Kežmarok",
      "native": "Kežmarok",
      "type": "adm2",
      "level": null,
      "parent_id": null,
      "population": 15145,
      "latitude": "49.13571000",
      "longitude": "20.43352000",
      "timezone": "Europe/Bratislava",
      "wikiDataId": "Q327977",
      "country_code": "SK",
      "state_code": "PV",
      "state_id": 4354,
      "country_id": 200
    },
    {
      "id": 104422,
      "name": "Левоча",
      "name_default": "Levoča",
      "native": "Levoča",
      "type": "adm2",
      "level": null,
      "parent_id": null,
      "population": 13905,
      "latitude": "49.02173000",
      "longitude": "20.59212000",
      "timezone": "Europe/Bratislava",
      "wikiDataId": "Q242478",
      "country_code": "SK",
      "state_code": "PV",
      "state_id": 4354,
      "country_id": 200
    },
    {
      "id": 104423,
      "name": "Липаны",
      "name_default": "Lipany",
      "native": "Lipany",
      "type": "city",
      "level": null,
      "parent_id": null,
      "population": 6450,
      "latitude": "49.15376000",
      "longitude": "20.96382000",
      "timezone": "Europe/Bratislava",
      "wikiDataId": "Q847118",
      "country_code": "SK",
      "state_code": "PV",
      "state_id": 4354,
      "country_id": 200
    },
    {
      "id": 104590,
      "name": "Любица",
      "name_default": "Ľubica",
      "native": "Ľubica",
      "type": "city",
      "level": null,
      "parent_id": null,
      "population": 4482,
      "latitude": "49.11667000",
      "longitude": "20.45000000",
      "timezone": "Europe/Bratislava",
      "wikiDataId": "Q341490",
      "country_code": "SK",
      "state_code": "PV",
      "state_id": 4354,
      "country_id": 200
    },
    {
      "id": 104432,
      "name": "Медзилаборце",
      "name_default": "Medzilaborce",
      "native": "Medzilaborce",
      "type": "city",
      "level": null,
      "parent_id": null,
      "population": 5723,
      "latitude": "49.27195000",
      "longitude": "21.90073000",
      "timezone": "Europe/Bratislava",
      "wikiDataId": "Q578686",
      "country_code": "SK",
      "state_code": "PV",
      "state_id": 4354,
      "country_id": 200
    },
    {
      "id": 104442,
      "name": "Нова Лесна",
      "name_default": "Nová Lesná",
      "native": "New Lesná",
      "type": "city",
      "level": null,
      "parent_id": null,
      "population": 1646,
      "latitude": "49.12253000",
      "longitude": "20.26737000",
      "timezone": "Europe/Bratislava",
      "wikiDataId": "Q664187",
      "country_code": "SK",
      "state_code": "PV",
      "state_id": 4354,
      "country_id": 200
    },
    {
      "id": 104449,
      "name": "Окрес Бардейов",
      "name_default": "Okres Bardejov",
      "native": "Okres Bardejov",
      "type": "city",
      "level": null,
      "parent_id": null,
      "population": null,
      "latitude": "49.28333000",
      "longitude": "21.28333000",
      "timezone": "Europe/Bratislava",
      "wikiDataId": "Q836179",
      "country_code": "SK",
      "state_code": "PV",
      "state_id": 4354,
      "country_id": 200
    },
    {
      "id": 104464,
      "name": "Окр Гуменне",
      "name_default": "Okres Humenné",
      "native": "Okres Humenné",
      "type": "city",
      "level": null,
      "parent_id": null,
      "population": 58257,
      "latitude": "48.93333000",
      "longitude": "21.91667000",
      "timezone": "Europe/Bratislava",
      "wikiDataId": "Q837897",
      "country_code": "SK",
      "state_code": "PV",
      "state_id": 4354,
      "country_id": 200
    },
    {
      "id": 104466,
      "name": "Okres Kežmarok",
      "name_default": "Okres Kežmarok",
      "native": "Okres Kežmarok",
      "type": "city",
      "level": null,
      "parent_id": null,
      "population": 75862,
      "latitude": "49.13593000",
      "longitude": "20.42929000",
      "timezone": "Europe/Bratislava",
      "wikiDataId": "Q636864",
      "country_code": "SK",
      "state_code": "PV",
      "state_id": 4354,
      "country_id": 200
    },
    {
      "id": 104472,
      "name": "Окрес Левоча",
      "name_default": "Okres Levoča",
      "native": "Okres Levoča",
      "type": "city",
      "level": null,
      "parent_id": null,
      "population": 33310,
      "latitude": "49.01986000",
      "longitude": "20.57688000",
      "timezone": "Europe/Bratislava",
      "wikiDataId": "Q837877",
      "country_code": "SK",
      "state_code": "PV",
      "state_id": 4354,
      "country_id": 200
    },
    {
      "id": 104477,
      "name": "Окрес Медзилаборце",
      "name_default": "Okres Medzilaborce",
      "native": "Okres Medzilaborce",
      "type": "city",
      "level": null,
      "parent_id": null,
      "population": 10605,
      "latitude": "49.27062000",
      "longitude": "21.90200000",
      "timezone": "Europe/Bratislava",
      "wikiDataId": "Q837884",
      "country_code": "SK",
      "state_code": "PV",
      "state_id": 4354,
      "country_id": 200
    },
    {
      "id": 104488,
      "name": "Окрес Попрад",
      "name_default": "Okres Poprad",
      "native": "Okres Poprad",
      "type": "city",
      "level": null,
      "parent_id": null,
      "population": 101834,
      "latitude": "49.05000000",
      "longitude": "20.30000000",
      "timezone": "Europe/Bratislava",
      "wikiDataId": "Q830982",
      "country_code": "SK",
      "state_code": "PV",
      "state_id": 4354,
      "country_id": 200
    },
    {
      "id": 104490,
      "name": "Окрест Прешов",
      "name_default": "Okres Prešov",
      "native": "Okres Prešov",
      "type": "city",
      "level": null,
      "parent_id": null,
      "population": 175447,
      "latitude": "49.00000000",
      "longitude": "21.25000000",
      "timezone": "Europe/Bratislava",
      "wikiDataId": "Q756658",
      "country_code": "SK",
      "state_code": "PV",
      "state_id": 4354,
      "country_id": 200
    },
    {
      "id": 104496,
      "name": "Окрес Сабинов",
      "name_default": "Okres Sabinov",
      "native": "Okres Sabinov",
      "type": "city",
      "level": null,
      "parent_id": null,
      "population": 61995,
      "latitude": "49.10115000",
      "longitude": "21.09844000",
      "timezone": "Europe/Bratislava",
      "wikiDataId": "Q747926",
      "country_code": "SK",
      "state_code": "PV",
      "state_id": 4354,
      "country_id": 200
    },
    {
      "id": 104500,
      "name": "Окрес Снина",
      "name_default": "Okres Snina",
      "native": "Okres Snina",
      "type": "city",
      "level": null,
      "parent_id": null,
      "population": 33792,
      "latitude": "48.98579000",
      "longitude": "22.15059000",
      "timezone": "Europe/Bratislava",
      "wikiDataId": "Q837888",
      "country_code": "SK",
      "state_code": "PV",
      "state_id": 4354,
      "country_id": 200
    },
    {
      "id": 104503,
      "name": "Okres Stará Ĺubovňa",
      "name_default": "Okres Stará Ĺubovňa",
      "native": "Okres Stará Ĺubovňa",
      "type": "city",
      "level": null,
      "parent_id": null,
      "population": 53392,
      "latitude": "49.30000000",
      "longitude": "20.70000000",
      "timezone": "Europe/Bratislava",
      "wikiDataId": "Q831001",
      "country_code": "SK",
      "state_code": "PV",
      "state_id": 4354,
      "country_id": 200
    },
    {
      "id": 104504,
      "name": "Окрес Стропков",
      "name_default": "Okres Stropkov",
      "native": "Okres Stropkov",
      "type": "city",
      "level": null,
      "parent_id": null,
      "population": 19414,
      "latitude": "49.20249000",
      "longitude": "21.65025000",
      "timezone": "Europe/Bratislava",
      "wikiDataId": "Q777963",
      "country_code": "SK",
      "state_code": "PV",
      "state_id": 4354,
      "country_id": 200
    },
    {
      "id": 104505,
      "name": "Окрес Свидник",
      "name_default": "Okres Svidník",
      "native": "Okres Svidník",
      "type": "city",
      "level": null,
      "parent_id": null,
      "population": null,
      "latitude": "49.30000000",
      "longitude": "21.56667000",
      "timezone": "Europe/Bratislava",
      "wikiDataId": "Q833845",
      "country_code": "SK",
      "state_code": "PV",
      "state_id": 4354,
      "country_id": 200
    },
    {
      "id": 104513,
      "name": "Okres Vranov nad Topľou",
      "name_default": "Okres Vranov nad Topľou",
      "native": "Okres Vranov nad Topľou",
      "type": "city",
      "level": null,
      "parent_id": null,
      "population": 79395,
      "latitude": "48.90000000",
      "longitude": "21.68333000",
      "timezone": "Europe/Bratislava",
      "wikiDataId": "Q837874",
      "country_code": "SK",
      "state_code": "PV",
      "state_id": 4354,
      "country_id": 200
    },
    {
      "id": 104526,
      "name": "Подолинец",
      "name_default": "Podolínec",
      "native": "Podolínec",
      "type": "city",
      "level": null,
      "parent_id": null,
      "population": 3048,
      "latitude": "49.25869000",
      "longitude": "20.53600000",
      "timezone": "Europe/Bratislava",
      "wikiDataId": "Q852324",
      "country_code": "SK",
      "state_code": "PV",
      "state_id": 4354,
      "country_id": 200
    },
    {
      "id": 104528,
      "name": "Попрад",
      "name_default": "Poprad",
      "native": "Poprad",
      "type": "adm2",
      "level": null,
      "parent_id": null,
      "population": 48352,
      "latitude": "49.06144000",
      "longitude": "20.29798000",
      "timezone": "Europe/Bratislava",
      "wikiDataId": "Q26393",
      "country_code": "SK",
      "state_code": "PV",
      "state_id": 4354,
      "country_id": 200
    },
    {
      "id": 104530,
      "name": "Прешов",
      "name_default": "Prešov",
      "native": "Prešov",
      "type": "adm1",
      "level": null,
      "parent_id": null,
      "population": 81702,
      "latitude": "48.99839000",
      "longitude": "21.23393000",
      "timezone": "Europe/Bratislava",
      "wikiDataId": "Q26119",
      "country_code": "SK",
      "state_code": "PV",
      "state_id": 4354,
      "country_id": 200
    },
    {
      "id": 104539,
      "name": "Сабинов",
      "name_default": "Sabinov",
      "native": "Sabinov",
      "type": "adm2",
      "level": null,
      "parent_id": null,
      "population": 12131,
      "latitude": "49.10309000",
      "longitude": "21.09880000",
      "timezone": "Europe/Bratislava",
      "wikiDataId": "Q837478",
      "country_code": "SK",
      "state_code": "PV",
      "state_id": 4354,
      "country_id": 200
    },
    {
      "id": 104546,
      "name": "Снина",
      "name_default": "Snina",
      "native": "Snina",
      "type": "adm2",
      "level": null,
      "parent_id": null,
      "population": 17879,
      "latitude": "48.98857000",
      "longitude": "22.15099000",
      "timezone": "Europe/Bratislava",
      "wikiDataId": "Q754788",
      "country_code": "SK",
      "state_code": "PV",
      "state_id": 4354,
      "country_id": 200
    },
    {
      "id": 104548,
      "name": "Spišská Belá",
      "name_default": "Spišská Belá",
      "native": "Spišská Belá",
      "type": "city",
      "level": null,
      "parent_id": null,
      "population": 6660,
      "latitude": "49.18725000",
      "longitude": "20.45948000",
      "timezone": "Europe/Bratislava",
      "wikiDataId": "Q605059",
      "country_code": "SK",
      "state_code": "PV",
      "state_id": 4354,
      "country_id": 200
    },
    {
      "id": 104550,
      "name": "Спишске Подградье",
      "name_default": "Spišské Podhradie",
      "native": "Spišské Podhradie",
      "type": "city",
      "level": null,
      "parent_id": null,
      "population": 3730,
      "latitude": "49.00088000",
      "longitude": "20.75307000",
      "timezone": "Europe/Bratislava",
      "wikiDataId": "Q537778",
      "country_code": "SK",
      "state_code": "PV",
      "state_id": 4354,
      "country_id": 200
    },
    {
      "id": 104552,
      "name": "Stará Ľubovňa",
      "name_default": "Stará Ľubovňa",
      "native": "Stará Ľubovňa",
      "type": "adm2",
      "level": null,
      "parent_id": null,
      "population": 15599,
      "latitude": "49.29859000",
      "longitude": "20.68620000",
      "timezone": "Europe/Bratislava",
      "wikiDataId": "Q605521",
      "country_code": "SK",
      "state_code": "PV",
      "state_id": 4354,
      "country_id": 200
    },
    {
      "id": 104594,
      "name": "Штрба",
      "name_default": "Štrba",
      "native": "Štrba",
      "type": "city",
      "level": null,
      "parent_id": null,
      "population": 3337,
      "latitude": "49.05913000",
      "longitude": "20.07975000",
      "timezone": "Europe/Bratislava",
      "wikiDataId": "Q373739",
      "country_code": "SK",
      "state_code": "PV",
      "state_id": 4354,
      "country_id": 200
    },
    {
      "id": 104553,
      "name": "Стропков",
      "name_default": "Stropkov",
      "native": "Stropkov",
      "type": "adm2",
      "level": null,
      "parent_id": null,
      "population": 9683,
      "latitude": "49.20211000",
      "longitude": "21.65216000",
      "timezone": "Europe/Bratislava",
      "wikiDataId": "Q750413",
      "country_code": "SK",
      "state_code": "PV",
      "state_id": 4354,
      "country_id": 200
    },
    {
      "id": 104556,
      "name": "Свидник",
      "name_default": "Svidník",
      "native": "Svidník",
      "type": "adm2",
      "level": null,
      "parent_id": null,
      "population": 9647,
      "latitude": "49.30819000",
      "longitude": "21.57030000",
      "timezone": "Europe/Bratislava",
      "wikiDataId": "Q782928",
      "country_code": "SK",
      "state_code": "PV",
      "state_id": 4354,
      "country_id": 200
    },
    {
      "id": 104557,
      "name": "Свит",
      "name_default": "Svit",
      "native": "SVIT",
      "type": "city",
      "level": null,
      "parent_id": null,
      "population": 7717,
      "latitude": "49.06014000",
      "longitude": "20.20695000",
      "timezone": "Europe/Bratislava",
      "wikiDataId": "Q852318",
      "country_code": "SK",
      "state_code": "PV",
      "state_id": 4354,
      "country_id": 200
    },
    {
      "id": 104577,
      "name": "Vranov nad Topľou",
      "name_default": "Vranov nad Topľou",
      "native": "Vranov nad Topľou",
      "type": "adm2",
      "level": null,
      "parent_id": null,
      "population": 20262,
      "latitude": "48.88836000",
      "longitude": "21.68479000",
      "timezone": "Europe/Bratislava",
      "wikiDataId": "Q842005",
      "country_code": "SK",
      "state_code": "PV",
      "state_id": 4354,
      "country_id": 200
    },
    {
      "id": 104578,
      "name": "Врбов",
      "name_default": "Vrbov",
      "native": "Vrbov",
      "type": "city",
      "level": null,
      "parent_id": null,
      "population": 1525,
      "latitude": "49.08764000",
      "longitude": "20.42530000",
      "timezone": "Europe/Bratislava",
      "wikiDataId": "Q545706",
      "country_code": "SK",
      "state_code": "PV",
      "state_id": 4354,
      "country_id": 200
    },
    {
      "id": 104583,
      "name": "Вышне Ружбахи",
      "name_default": "Vyšné Ružbachy",
      "native": "Vyšné Ružbachy",
      "type": "city",
      "level": null,
      "parent_id": null,
      "population": 1443,
      "latitude": "49.30387000",
      "longitude": "20.56558000",
      "timezone": "Europe/Bratislava",
      "wikiDataId": "Q746119",
      "country_code": "SK",
      "state_code": "PV",
      "state_id": 4354,
      "country_id": 200
    },
    {
      "id": 104582,
      "name": "Высокие Татры",
      "name_default": "Vysoké Tatry",
      "native": "Vysoké Tatry",
      "type": "city",
      "level": null,
      "parent_id": null,
      "population": 3770,
      "latitude": "49.13637000",
      "longitude": "20.24386000",
      "timezone": "Europe/Bratislava",
      "wikiDataId": "Q612516",
      "country_code": "SK",
      "state_code": "PV",
      "state_id": 4354,
      "country_id": 200
    },
    {
      "id": 104598,
      "name": "Ждиар",
      "name_default": "Ždiar",
      "native": "Ždiar",
      "type": "city",
      "level": null,
      "parent_id": null,
      "population": 1357,
      "latitude": "49.27100000",
      "longitude": "20.26239000",
      "timezone": "Europe/Bratislava",
      "wikiDataId": "Q393435",
      "country_code": "SK",
      "state_code": "PV",
      "state_id": 4354,
      "country_id": 200
    }
  ]
}
