{
  "locale": "hi",
  "country": {
    "id": 90,
    "code": "GT",
    "iso3": "GTM",
    "numeric_code": "320",
    "name": "ग्वाटेमाला",
    "name_default": "Guatemala",
    "native": "Guatemala",
    "capital": "Guatemala City",
    "phonecode": "502",
    "currency": "GTQ",
    "currency_name": "Guatemalan quetzal",
    "currency_symbol": "Q",
    "tld": ".gt",
    "population": 18079810,
    "gdp": 121177,
    "region": "Americas",
    "region_id": 2,
    "subregion": "Central America",
    "subregion_id": 9,
    "nationality": "Guatemalan",
    "timezones": [
      {
        "zoneName": "America/Guatemala",
        "gmtOffset": -21600,
        "gmtOffsetName": "UTC-06:00",
        "abbreviation": "CST",
        "tzName": "Central Standard Time (North America"
      }
    ],
    "latitude": "15.50000000",
    "longitude": "-90.25000000",
    "emoji": "🇬🇹",
    "emojiU": "U+1F1EC U+1F1F9"
  },
  "state": {
    "id": 3670,
    "code": "13",
    "iso2": "13",
    "iso3166_2": "GT-13",
    "fips_code": "13",
    "name": "हुएहुएतेनांगो",
    "name_default": "Huehuetenango ",
    "native": "Huehuetenango",
    "type": "department",
    "level": null,
    "parent_id": null,
    "population": null,
    "latitude": "15.60641800",
    "longitude": "-91.64422170",
    "timezone": "America/Guatemala",
    "wikiDataId": "Q842266",
    "country_code": "GT"
  },
  "cities": [
    {
      "id": 53427,
      "name": "अगुआकाटन",
      "name_default": "Aguacatán",
      "native": "Aguacatán",
      "type": "adm2",
      "level": null,
      "parent_id": null,
      "population": 5572,
      "latitude": "15.34222000",
      "longitude": "-91.31141000",
      "timezone": "America/Guatemala",
      "wikiDataId": "Q2402581",
      "country_code": "GT",
      "state_code": "13",
      "state_id": 3670,
      "country_id": 90
    },
    {
      "id": 53435,
      "name": "बारिलस",
      "name_default": "Barillas",
      "native": "Barillas",
      "type": "adm2",
      "level": null,
      "parent_id": null,
      "population": 14100,
      "latitude": "15.80361000",
      "longitude": "-91.31583000",
      "timezone": "America/Guatemala",
      "wikiDataId": "Q2390990",
      "country_code": "GT",
      "state_code": "13",
      "state_id": 3670,
      "country_id": 90
    },
    {
      "id": 53447,
      "name": "चियांटला",
      "name_default": "Chiantla",
      "native": "Chiantla",
      "type": "adm2",
      "level": null,
      "parent_id": null,
      "population": 8465,
      "latitude": "15.35484000",
      "longitude": "-91.45807000",
      "timezone": "America/Guatemala",
      "wikiDataId": "Q2608965",
      "country_code": "GT",
      "state_code": "13",
      "state_id": 3670,
      "country_id": 90
    },
    {
      "id": 53464,
      "name": "कोलोटेनैंगो",
      "name_default": "Colotenango",
      "native": "Colotenango",
      "type": "adm2",
      "level": null,
      "parent_id": null,
      "population": 1690,
      "latitude": "15.40602000",
      "longitude": "-91.71267000",
      "timezone": "America/Guatemala",
      "wikiDataId": "Q2402611",
      "country_code": "GT",
      "state_code": "13",
      "state_id": 3670,
      "country_id": 90
    },
    {
      "id": 53470,
      "name": "कॉन्सेप्सिओन हुइस्टा",
      "name_default": "Concepción Huista",
      "native": "Concepción Huista",
      "type": "adm2",
      "level": null,
      "parent_id": null,
      "population": 8925,
      "latitude": "15.62378000",
      "longitude": "-91.66521000",
      "timezone": "America/Guatemala",
      "wikiDataId": "Q2401883",
      "country_code": "GT",
      "state_code": "13",
      "state_id": 3670,
      "country_id": 90
    },
    {
      "id": 53476,
      "name": "कुइल्को",
      "name_default": "Cuilco",
      "native": "Cuilco",
      "type": "adm2",
      "level": null,
      "parent_id": null,
      "population": 1713,
      "latitude": "15.40719000",
      "longitude": "-91.94667000",
      "timezone": "America/Guatemala",
      "wikiDataId": "Q2402387",
      "country_code": "GT",
      "state_code": "13",
      "state_id": 3670,
      "country_id": 90
    },
    {
      "id": 53503,
      "name": "हुएहुएतेनांगो",
      "name_default": "Huehuetenango",
      "native": "Huehuetenango",
      "type": "adm1",
      "level": null,
      "parent_id": null,
      "population": 79426,
      "latitude": "15.31918000",
      "longitude": "-91.47241000",
      "timezone": "America/Guatemala",
      "wikiDataId": "Q984863",
      "country_code": "GT",
      "state_code": "13",
      "state_id": 3670,
      "country_id": 90
    },
    {
      "id": 53507,
      "name": "इक्स्टाहुआकैन",
      "name_default": "Ixtahuacán",
      "native": "Ixtahuacán",
      "type": "adm2",
      "level": null,
      "parent_id": null,
      "population": 3708,
      "latitude": "15.41688000",
      "longitude": "-91.76927000",
      "timezone": "America/Guatemala",
      "wikiDataId": "Q2401814",
      "country_code": "GT",
      "state_code": "13",
      "state_id": 3670,
      "country_id": 90
    },
    {
      "id": 53509,
      "name": "जैकाल्टेनैंगो",
      "name_default": "Jacaltenango",
      "native": "Jacaltenango",
      "type": "adm2",
      "level": null,
      "parent_id": null,
      "population": 44605,
      "latitude": "15.66662000",
      "longitude": "-91.71177000",
      "timezone": "America/Guatemala",
      "wikiDataId": "Q1124580",
      "country_code": "GT",
      "state_code": "13",
      "state_id": 3670,
      "country_id": 90
    },
    {
      "id": 53521,
      "name": "ला लिबर्टाड",
      "name_default": "La Libertad",
      "native": "La Libertad",
      "type": "adm2",
      "level": null,
      "parent_id": null,
      "population": 6439,
      "latitude": "15.51421000",
      "longitude": "-91.86944000",
      "timezone": "America/Guatemala",
      "wikiDataId": "Q1748790",
      "country_code": "GT",
      "state_code": "13",
      "state_id": 3670,
      "country_id": 90
    },
    {
      "id": 53528,
      "name": "मालाकाटांसिटो",
      "name_default": "Malacatancito",
      "native": "Malacatancito",
      "type": "adm2",
      "level": null,
      "parent_id": null,
      "population": 2121,
      "latitude": "15.24457000",
      "longitude": "-91.49901000",
      "timezone": "America/Guatemala",
      "wikiDataId": "Q539311",
      "country_code": "GT",
      "state_code": "13",
      "state_id": 3670,
      "country_id": 90
    },
    {
      "id": 53604,
      "name": "नेन्टोन",
      "name_default": "Nentón",
      "native": "Nentón",
      "type": "adm2",
      "level": null,
      "parent_id": null,
      "population": 2530,
      "latitude": "15.80070000",
      "longitude": "-91.75464000",
      "timezone": "America/Guatemala",
      "wikiDataId": "Q2402097",
      "country_code": "GT",
      "state_code": "13",
      "state_id": 3670,
      "country_id": 90
    },
    {
      "id": 53656,
      "name": "सैन एंटोनियो हुइस्ता",
      "name_default": "San Antonio Huista",
      "native": "San Antonio Huista",
      "type": "adm2",
      "level": null,
      "parent_id": null,
      "population": 5669,
      "latitude": "15.65010000",
      "longitude": "-91.77163000",
      "timezone": "America/Guatemala",
      "wikiDataId": "Q2609240",
      "country_code": "GT",
      "state_code": "13",
      "state_id": 3670,
      "country_id": 90
    },
    {
      "id": 53678,
      "name": "सैन गैस्पर इक्सचिल",
      "name_default": "San Gaspar Ixchil",
      "native": "San Gaspar ixchil",
      "type": "adm2",
      "level": null,
      "parent_id": null,
      "population": 551,
      "latitude": "15.38796000",
      "longitude": "-91.72564000",
      "timezone": "America/Guatemala",
      "wikiDataId": "Q769939",
      "country_code": "GT",
      "state_code": "13",
      "state_id": 3670,
      "country_id": 90
    },
    {
      "id": 53691,
      "name": "सैन जुआन एटिटान",
      "name_default": "San Juan Atitán",
      "native": "San Juan Atitán",
      "type": "adm2",
      "level": null,
      "parent_id": null,
      "population": 1910,
      "latitude": "15.42886000",
      "longitude": "-91.62398000",
      "timezone": "America/Guatemala",
      "wikiDataId": "Q531288",
      "country_code": "GT",
      "state_code": "13",
      "state_id": 3670,
      "country_id": 90
    },
    {
      "id": 53696,
      "name": "सैन जुआन इक्सकॉय",
      "name_default": "San Juan Ixcoy",
      "native": "San Juan Ixcoy",
      "type": "adm2",
      "level": null,
      "parent_id": null,
      "population": 2535,
      "latitude": "15.60022000",
      "longitude": "-91.44639000",
      "timezone": "America/Guatemala",
      "wikiDataId": "Q2401833",
      "country_code": "GT",
      "state_code": "13",
      "state_id": 3670,
      "country_id": 90
    },
    {
      "id": 53714,
      "name": "सैन माटेओ इक्स्टाटन",
      "name_default": "San Mateo Ixtatán",
      "native": "San Mateo Ixtatán",
      "type": "adm2",
      "level": null,
      "parent_id": null,
      "population": 13213,
      "latitude": "15.83194000",
      "longitude": "-91.47806000",
      "timezone": "America/Guatemala",
      "wikiDataId": "Q2609270",
      "country_code": "GT",
      "state_code": "13",
      "state_id": 3670,
      "country_id": 90
    },
    {
      "id": 53715,
      "name": "सैन मिगुएल अकाटान",
      "name_default": "San Miguel Acatán",
      "native": "San Miguel Acatán",
      "type": "adm2",
      "level": null,
      "parent_id": null,
      "population": 2773,
      "latitude": "15.70401000",
      "longitude": "-91.59771000",
      "timezone": "America/Guatemala",
      "wikiDataId": "Q743437",
      "country_code": "GT",
      "state_code": "13",
      "state_id": 3670,
      "country_id": 90
    },
    {
      "id": 53727,
      "name": "सैन पेड्रो नेक्टा",
      "name_default": "San Pedro Necta",
      "native": "San Pedro Necta",
      "type": "adm2",
      "level": null,
      "parent_id": null,
      "population": 3554,
      "latitude": "15.49142000",
      "longitude": "-91.76551000",
      "timezone": "America/Guatemala",
      "wikiDataId": "Q734440",
      "country_code": "GT",
      "state_code": "13",
      "state_id": 3670,
      "country_id": 90
    },
    {
      "id": 53732,
      "name": "सैन राफेल ला इंडिपेंडेंसिया",
      "name_default": "San Rafael La Independencia",
      "native": "San Rafael La Independencia",
      "type": "adm2",
      "level": null,
      "parent_id": null,
      "population": 1059,
      "latitude": "15.70150000",
      "longitude": "-91.53553000",
      "timezone": "America/Guatemala",
      "wikiDataId": "Q2401930",
      "country_code": "GT",
      "state_code": "13",
      "state_id": 3670,
      "country_id": 90
    },
    {
      "id": 53734,
      "name": "सैन राफेल पेट्ज़ल",
      "name_default": "San Rafael Petzal",
      "native": "San Rafael Petzal",
      "type": "adm2",
      "level": null,
      "parent_id": null,
      "population": 1525,
      "latitude": "15.40487000",
      "longitude": "-91.66451000",
      "timezone": "America/Guatemala",
      "wikiDataId": "Q2402524",
      "country_code": "GT",
      "state_code": "13",
      "state_id": 3670,
      "country_id": 90
    },
    {
      "id": 53738,
      "name": "सैन सेबेस्टियन कोआटन",
      "name_default": "San Sebastián Coatán",
      "native": "San Sebastián Coatán",
      "type": "adm2",
      "level": null,
      "parent_id": null,
      "population": 801,
      "latitude": "15.73584000",
      "longitude": "-91.56285000",
      "timezone": "America/Guatemala",
      "wikiDataId": "Q2402150",
      "country_code": "GT",
      "state_code": "13",
      "state_id": 3670,
      "country_id": 90
    },
    {
      "id": 53739,
      "name": "सैन सेबेस्टियन हुएहुएटेनैंगो",
      "name_default": "San Sebastián Huehuetenango",
      "native": "San Sebastián Huehuetenango",
      "type": "adm2",
      "level": null,
      "parent_id": null,
      "population": 1311,
      "latitude": "15.38768000",
      "longitude": "-91.61530000",
      "timezone": "America/Guatemala",
      "wikiDataId": "Q951729",
      "country_code": "GT",
      "state_code": "13",
      "state_id": 3670,
      "country_id": 90
    },
    {
      "id": 53744,
      "name": "सांता एना हुइस्ता",
      "name_default": "Santa Ana Huista",
      "native": "Santa Ana Huista",
      "type": "adm2",
      "level": null,
      "parent_id": null,
      "population": 2004,
      "latitude": "15.68085000",
      "longitude": "-91.82005000",
      "timezone": "America/Guatemala",
      "wikiDataId": "Q2402405",
      "country_code": "GT",
      "state_code": "13",
      "state_id": 3670,
      "country_id": 90
    },
    {
      "id": 53747,
      "name": "सैंटा बारबरा",
      "name_default": "Santa Bárbara",
      "native": "Santa Bárbara",
      "type": "adm2",
      "level": null,
      "parent_id": null,
      "population": 888,
      "latitude": "15.31617000",
      "longitude": "-91.63279000",
      "timezone": "America/Guatemala",
      "wikiDataId": "Q2401903",
      "country_code": "GT",
      "state_code": "13",
      "state_id": 3670,
      "country_id": 90
    },
    {
      "id": 53760,
      "name": "सांता यूलालिया",
      "name_default": "Santa Eulalia",
      "native": "Santa Eulalia",
      "type": "adm2",
      "level": null,
      "parent_id": null,
      "population": 4921,
      "latitude": "15.73060000",
      "longitude": "-91.45846000",
      "timezone": "America/Guatemala",
      "wikiDataId": "Q1748868",
      "country_code": "GT",
      "state_code": "13",
      "state_id": 3670,
      "country_id": 90
    },
    {
      "id": 53771,
      "name": "सैंटियागो चिमाल्टेनांगो",
      "name_default": "Santiago Chimaltenango",
      "native": "Santiago Chimaltenango",
      "type": "adm2",
      "level": null,
      "parent_id": null,
      "population": 3020,
      "latitude": "15.47658000",
      "longitude": "-91.69656000",
      "timezone": "America/Guatemala",
      "wikiDataId": "Q2402809",
      "country_code": "GT",
      "state_code": "13",
      "state_id": 3670,
      "country_id": 90
    },
    {
      "id": 53783,
      "name": "सोलोमा",
      "name_default": "Soloma",
      "native": "Soloma",
      "type": "adm2",
      "level": null,
      "parent_id": null,
      "population": 49030,
      "latitude": "15.65841000",
      "longitude": "-91.42994000",
      "timezone": "America/Guatemala",
      "wikiDataId": "Q2402459",
      "country_code": "GT",
      "state_code": "13",
      "state_id": 3670,
      "country_id": 90
    },
    {
      "id": 53791,
      "name": "टेक्टिटान",
      "name_default": "Tectitán",
      "native": "Tectitán",
      "type": "adm2",
      "level": null,
      "parent_id": null,
      "population": 743,
      "latitude": "15.30630000",
      "longitude": "-92.06051000",
      "timezone": "America/Guatemala",
      "wikiDataId": "Q2402198",
      "country_code": "GT",
      "state_code": "13",
      "state_id": 3670,
      "country_id": 90
    },
    {
      "id": 53794,
      "name": "Todos Santos Cuchumatán",
      "name_default": "Todos Santos Cuchumatán",
      "native": "Todos Santos Cuchumatán",
      "type": "adm2",
      "level": null,
      "parent_id": null,
      "population": 3289,
      "latitude": "15.50846000",
      "longitude": "-91.60382000",
      "timezone": "America/Guatemala",
      "wikiDataId": "Q2608975",
      "country_code": "GT",
      "state_code": "13",
      "state_id": 3670,
      "country_id": 90
    }
  ]
}
